[{"id":1,"name":"Franciska","lat":22.9353419,"lon":113.6587617,"puntuation":2.5,"address":"1862 Eliot Place"},
{"id":2,"name":"Chrisy","lat":45.7631589,"lon":106.2650297,"puntuation":3.3,"address":"665 Ilene Trail"},
{"id":3,"name":"Alidia","lat":35.3913832,"lon":49.0337401,"puntuation":4.6,"address":"8084 Chive Crossing"},
{"id":4,"name":"Keefe","lat":41.774053,"lon":126.042534,"puntuation":2.0,"address":"082 Larry Place"},
{"id":5,"name":"Scotty","lat":46.69823,"lon":-71.58275,"puntuation":4.7,"address":"4902 Melrose Lane"},
{"id":6,"name":"Kent","lat":-5.0424945,"lon":32.8197329,"puntuation":4.0,"address":"034 Elgar Hill"},
{"id":7,"name":"Dorita","lat":15.6452543,"lon":-91.6875527,"puntuation":3.5,"address":"86104 Gateway Court"},
{"id":8,"name":"Tiphany","lat":34.26645,"lon":108.960747,"puntuation":2.2,"address":"7116 Delladonna Street"},
{"id":9,"name":"Theobald","lat":35.202503,"lon":102.521807,"puntuation":4.5,"address":"754 Sachtjen Park"},
{"id":10,"name":"Broderic","lat":29.163159,"lon":121.007244,"puntuation":1.3,"address":"850 8th Avenue"},
{"id":11,"name":"Billy","lat":61.00862,"lon":14.57173,"puntuation":4.3,"address":"3838 Michigan Terrace"},
{"id":12,"name":"Jozef","lat":28.324632,"lon":114.108985,"puntuation":4.2,"address":"89981 Green Point"},
{"id":13,"name":"Yardley","lat":14.5020933,"lon":121.0309165,"puntuation":2.3,"address":"9251 Northwestern Alley"},
{"id":14,"name":"Dela","lat":-7.8748176,"lon":110.3255365,"puntuation":4.6,"address":"605 Summit Road"},
{"id":15,"name":"Cristin","lat":14.6927846,"lon":121.1100951,"puntuation":4.1,"address":"36 Sachtjen Circle"},
{"id":16,"name":"Caren","lat":26.312444,"lon":99.850365,"puntuation":3.5,"address":"1889 Jenifer Street"},
{"id":17,"name":"Jory","lat":49.430258,"lon":17.8571512,"puntuation":2.5,"address":"9825 Monument Circle"},
{"id":18,"name":"Brigg","lat":29.5530941,"lon":118.9353968,"puntuation":4.2,"address":"3 Bayside Pass"},
{"id":19,"name":"Masha","lat":14.2647129,"lon":121.0062678,"puntuation":4.3,"address":"697 Mayfield Junction"},
{"id":20,"name":"Jackqueline","lat":-34.1701324,"lon":-70.7406259,"puntuation":2.6,"address":"1 Burrows Avenue"},
{"id":21,"name":"Elvin","lat":40.6875315,"lon":22.8426988,"puntuation":3.6,"address":"41 Sugar Alley"},
{"id":22,"name":"Obidiah","lat":35.4889372,"lon":139.3909552,"puntuation":3.5,"address":"96 Division Crossing"},
{"id":23,"name":"Roderic","lat":14.5671014,"lon":121.0312325,"puntuation":4.5,"address":"496 Hintze Plaza"},
{"id":24,"name":"Freda","lat":-31.9326576,"lon":-57.9020535,"puntuation":2.5,"address":"6 Petterle Plaza"},
{"id":25,"name":"Vittorio","lat":-31.3927967,"lon":-64.2545133,"puntuation":2.6,"address":"7166 Hanover Junction"},
{"id":26,"name":"Ahmad","lat":40.207475,"lon":116.287531,"puntuation":3.6,"address":"51253 Dapin Drive"},
{"id":27,"name":"Shaylyn","lat":43.6422125,"lon":-79.3744257,"puntuation":3.7,"address":"31 Sachs Alley"},
{"id":28,"name":"Rora","lat":45.020739,"lon":14.6315962,"puntuation":4.8,"address":"46120 Oxford Road"},
{"id":29,"name":"Brnaba","lat":37.2374847,"lon":-121.8277925,"puntuation":2.7,"address":"63250 Dennis Place"},
{"id":30,"name":"Haily","lat":31.827364,"lon":119.9690478,"puntuation":4.8,"address":"215 Grayhawk Avenue"},
{"id":31,"name":"Don","lat":55.8569131,"lon":12.9108819,"puntuation":1.3,"address":"32931 Oak Valley Parkway"},
{"id":32,"name":"Nerte","lat":-8.7433,"lon":121.7445,"puntuation":3.2,"address":"175 Debs Park"},
{"id":33,"name":"Vachel","lat":33.7622962,"lon":132.7021114,"puntuation":3.4,"address":"65268 Mallard Center"},
{"id":34,"name":"Tyson","lat":-6.264999,"lon":106.8513919,"puntuation":3.6,"address":"3130 Oriole Terrace"},
{"id":35,"name":"Goldi","lat":51.4174812,"lon":5.5610329,"puntuation":3.8,"address":"498 Vidon Alley"},
{"id":36,"name":"Jarib","lat":39.8067,"lon":116.030192,"puntuation":1.8,"address":"31825 Meadow Valley Park"},
{"id":37,"name":"Pierette","lat":-23.2980974,"lon":-50.0726882,"puntuation":2.3,"address":"1937 Dixon Hill"},
{"id":38,"name":"Ceil","lat":41.3641068,"lon":2.133823,"puntuation":1.1,"address":"5670 Scott Plaza"},
{"id":39,"name":"Connie","lat":50.578132,"lon":15.0839052,"puntuation":1.3,"address":"49 Novick Hill"},
{"id":40,"name":"Skippy","lat":15.0676,"lon":43.64213,"puntuation":3.7,"address":"6997 Meadow Ridge Plaza"},
{"id":41,"name":"Yelena","lat":40.9314367,"lon":20.0032794,"puntuation":1.6,"address":"53 Kingsford Point"},
{"id":42,"name":"Blondy","lat":-2.6729327,"lon":-48.2393528,"puntuation":3.4,"address":"0 Sachtjen Pass"},
{"id":43,"name":"Gracia","lat":40.4918264,"lon":-7.5954135,"puntuation":3.3,"address":"1460 Nevada Crossing"},
{"id":44,"name":"Samson","lat":-7.869171,"lon":110.1236245,"puntuation":1.4,"address":"3 Rigney Alley"},
{"id":45,"name":"Wren","lat":41.3734134,"lon":-8.3802825,"puntuation":4.9,"address":"76 Sachtjen Place"},
{"id":46,"name":"Avictor","lat":-27.4697707,"lon":153.0251235,"puntuation":4.5,"address":"264 South Way"},
{"id":47,"name":"Vale","lat":38.2031194,"lon":23.9632194,"puntuation":3.6,"address":"2 Melody Junction"},
{"id":48,"name":"Junina","lat":37.943121,"lon":115.217658,"puntuation":1.4,"address":"9516 Vermont Pass"},
{"id":49,"name":"Carlene","lat":23.020673,"lon":113.751799,"puntuation":2.4,"address":"64 Fairview Lane"},
{"id":50,"name":"Lyn","lat":-28.2446355,"lon":-48.6764133,"puntuation":1.1,"address":"43406 Messerschmidt Crossing"},
{"id":51,"name":"Zak","lat":59.7434607,"lon":10.1922785,"puntuation":1.2,"address":"20534 Badeau Terrace"},
{"id":52,"name":"Feodor","lat":40.417358,"lon":117.500558,"puntuation":2.2,"address":"6453 Jenna Court"},
{"id":53,"name":"Isacco","lat":34.9116774,"lon":-5.9145568,"puntuation":4.2,"address":"45 Paget Court"},
{"id":54,"name":"Maynord","lat":13.264915,"lon":123.4256573,"puntuation":3.8,"address":"92186 Old Shore Lane"},
{"id":55,"name":"Loise","lat":32.2680738,"lon":-110.9923904,"puntuation":3.3,"address":"8 Mifflin Drive"},
{"id":56,"name":"Rawley","lat":9.3125556,"lon":42.1226825,"puntuation":1.0,"address":"3 David Park"},
{"id":57,"name":"Sibylle","lat":14.5975238,"lon":-91.7270911,"puntuation":2.6,"address":"28410 Arrowood Park"},
{"id":58,"name":"Pamela","lat":-6.6409658,"lon":106.8030892,"puntuation":2.7,"address":"50254 Caliangt Avenue"},
{"id":59,"name":"Pennie","lat":45.843424,"lon":127.75061,"puntuation":1.0,"address":"53464 Waxwing Road"},
{"id":60,"name":"Jean","lat":5.9042627,"lon":-4.8261424,"puntuation":1.9,"address":"93 Swallow Plaza"},
{"id":61,"name":"Lexy","lat":22.765392,"lon":112.964446,"puntuation":3.7,"address":"17215 Norway Maple Circle"},
{"id":62,"name":"Jeramey","lat":44.1675867,"lon":2.0308233,"puntuation":1.8,"address":"8 Myrtle Road"},
{"id":63,"name":"Krystal","lat":56.136002,"lon":111.722923,"puntuation":1.9,"address":"27 Melby Avenue"},
{"id":64,"name":"Gavra","lat":12.5840501,"lon":-1.2987349,"puntuation":2.3,"address":"65733 Tomscot Street"},
{"id":65,"name":"Gerty","lat":-6.8008183,"lon":107.1781769,"puntuation":4.4,"address":"2 Grover Center"},
{"id":66,"name":"Valry","lat":53.3870149,"lon":-6.2057463,"puntuation":2.3,"address":"193 Katie Hill"},
{"id":67,"name":"Veriee","lat":30.975215,"lon":101.127088,"puntuation":1.6,"address":"3 East Court"},
{"id":68,"name":"Jennifer","lat":25.5822549,"lon":-100.9086492,"puntuation":3.3,"address":"4 Magdeline Road"},
{"id":69,"name":"Sibyl","lat":39.7975767,"lon":-89.6551671,"puntuation":4.1,"address":"70 Mcguire Hill"},
{"id":70,"name":"Weston","lat":-25.304882,"lon":-49.0555691,"puntuation":4.7,"address":"5 Vermont Street"},
{"id":71,"name":"Madelina","lat":37.8247025,"lon":-25.6435923,"puntuation":3.2,"address":"80 Jana Place"},
{"id":72,"name":"Merrile","lat":35.632522,"lon":138.9562642,"puntuation":3.7,"address":"8 Debs Trail"},
{"id":73,"name":"Briant","lat":37.1597899,"lon":-8.0359507,"puntuation":3.8,"address":"30 Old Shore Place"},
{"id":74,"name":"Manda","lat":27.218444,"lon":116.525725,"puntuation":1.1,"address":"80 Farmco Place"},
{"id":75,"name":"Filberte","lat":10.444021,"lon":-75.275171,"puntuation":4.6,"address":"3203 Randy Alley"},
{"id":76,"name":"Lira","lat":-0.4660955,"lon":100.3984148,"puntuation":2.7,"address":"03674 Ridgeview Lane"},
{"id":77,"name":"Giusto","lat":22.75839,"lon":108.487368,"puntuation":1.4,"address":"540 Bay Court"},
{"id":78,"name":"Maureene","lat":-26.4417804,"lon":31.9416226,"puntuation":4.8,"address":"45034 American Street"},
{"id":79,"name":"Winn","lat":38.0878845,"lon":23.9761139,"puntuation":2.3,"address":"9 American Ash Road"},
{"id":80,"name":"Eugene","lat":16.183349,"lon":-22.9148168,"puntuation":4.2,"address":"6846 Bashford Hill"},
{"id":81,"name":"Marielle","lat":24.1301619,"lon":55.8023118,"puntuation":1.3,"address":"98 Carpenter Park"},
{"id":82,"name":"Howie","lat":-8.3031696,"lon":112.1132142,"puntuation":4.2,"address":"7572 Old Shore Court"},
{"id":83,"name":"Mellicent","lat":19.2874648,"lon":-99.6494479,"puntuation":2.1,"address":"60598 Carey Parkway"},
{"id":84,"name":"Sophey","lat":28.4728106,"lon":114.552112,"puntuation":1.8,"address":"772 Village Avenue"},
{"id":85,"name":"Dulsea","lat":45.843424,"lon":127.75061,"puntuation":4.4,"address":"5098 Basil Lane"},
{"id":86,"name":"Chrystel","lat":37.8210369,"lon":-25.5148137,"puntuation":4.6,"address":"0 Morning Lane"},
{"id":87,"name":"Klement","lat":59.3337467,"lon":18.0732103,"puntuation":1.4,"address":"7 Eliot Center"},
{"id":88,"name":"Jillene","lat":50.2318521,"lon":12.8719616,"puntuation":2.0,"address":"9926 Duke Pass"},
{"id":89,"name":"Manfred","lat":-26.2324014,"lon":-51.07813,"puntuation":4.5,"address":"86 Almo Parkway"},
{"id":90,"name":"Baryram","lat":50.4868505,"lon":17.5957117,"puntuation":3.4,"address":"798 Aberg Drive"},
{"id":91,"name":"Kalila","lat":13.9317086,"lon":99.7846002,"puntuation":4.7,"address":"21 Stephen Place"},
{"id":92,"name":"Gillan","lat":-0.3030988,"lon":36.080026,"puntuation":2.7,"address":"0356 Towne Road"},
{"id":93,"name":"Lock","lat":-2.9753131,"lon":35.4504347,"puntuation":1.2,"address":"04 Acker Trail"},
{"id":94,"name":"Brnaba","lat":50.4134249,"lon":14.908438,"puntuation":2.9,"address":"5 Jackson Parkway"},
{"id":95,"name":"Ximenes","lat":28.90499,"lon":109.667164,"puntuation":4.4,"address":"3 Artisan Circle"},
{"id":96,"name":"Analise","lat":49.8575338,"lon":18.1508117,"puntuation":1.5,"address":"2483 Holy Cross Hill"},
{"id":97,"name":"Robin","lat":-34.7063243,"lon":-58.4776004,"puntuation":1.5,"address":"843 Mallory Pass"},
{"id":98,"name":"Harald","lat":32.2746515,"lon":35.8960765,"puntuation":2.5,"address":"993 Truax Avenue"},
{"id":99,"name":"Eldon","lat":63.4529778,"lon":48.8833546,"puntuation":3.6,"address":"1766 Onsgard Drive"},
{"id":100,"name":"Tedi","lat":35.2495378,"lon":136.8995543,"puntuation":2.0,"address":"514 Hovde Avenue"},
{"id":101,"name":"Bren","lat":10.237,"lon":122.8993,"puntuation":4.7,"address":"2548 Mcbride Way"},
{"id":102,"name":"Jaclin","lat":53.0803781,"lon":85.6747154,"puntuation":3.2,"address":"6406 Debs Point"},
{"id":103,"name":"Sarina","lat":38.7360496,"lon":-9.1418159,"puntuation":4.3,"address":"93 Luster Point"},
{"id":104,"name":"Liana","lat":49.9166289,"lon":19.1520875,"puntuation":1.4,"address":"15677 Cody Trail"},
{"id":105,"name":"Lucias","lat":41.3270528,"lon":-8.5541453,"puntuation":4.8,"address":"351 Glendale Road"},
{"id":106,"name":"Rahal","lat":9.9578348,"lon":124.1789637,"puntuation":4.8,"address":"80 Nova Point"},
{"id":107,"name":"Georges","lat":39.9048438,"lon":117.2490532,"puntuation":3.7,"address":"0 Crowley Way"},
{"id":108,"name":"Nannie","lat":34.0078256,"lon":71.9355029,"puntuation":3.5,"address":"95 West Trail"},
{"id":109,"name":"El","lat":60.2093922,"lon":24.7375208,"puntuation":2.1,"address":"7 Packers Court"},
{"id":110,"name":"Cecile","lat":49.6560847,"lon":18.7568843,"puntuation":3.5,"address":"937 Delaware Drive"},
{"id":111,"name":"Melisa","lat":10.0679356,"lon":105.9464874,"puntuation":1.3,"address":"0 Barby Hill"},
{"id":112,"name":"Conny","lat":30.594336,"lon":105.236903,"puntuation":1.8,"address":"1 Springs Court"},
{"id":113,"name":"Dieter","lat":37.8967329,"lon":22.9286014,"puntuation":1.4,"address":"31309 Havey Crossing"},
{"id":114,"name":"Yelena","lat":32.42465,"lon":35.364533,"puntuation":2.4,"address":"716 Talmadge Court"},
{"id":115,"name":"Van","lat":50.109938,"lon":30.6298846,"puntuation":2.3,"address":"6 Rockefeller Terrace"},
{"id":116,"name":"Romain","lat":29.103856,"lon":110.451191,"puntuation":2.5,"address":"8 Onsgard Point"},
{"id":117,"name":"Johann","lat":18.1219608,"lon":121.6723186,"puntuation":2.5,"address":"74 Hoard Way"},
{"id":118,"name":"Jorrie","lat":29.492402,"lon":118.604556,"puntuation":3.1,"address":"198 Gerald Junction"},
{"id":119,"name":"Svend","lat":41.664757,"lon":123.344062,"puntuation":3.1,"address":"317 Loomis Trail"},
{"id":120,"name":"Fee","lat":39.525207,"lon":117.711487,"puntuation":4.3,"address":"95 Lighthouse Bay Point"},
{"id":121,"name":"Arne","lat":19.6938888,"lon":-99.2591666,"puntuation":3.8,"address":"461 Welch Park"},
{"id":122,"name":"Henri","lat":39.5557317,"lon":21.7678951,"puntuation":4.1,"address":"63 Butternut Way"},
{"id":123,"name":"Kai","lat":60.1014533,"lon":29.9573604,"puntuation":2.7,"address":"5 Oneill Alley"},
{"id":124,"name":"Marcelo","lat":60.9501559,"lon":21.444609,"puntuation":1.6,"address":"9 Bonner Parkway"},
{"id":125,"name":"Chickie","lat":23.0818155,"lon":-82.3072013,"puntuation":3.7,"address":"552 Basil Terrace"},
{"id":126,"name":"Jemmie","lat":40.6918277,"lon":20.9424673,"puntuation":4.0,"address":"0388 Mayer Parkway"},
{"id":127,"name":"Elene","lat":-22.3463487,"lon":-48.7862736,"puntuation":2.9,"address":"9074 Stephen Plaza"},
{"id":128,"name":"Samantha","lat":0.5772758,"lon":31.5370003,"puntuation":4.9,"address":"7 Gale Drive"},
{"id":129,"name":"Hubert","lat":30.921396,"lon":112.444197,"puntuation":3.0,"address":"2104 Lakewood Trail"},
{"id":130,"name":"Rici","lat":-8.2322924,"lon":124.6806813,"puntuation":1.0,"address":"84 Lerdahl Road"},
{"id":131,"name":"Mattie","lat":41.1578541,"lon":-7.5547135,"puntuation":4.4,"address":"28599 Ridgeway Avenue"},
{"id":132,"name":"Walther","lat":38.8099385,"lon":-104.7599648,"puntuation":3.5,"address":"5804 Bay Park"},
{"id":133,"name":"Eduardo","lat":30.07225,"lon":122.003581,"puntuation":1.4,"address":"8509 Victoria Drive"},
{"id":134,"name":"Tore","lat":-6.21956,"lon":106.92596,"puntuation":3.8,"address":"830 Service Parkway"},
{"id":135,"name":"Bernie","lat":25.9567729,"lon":88.3831008,"puntuation":2.1,"address":"5 Shopko Way"},
{"id":136,"name":"Ronald","lat":48.9449573,"lon":2.1463759,"puntuation":4.0,"address":"11 Farmco Hill"},
{"id":137,"name":"Lucinda","lat":-22.2090755,"lon":-47.3951378,"puntuation":2.3,"address":"15 Graceland Lane"},
{"id":138,"name":"Irving","lat":36.446025,"lon":118.762242,"puntuation":4.6,"address":"916 Merry Trail"},
{"id":139,"name":"Salomi","lat":43.0429124,"lon":1.9038837,"puntuation":3.8,"address":"45721 Esch Avenue"},
{"id":140,"name":"Cornelia","lat":23.9891132,"lon":-104.6751805,"puntuation":2.3,"address":"6662 Upham Junction"},
{"id":141,"name":"Katharyn","lat":55.6587901,"lon":37.3582146,"puntuation":4.2,"address":"572 Grim Street"},
{"id":142,"name":"Brinn","lat":37.1691224,"lon":-3.6002547,"puntuation":2.5,"address":"9 Schmedeman Street"},
{"id":143,"name":"Giacomo","lat":55.4055305,"lon":38.2447393,"puntuation":2.8,"address":"2 Twin Pines Trail"},
{"id":144,"name":"Gelya","lat":-6.8008183,"lon":107.1781769,"puntuation":4.0,"address":"00145 John Wall Hill"},
{"id":145,"name":"Warde","lat":35.5603286,"lon":133.1965067,"puntuation":1.4,"address":"347 Graceland Circle"},
{"id":146,"name":"Ollie","lat":41.4744811,"lon":19.7041069,"puntuation":3.2,"address":"8 Comanche Way"},
{"id":147,"name":"Pryce","lat":34.714779,"lon":111.47239,"puntuation":3.2,"address":"877 Graceland Way"},
{"id":148,"name":"Odie","lat":-24.9288708,"lon":-53.4392535,"puntuation":2.3,"address":"62 Sloan Circle"},
{"id":149,"name":"Mariska","lat":46.3410071,"lon":3.2530151,"puntuation":1.7,"address":"49954 Shasta Lane"},
{"id":150,"name":"Kipp","lat":4.4721794,"lon":-75.7255192,"puntuation":4.9,"address":"705 Ridge Oak Place"},
{"id":151,"name":"Hercules","lat":-24.7592533,"lon":-51.7601166,"puntuation":4.1,"address":"4342 Prairieview Center"},
{"id":152,"name":"Rriocard","lat":48.7277622,"lon":100.7724281,"puntuation":4.2,"address":"0 Raven Avenue"},
{"id":153,"name":"Beale","lat":4.6259611,"lon":96.6740303,"puntuation":4.5,"address":"2651 Jackson Court"},
{"id":154,"name":"Iormina","lat":48.2162668,"lon":23.3302946,"puntuation":4.5,"address":"26 Talmadge Drive"},
{"id":155,"name":"Gibbie","lat":2.7121164,"lon":97.9157099,"puntuation":3.8,"address":"285 Del Mar Terrace"},
{"id":156,"name":"Padgett","lat":17.9567646,"lon":-102.1943485,"puntuation":2.8,"address":"56 Troy Circle"},
{"id":157,"name":"Jory","lat":53.110584,"lon":126.33057,"puntuation":3.2,"address":"0432 Pond Circle"},
{"id":158,"name":"Verney","lat":22.585397,"lon":113.38492,"puntuation":2.2,"address":"356 Drewry Pass"},
{"id":159,"name":"Alonso","lat":0.3179939,"lon":109.4259114,"puntuation":2.3,"address":"15804 Upham Crossing"},
{"id":160,"name":"Eliza","lat":41.631471,"lon":42.1907465,"puntuation":2.3,"address":"5201 Nelson Terrace"},
{"id":161,"name":"Lynelle","lat":-34.6730937,"lon":-58.5501558,"puntuation":2.8,"address":"97831 Ilene Place"},
{"id":162,"name":"Aleksandr","lat":-10.5086496,"lon":-37.4467952,"puntuation":1.9,"address":"66201 Rusk Avenue"},
{"id":163,"name":"Adan","lat":13.4253347,"lon":123.2648166,"puntuation":4.2,"address":"40535 Sunfield Alley"},
{"id":164,"name":"Sofia","lat":44.829819,"lon":34.915084,"puntuation":1.1,"address":"9 Becker Lane"},
{"id":165,"name":"Isacco","lat":-8.845,"lon":121.6718,"puntuation":4.2,"address":"5 Green Way"},
{"id":166,"name":"Junette","lat":13.5213331,"lon":120.9787095,"puntuation":3.5,"address":"0 Northfield Circle"},
{"id":167,"name":"Gelya","lat":41.603085,"lon":46.638308,"puntuation":4.7,"address":"81523 Killdeer Avenue"},
{"id":168,"name":"Amerigo","lat":31.204525,"lon":121.459662,"puntuation":4.9,"address":"639 Crest Line Alley"},
{"id":169,"name":"Redd","lat":45.632343,"lon":5.112589,"puntuation":2.7,"address":"34850 Dakota Street"},
{"id":170,"name":"Hephzibah","lat":14.3413508,"lon":45.0746646,"puntuation":3.7,"address":"13882 Colorado Point"},
{"id":171,"name":"Nari","lat":13.950488,"lon":121.157258,"puntuation":3.0,"address":"401 West Alley"},
{"id":172,"name":"Harbert","lat":23.213961,"lon":115.203506,"puntuation":1.3,"address":"7618 Kinsman Circle"},
{"id":173,"name":"Lela","lat":35.86166,"lon":104.195397,"puntuation":4.7,"address":"24086 Leroy Alley"},
{"id":174,"name":"Rosie","lat":49.4643925,"lon":36.8584805,"puntuation":4.9,"address":"627 Nelson Court"},
{"id":175,"name":"Deeyn","lat":41.0423985,"lon":21.3607894,"puntuation":1.6,"address":"9815 American Plaza"},
{"id":176,"name":"Sara","lat":37.7525244,"lon":139.1650556,"puntuation":3.3,"address":"9 7th Terrace"},
{"id":177,"name":"Doro","lat":11.3799005,"lon":5.6457951,"puntuation":4.2,"address":"36771 Bay Terrace"},
{"id":178,"name":"Hazel","lat":-19.7809492,"lon":-63.1973233,"puntuation":3.2,"address":"320 Toban Way"},
{"id":179,"name":"Thayne","lat":-6.1425043,"lon":106.7985107,"puntuation":3.0,"address":"4 Erie Parkway"},
{"id":180,"name":"Charmaine","lat":50.3539812,"lon":13.8033551,"puntuation":1.9,"address":"48647 Bartillon Crossing"},
{"id":181,"name":"Sibella","lat":-25.8681839,"lon":-50.3842316,"puntuation":1.2,"address":"952 Dryden Alley"},
{"id":182,"name":"Berny","lat":14.7247931,"lon":121.0315758,"puntuation":4.2,"address":"9 Alpine Place"},
{"id":183,"name":"Anestassia","lat":15.884783,"lon":120.341507,"puntuation":2.6,"address":"1 Alpine Lane"},
{"id":184,"name":"Abran","lat":19.2983328,"lon":-69.5523252,"puntuation":1.8,"address":"3024 Del Mar Court"},
{"id":185,"name":"Maire","lat":14.0875558,"lon":121.1774182,"puntuation":1.8,"address":"5 Nancy Plaza"},
{"id":186,"name":"Anderea","lat":-3.4795532,"lon":115.7782286,"puntuation":4.6,"address":"5818 American Alley"},
{"id":187,"name":"Leonelle","lat":-39.0593613,"lon":174.0768108,"puntuation":4.2,"address":"8 Bellgrove Road"},
{"id":188,"name":"Sam","lat":45.0317123,"lon":15.9142627,"puntuation":4.2,"address":"45 South Parkway"},
{"id":189,"name":"Floria","lat":26.0536124,"lon":119.2989496,"puntuation":3.5,"address":"30551 Reinke Park"},
{"id":190,"name":"Jeremias","lat":28.229271,"lon":120.997332,"puntuation":1.9,"address":"010 Maple Point"},
{"id":191,"name":"Claire","lat":-6.9871199,"lon":107.8487279,"puntuation":3.7,"address":"164 Washington Junction"},
{"id":192,"name":"Edita","lat":37.9943201,"lon":23.3430496,"puntuation":2.3,"address":"2677 Donald Pass"},
{"id":193,"name":"Evangelina","lat":-4.8905153,"lon":-81.0368211,"puntuation":2.5,"address":"5 Magdeline Street"},
{"id":194,"name":"Clareta","lat":50.5416315,"lon":13.7594816,"puntuation":1.4,"address":"3 Dryden Circle"},
{"id":195,"name":"Hermann","lat":-4.0078909,"lon":-79.2112769,"puntuation":4.5,"address":"414 Declaration Lane"},
{"id":196,"name":"Alvinia","lat":-8.6981,"lon":122.247,"puntuation":3.4,"address":"6 Corscot Avenue"},
{"id":197,"name":"Harriot","lat":17.1274104,"lon":-61.846772,"puntuation":4.1,"address":"3 Hauk Circle"},
{"id":198,"name":"Orbadiah","lat":-33.9162938,"lon":-64.3897946,"puntuation":3.3,"address":"0 Walton Road"},
{"id":199,"name":"Delora","lat":46.9067373,"lon":19.691788,"puntuation":1.3,"address":"79111 Sheridan Pass"},
{"id":200,"name":"Mikaela","lat":48.9046462,"lon":89.6511373,"puntuation":1.3,"address":"733 Atwood Place"},
{"id":201,"name":"Kennith","lat":32.9943312,"lon":50.4113423,"puntuation":4.7,"address":"8446 Merrick Junction"},
{"id":202,"name":"Alie","lat":41.5817519,"lon":21.0005869,"puntuation":4.8,"address":"0 Lakewood Gardens Parkway"},
{"id":203,"name":"Daniele","lat":11.8495208,"lon":-86.1980589,"puntuation":4.2,"address":"8819 Brown Center"},
{"id":204,"name":"Sunny","lat":30.691359,"lon":104.052236,"puntuation":1.8,"address":"14563 Judy Place"},
{"id":205,"name":"Ivonne","lat":15.429396,"lon":100.0501736,"puntuation":1.1,"address":"19106 Stoughton Terrace"},
{"id":206,"name":"Antonina","lat":-8.5437,"lon":115.1036,"puntuation":4.9,"address":"91 Ronald Regan Way"},
{"id":207,"name":"Jean","lat":53.0172544,"lon":20.8891438,"puntuation":4.7,"address":"8 Ronald Regan Court"},
{"id":208,"name":"Hugo","lat":4.7161955,"lon":9.7288412,"puntuation":2.9,"address":"2727 Forest Crossing"},
{"id":209,"name":"Demetris","lat":13.6756725,"lon":-89.2514718,"puntuation":4.0,"address":"1 Carey Place"},
{"id":210,"name":"Zerk","lat":33.1911812,"lon":68.089484,"puntuation":3.6,"address":"41 Bellgrove Trail"},
{"id":211,"name":"Engracia","lat":0.490107,"lon":35.743418,"puntuation":1.6,"address":"5573 Birchwood Junction"},
{"id":212,"name":"Hermann","lat":5.8719379,"lon":-56.3320773,"puntuation":1.2,"address":"64 Corben Avenue"},
{"id":213,"name":"Silvanus","lat":-18.0292038,"lon":-63.4021544,"puntuation":3.7,"address":"7775 Sunfield Alley"},
{"id":214,"name":"Hewet","lat":52.0016128,"lon":42.344717,"puntuation":4.7,"address":"36705 Johnson Terrace"},
{"id":215,"name":"Antony","lat":22.2566889,"lon":106.4731314,"puntuation":2.3,"address":"75751 Heffernan Terrace"},
{"id":216,"name":"Kathe","lat":-13.1638737,"lon":-74.2235641,"puntuation":2.3,"address":"07 2nd Center"},
{"id":217,"name":"Marvin","lat":9.3607067,"lon":-83.7145811,"puntuation":3.0,"address":"5093 2nd Hill"},
{"id":218,"name":"Peder","lat":34.8643622,"lon":138.315371,"puntuation":2.5,"address":"2281 Oak Valley Hill"},
{"id":219,"name":"Trueman","lat":37.3329941,"lon":140.2344463,"puntuation":3.5,"address":"8 Dawn Drive"},
{"id":220,"name":"Aristotle","lat":18.0461423,"lon":100.9128995,"puntuation":4.1,"address":"99 Morrow Park"},
{"id":221,"name":"Bayard","lat":-6.2245977,"lon":106.6789296,"puntuation":1.3,"address":"14101 Vernon Terrace"},
{"id":222,"name":"Ami","lat":35.88518,"lon":115.104389,"puntuation":3.6,"address":"31450 Carioca Place"},
{"id":223,"name":"Emlyn","lat":27.9687584,"lon":68.6404324,"puntuation":3.4,"address":"63 Roth Junction"},
{"id":224,"name":"Christan","lat":45.6446494,"lon":38.1651985,"puntuation":1.2,"address":"7 Golf Drive"},
{"id":225,"name":"Terrill","lat":14.8465342,"lon":-88.3032755,"puntuation":2.6,"address":"3 Fairview Avenue"},
{"id":226,"name":"Sam","lat":-21.7414439,"lon":-48.6891129,"puntuation":1.6,"address":"901 Elgar Plaza"},
{"id":227,"name":"Finn","lat":5.9840985,"lon":116.0761121,"puntuation":3.8,"address":"98 Florence Hill"},
{"id":228,"name":"Cassie","lat":12.4537943,"lon":102.2290442,"puntuation":2.3,"address":"1537 Ridgeview Trail"},
{"id":229,"name":"Leonid","lat":38.58,"lon":-121.49,"puntuation":2.3,"address":"245 Randy Court"},
{"id":230,"name":"Debora","lat":49.7624347,"lon":19.0904515,"puntuation":3.3,"address":"39 Montana Park"},
{"id":231,"name":"Lurette","lat":23.1635991,"lon":-82.2854848,"puntuation":3.0,"address":"610 Blackbird Street"},
{"id":232,"name":"Tommie","lat":51.0762426,"lon":39.1184143,"puntuation":1.8,"address":"0405 Reinke Place"},
{"id":233,"name":"Annabel","lat":-6.4525359,"lon":-37.4894776,"puntuation":2.4,"address":"598 Mesta Terrace"},
{"id":234,"name":"Sibby","lat":39.0000158,"lon":140.0433007,"puntuation":4.0,"address":"66604 Loeprich Drive"},
{"id":235,"name":"Lotta","lat":57.857193,"lon":11.91635,"puntuation":3.3,"address":"8 Rockefeller Street"},
{"id":236,"name":"Joellen","lat":49.508379,"lon":19.9809619,"puntuation":3.4,"address":"6828 Caliangt Alley"},
{"id":237,"name":"Reiko","lat":14.5946094,"lon":104.8921668,"puntuation":2.8,"address":"8883 Brickson Park Park"},
{"id":238,"name":"Montague","lat":-2.389643,"lon":112.907402,"puntuation":2.1,"address":"1811 Waywood Court"},
{"id":239,"name":"Devy","lat":31.77,"lon":-106.43,"puntuation":4.6,"address":"498 Oak Valley Circle"},
{"id":240,"name":"Lay","lat":28.435584,"lon":116.483259,"puntuation":4.9,"address":"1 Kipling Alley"},
{"id":241,"name":"Sabina","lat":38.2170269,"lon":-7.5422129,"puntuation":1.5,"address":"2 Loftsgordon Junction"},
{"id":242,"name":"Ferdinanda","lat":22.170437,"lon":111.791539,"puntuation":3.1,"address":"1197 Ruskin Road"},
{"id":243,"name":"Salim","lat":14.1811693,"lon":-16.8502879,"puntuation":1.8,"address":"1 Coleman Plaza"},
{"id":244,"name":"Cari","lat":46.562247,"lon":125.1353261,"puntuation":2.4,"address":"163 Moland Crossing"},
{"id":245,"name":"Gale","lat":30.610203,"lon":34.801898,"puntuation":3.0,"address":"41 Northwestern Pass"},
{"id":246,"name":"Janeczka","lat":-9.5541709,"lon":119.0285355,"puntuation":4.4,"address":"8 Lerdahl Point"},
{"id":247,"name":"Tally","lat":-36.6131562,"lon":-72.9588593,"puntuation":4.2,"address":"5 Claremont Junction"},
{"id":248,"name":"Ramonda","lat":52.6472404,"lon":5.0570439,"puntuation":2.2,"address":"0 Laurel Court"},
{"id":249,"name":"Bartholomeus","lat":40.3062929,"lon":23.2071052,"puntuation":3.0,"address":"2 Mallory Avenue"},
{"id":250,"name":"Elana","lat":41.5054085,"lon":-8.4697574,"puntuation":5.0,"address":"7 Maryland Terrace"},
{"id":251,"name":"Glen","lat":-25.8681839,"lon":-50.3842316,"puntuation":2.9,"address":"35 Crownhardt Trail"},
{"id":252,"name":"Chariot","lat":52.0720997,"lon":15.8653468,"puntuation":2.1,"address":"67884 Mayfield Pass"},
{"id":253,"name":"Janetta","lat":38.983236,"lon":106.383303,"puntuation":2.6,"address":"2465 Namekagon Parkway"},
{"id":254,"name":"Reyna","lat":53.3122864,"lon":-6.336393,"puntuation":2.1,"address":"6692 Upham Street"},
{"id":255,"name":"Dulcine","lat":13.939297,"lon":121.6397151,"puntuation":3.1,"address":"6 Dapin Lane"},
{"id":256,"name":"Burke","lat":5.8594728,"lon":-5.6773512,"puntuation":2.9,"address":"5785 Moose Circle"},
{"id":257,"name":"Berty","lat":30.572815,"lon":104.066801,"puntuation":4.2,"address":"6 Waywood Circle"},
{"id":258,"name":"Ryley","lat":33.2035282,"lon":131.6906274,"puntuation":2.6,"address":"502 Roth Alley"},
{"id":259,"name":"Olvan","lat":50.867559,"lon":22.0128609,"puntuation":3.1,"address":"23025 Fremont Way"},
{"id":260,"name":"Dannel","lat":5.6972693,"lon":7.0605998,"puntuation":3.7,"address":"86998 Petterle Point"},
{"id":261,"name":"Brandie","lat":45.5119921,"lon":19.8423848,"puntuation":3.8,"address":"9948 Pepper Wood Center"},
{"id":262,"name":"Noelyn","lat":-25.53599,"lon":-56.73246,"puntuation":4.5,"address":"423 Dayton Way"},
{"id":263,"name":"Darbie","lat":64.5180595,"lon":-21.8898511,"puntuation":1.7,"address":"34899 Iowa Pass"},
{"id":264,"name":"Mannie","lat":50.9614392,"lon":21.2804169,"puntuation":3.5,"address":"4 Packers Way"},
{"id":265,"name":"Aguistin","lat":-8.1512742,"lon":112.7420274,"puntuation":1.5,"address":"0360 Florence Plaza"},
{"id":266,"name":"Christalle","lat":49.4774391,"lon":43.8548861,"puntuation":2.1,"address":"39 Sugar Circle"},
{"id":267,"name":"Sophi","lat":-8.4837797,"lon":115.279613,"puntuation":3.1,"address":"507 Eliot Way"},
{"id":268,"name":"Harri","lat":-7.2299572,"lon":-39.4122984,"puntuation":4.2,"address":"816 Alpine Avenue"},
{"id":269,"name":"Therese","lat":-22.9087073,"lon":-68.1997156,"puntuation":2.2,"address":"156 Schurz Street"},
{"id":270,"name":"Nessi","lat":24.162165,"lon":114.945555,"puntuation":3.2,"address":"99 Blackbird Drive"},
{"id":271,"name":"Aileen","lat":49.23335,"lon":-102.1676,"puntuation":3.5,"address":"91516 Kim Parkway"},
{"id":272,"name":"Ginny","lat":-8.509828,"lon":118.623299,"puntuation":4.3,"address":"58047 Pearson Circle"},
{"id":273,"name":"Ethelyn","lat":40.5885408,"lon":23.0279289,"puntuation":3.1,"address":"670 Grover Avenue"},
{"id":274,"name":"Ferdinanda","lat":28.6559273,"lon":121.2198521,"puntuation":1.5,"address":"6 Merchant Court"},
{"id":275,"name":"Izaak","lat":31.853167,"lon":34.842421,"puntuation":2.5,"address":"83 Manitowish Parkway"},
{"id":276,"name":"Eydie","lat":44.55015,"lon":-64.24874,"puntuation":1.8,"address":"72 Moland Terrace"},
{"id":277,"name":"Kamillah","lat":6.5243793,"lon":3.3792057,"puntuation":3.1,"address":"8 Charing Cross Parkway"},
{"id":278,"name":"Charil","lat":38.408587,"lon":28.385948,"puntuation":3.5,"address":"1 Nevada Terrace"},
{"id":279,"name":"Lise","lat":31.9633663,"lon":49.2892129,"puntuation":2.9,"address":"62 Golf View Hill"},
{"id":280,"name":"Licha","lat":33.54832,"lon":36.21564,"puntuation":3.3,"address":"8 Sunbrook Crossing"},
{"id":281,"name":"Arabella","lat":9.7333906,"lon":-63.1914317,"puntuation":3.1,"address":"66934 Prentice Street"},
{"id":282,"name":"Doreen","lat":41.6434293,"lon":42.9934449,"puntuation":3.5,"address":"7 Schlimgen Terrace"},
{"id":283,"name":"Dulci","lat":45.5913301,"lon":-62.6451102,"puntuation":4.7,"address":"0440 Hanson Center"},
{"id":284,"name":"Willi","lat":-13.9705607,"lon":-71.8326771,"puntuation":2.0,"address":"5728 3rd Pass"},
{"id":285,"name":"Pansie","lat":0,"lon":2.8125,"puntuation":1.5,"address":"3 Maple Wood Place"},
{"id":286,"name":"Bradan","lat":58.9116557,"lon":14.8053076,"puntuation":4.3,"address":"09 Westend Pass"},
{"id":287,"name":"Selinda","lat":59.3763019,"lon":17.9325356,"puntuation":1.2,"address":"451 Lakewood Street"},
{"id":288,"name":"Ilyse","lat":12.3420676,"lon":14.1858272,"puntuation":2.2,"address":"553 Spenser Hill"},
{"id":289,"name":"Bancroft","lat":-5.3102888,"lon":119.742604,"puntuation":1.8,"address":"7434 Darwin Street"},
{"id":290,"name":"Marline","lat":-6.9901702,"lon":110.3189662,"puntuation":4.4,"address":"8627 Nevada Hill"},
{"id":291,"name":"Claretta","lat":50.5429237,"lon":3.086469,"puntuation":1.9,"address":"96 Grasskamp Place"},
{"id":292,"name":"Norrie","lat":12.6757233,"lon":-86.571617,"puntuation":2.2,"address":"36676 Barby Parkway"},
{"id":293,"name":"Verena","lat":41.6338439,"lon":25.3777119,"puntuation":5.0,"address":"9 Hoffman Park"},
{"id":294,"name":"Inglis","lat":-25.5657319,"lon":-57.2875097,"puntuation":2.4,"address":"099 Pond Junction"},
{"id":295,"name":"Albert","lat":-9.62074,"lon":119.56671,"puntuation":2.4,"address":"815 Gina Lane"},
{"id":296,"name":"Alejandro","lat":9.2209606,"lon":-74.4028287,"puntuation":4.7,"address":"179 Upham Point"},
{"id":297,"name":"Tadio","lat":35.5037598,"lon":128.7464415,"puntuation":4.1,"address":"173 Meadow Ridge Place"},
{"id":298,"name":"Eada","lat":-7.3356583,"lon":109.0798332,"puntuation":3.2,"address":"46398 Pleasure Hill"},
{"id":299,"name":"Marlene","lat":15.3549925,"lon":-91.458364,"puntuation":1.0,"address":"0 Carey Way"},
{"id":300,"name":"Viviana","lat":-26.0779448,"lon":-53.05199,"puntuation":4.8,"address":"9 Graedel Park"},
{"id":301,"name":"Faythe","lat":14.5455447,"lon":44.4087348,"puntuation":4.5,"address":"90 Moulton Junction"},
{"id":302,"name":"Merci","lat":30.311056,"lon":112.255583,"puntuation":1.0,"address":"92 La Follette Place"},
{"id":303,"name":"Nelly","lat":-6.8750244,"lon":111.9850391,"puntuation":1.4,"address":"4 Oak Court"},
{"id":304,"name":"Biddie","lat":-7.4703872,"lon":110.9387418,"puntuation":3.6,"address":"75 Fieldstone Drive"},
{"id":305,"name":"Alyda","lat":53.1286984,"lon":-6.0704904,"puntuation":3.8,"address":"02281 Kensington Avenue"},
{"id":306,"name":"Elyse","lat":64.1046451,"lon":-22.0170973,"puntuation":3.6,"address":"2 Sunnyside Street"},
{"id":307,"name":"Harlan","lat":65.836924,"lon":13.1934011,"puntuation":4.9,"address":"6136 Graceland Point"},
{"id":308,"name":"Sayre","lat":37.518314,"lon":111.144319,"puntuation":4.6,"address":"4 Longview Street"},
{"id":309,"name":"Standford","lat":53.6928497,"lon":42.8109044,"puntuation":1.1,"address":"41 Daystar Trail"},
{"id":310,"name":"Pattie","lat":8.9679001,"lon":-71.2740573,"puntuation":4.8,"address":"1 Johnson Place"},
{"id":311,"name":"Angus","lat":22.8157128,"lon":108.3451423,"puntuation":2.6,"address":"4233 Sullivan Drive"},
{"id":312,"name":"Cyndia","lat":26.6866896,"lon":-78.9712451,"puntuation":1.3,"address":"2 Gerald Street"},
{"id":313,"name":"Adelind","lat":-7.3463033,"lon":108.2807559,"puntuation":3.0,"address":"05328 Debs Point"},
{"id":314,"name":"Riannon","lat":-26.0880026,"lon":28.1444516,"puntuation":3.9,"address":"71 Clyde Gallagher Place"},
{"id":315,"name":"Tristan","lat":49.7979502,"lon":21.0782963,"puntuation":1.9,"address":"66981 American Ash Point"},
{"id":316,"name":"Michaeline","lat":41.554479,"lon":121.725015,"puntuation":2.1,"address":"7 Doe Crossing Drive"},
{"id":317,"name":"Helena","lat":32.9901655,"lon":130.608934,"puntuation":2.5,"address":"0424 Prentice Junction"},
{"id":318,"name":"Edan","lat":49.873937,"lon":19.8512299,"puntuation":4.7,"address":"8 Dottie Alley"},
{"id":319,"name":"Astrix","lat":-6.9460598,"lon":111.8151245,"puntuation":1.2,"address":"7 Charing Cross Avenue"},
{"id":320,"name":"Madalyn","lat":-10.6872332,"lon":-37.4329352,"puntuation":2.4,"address":"3109 Jenifer Junction"},
{"id":321,"name":"Antony","lat":10.7162361,"lon":122.2662848,"puntuation":3.7,"address":"4475 Farmco Junction"},
{"id":322,"name":"Thelma","lat":55.6830117,"lon":37.3439888,"puntuation":2.3,"address":"678 Russell Alley"},
{"id":323,"name":"Kimmi","lat":59.8271777,"lon":10.7948784,"puntuation":1.9,"address":"6 Knutson Trail"},
{"id":324,"name":"Clement","lat":56.7980147,"lon":60.4890295,"puntuation":2.9,"address":"410 Hoard Road"},
{"id":325,"name":"Wilt","lat":17.8200009,"lon":120.4544261,"puntuation":4.5,"address":"07320 Sheridan Plaza"},
{"id":326,"name":"Elonore","lat":-7.9062121,"lon":112.0267712,"puntuation":2.4,"address":"6479 Badeau Avenue"},
{"id":327,"name":"Benn","lat":8.438605,"lon":-80.679207,"puntuation":1.1,"address":"005 Ludington Hill"},
{"id":328,"name":"Sly","lat":63.6106858,"lon":26.9828477,"puntuation":4.7,"address":"946 Schmedeman Point"},
{"id":329,"name":"Bridgette","lat":-19.1097385,"lon":-51.736543,"puntuation":4.1,"address":"1 Forest Street"},
{"id":330,"name":"Korney","lat":14.5679608,"lon":121.0233632,"puntuation":4.0,"address":"22893 Schmedeman Drive"},
{"id":331,"name":"Pammie","lat":10.701232,"lon":-61.5471829,"puntuation":2.6,"address":"55 Annamark Point"},
{"id":332,"name":"Feodora","lat":6.9304836,"lon":124.8918574,"puntuation":3.8,"address":"74800 Southridge Parkway"},
{"id":333,"name":"Gris","lat":-24.5253253,"lon":-56.4076059,"puntuation":2.7,"address":"769 Lukken Alley"},
{"id":334,"name":"Betta","lat":10.3827887,"lon":-9.3118282,"puntuation":3.0,"address":"23078 Carberry Plaza"},
{"id":335,"name":"Lenore","lat":-24.1955744,"lon":-65.2844271,"puntuation":3.8,"address":"653 Cherokee Lane"},
{"id":336,"name":"Clim","lat":-31.4834373,"lon":-64.2145666,"puntuation":1.0,"address":"69202 Elgar Street"},
{"id":337,"name":"Sholom","lat":-3.9138056,"lon":116.304279,"puntuation":2.6,"address":"05 Westport Park"},
{"id":338,"name":"Pattie","lat":13.4926528,"lon":-89.0251022,"puntuation":3.1,"address":"142 Nobel Circle"},
{"id":339,"name":"Willey","lat":10.2227095,"lon":12.051835,"puntuation":4.4,"address":"51 Kipling Hill"},
{"id":340,"name":"Andromache","lat":56.114128,"lon":101.186866,"puntuation":3.6,"address":"1 Ohio Avenue"},
{"id":341,"name":"Tybalt","lat":14.5919106,"lon":121.0228804,"puntuation":1.4,"address":"58292 Darwin Center"},
{"id":342,"name":"Junia","lat":23.9563274,"lon":113.1916737,"puntuation":3.0,"address":"8 Center Lane"},
{"id":343,"name":"Vitoria","lat":43.6121586,"lon":3.8626074,"puntuation":4.7,"address":"49 Dapin Park"},
{"id":344,"name":"Dorris","lat":49.9511113,"lon":35.9407539,"puntuation":2.0,"address":"2 Menomonie Center"},
{"id":345,"name":"Ulrikaumeko","lat":29.182182,"lon":111.869272,"puntuation":1.7,"address":"2 Schlimgen Plaza"},
{"id":346,"name":"Dante","lat":43.0429124,"lon":1.9038837,"puntuation":2.2,"address":"8 Hayes Alley"},
{"id":347,"name":"Kaja","lat":14.5697565,"lon":121.0247172,"puntuation":1.4,"address":"45727 Emmet Park"},
{"id":348,"name":"Pietra","lat":0.5185303,"lon":25.2007728,"puntuation":3.9,"address":"10982 New Castle Lane"},
{"id":349,"name":"Pryce","lat":-31.3540428,"lon":-64.1582003,"puntuation":3.9,"address":"0 Clove Avenue"},
{"id":350,"name":"Rosamond","lat":-6.8744345,"lon":111.5736596,"puntuation":3.8,"address":"932 Caliangt Point"},
{"id":351,"name":"Katherine","lat":24.117102,"lon":117.613808,"puntuation":2.2,"address":"0 Hallows Place"},
{"id":352,"name":"Pauletta","lat":35.8197739,"lon":119.9696841,"puntuation":2.4,"address":"91 Fulton Way"},
{"id":353,"name":"Whitney","lat":-3.1703446,"lon":139.0817124,"puntuation":4.9,"address":"322 Stone Corner Trail"},
{"id":354,"name":"Carlynn","lat":47.0163969,"lon":-68.1430029,"puntuation":3.6,"address":"5733 Wayridge Place"},
{"id":355,"name":"Stanislaw","lat":-6.2074293,"lon":106.8915948,"puntuation":3.3,"address":"363 Colorado Place"},
{"id":356,"name":"Andrej","lat":40.180793,"lon":44.5281754,"puntuation":3.7,"address":"68 Cascade Pass"},
{"id":357,"name":"Ami","lat":10.0342937,"lon":126.0415372,"puntuation":1.3,"address":"4 Ridgeway Park"},
{"id":358,"name":"Julienne","lat":10.898923,"lon":-74.883823,"puntuation":1.7,"address":"4938 Linden Hill"},
{"id":359,"name":"Rivalee","lat":-8.2794,"lon":113.4073,"puntuation":1.2,"address":"79 Mcbride Parkway"},
{"id":360,"name":"Marcelline","lat":46.68518,"lon":16.3936719,"puntuation":2.3,"address":"888 Ohio Junction"},
{"id":361,"name":"Stu","lat":40.8276499,"lon":140.4491245,"puntuation":1.5,"address":"87 Saint Paul Way"},
{"id":362,"name":"Liz","lat":49.4643925,"lon":36.8584805,"puntuation":3.9,"address":"4 Bowman Lane"},
{"id":363,"name":"Zebedee","lat":-20.3707241,"lon":57.6063694,"puntuation":3.3,"address":"94499 Tony Pass"},
{"id":364,"name":"Brigham","lat":4.727773,"lon":-76.121514,"puntuation":3.0,"address":"7637 Petterle Park"},
{"id":365,"name":"Carolee","lat":41.027698,"lon":26.2935333,"puntuation":2.9,"address":"99904 Bluestem Avenue"},
{"id":366,"name":"Evin","lat":-5.4703809,"lon":-80.7477708,"puntuation":3.4,"address":"7170 Logan Park"},
{"id":367,"name":"Jard","lat":30.652181,"lon":104.00155,"puntuation":2.3,"address":"12880 Upham Junction"},
{"id":368,"name":"Jeffy","lat":41.9238499,"lon":20.3755648,"puntuation":4.6,"address":"66146 Village Green Center"},
{"id":369,"name":"Myrna","lat":46.8615704,"lon":9.5262115,"puntuation":1.8,"address":"11 Old Gate Drive"},
{"id":370,"name":"Jacinta","lat":-26.7416528,"lon":-52.5852334,"puntuation":2.1,"address":"97419 Dexter Avenue"},
{"id":371,"name":"Paten","lat":55.780902,"lon":37.618106,"puntuation":1.1,"address":"12 Maple Wood Park"},
{"id":372,"name":"Aidan","lat":-22.027222,"lon":-42.3652391,"puntuation":4.9,"address":"21064 Lien Parkway"},
{"id":373,"name":"Angele","lat":53.3666338,"lon":-6.3539424,"puntuation":4.6,"address":"1845 Merry Avenue"},
{"id":374,"name":"Connor","lat":-20.2530617,"lon":-43.8030567,"puntuation":3.8,"address":"82880 Mallory Avenue"},
{"id":375,"name":"Patrizius","lat":46.0245004,"lon":20.1143093,"puntuation":4.9,"address":"83630 Merrick Hill"},
{"id":376,"name":"Derril","lat":35.8523575,"lon":66.5223902,"puntuation":4.6,"address":"7019 Stoughton Plaza"},
{"id":377,"name":"Quincy","lat":43.6165639,"lon":27.091526,"puntuation":4.6,"address":"805 Walton Junction"},
{"id":378,"name":"Ailsun","lat":14.5455447,"lon":44.4087348,"puntuation":4.9,"address":"793 Union Parkway"},
{"id":379,"name":"Parke","lat":-7.7516,"lon":114.1829,"puntuation":2.9,"address":"4528 Shelley Avenue"},
{"id":380,"name":"Robyn","lat":8.5052219,"lon":125.9753765,"puntuation":4.1,"address":"2 Bellgrove Parkway"},
{"id":381,"name":"Worthy","lat":52.71892,"lon":19.1095093,"puntuation":3.3,"address":"07463 Farragut Way"},
{"id":382,"name":"Luella","lat":16.7670685,"lon":107.1454981,"puntuation":1.4,"address":"6215 Sullivan Way"},
{"id":383,"name":"Aldric","lat":25.386379,"lon":114.922922,"puntuation":4.6,"address":"05 Butterfield Road"},
{"id":384,"name":"Johnathan","lat":23.105394,"lon":113.874335,"puntuation":4.9,"address":"22696 Drewry Drive"},
{"id":385,"name":"Annabel","lat":19.8838774,"lon":110.4153075,"puntuation":1.1,"address":"51552 Manitowish Way"},
{"id":386,"name":"Coraline","lat":34.620202,"lon":112.453926,"puntuation":4.2,"address":"65 Sunnyside Trail"},
{"id":387,"name":"Brnaby","lat":-21.2370782,"lon":-45.7592067,"puntuation":2.7,"address":"771 Monument Street"},
{"id":388,"name":"Geoffry","lat":13.6902068,"lon":101.0701959,"puntuation":4.7,"address":"3 Orin Point"},
{"id":389,"name":"Elissa","lat":55.1984434,"lon":46.3132588,"puntuation":2.2,"address":"80 Reindahl Terrace"},
{"id":390,"name":"Jacquenetta","lat":-7.3312,"lon":107.9703,"puntuation":1.5,"address":"1 Drewry Junction"},
{"id":391,"name":"Jerrilee","lat":43.915618,"lon":113.873272,"puntuation":4.7,"address":"786 Butternut Place"},
{"id":392,"name":"Patton","lat":9.939624,"lon":126.065213,"puntuation":3.8,"address":"55 Dahle Center"},
{"id":393,"name":"Mervin","lat":11.9498242,"lon":-69.9163225,"puntuation":3.1,"address":"12 Anzinger Circle"},
{"id":394,"name":"Adella","lat":55.3500609,"lon":61.3466506,"puntuation":1.4,"address":"937 Scott Lane"},
{"id":395,"name":"Dorothee","lat":29.8572576,"lon":59.9739243,"puntuation":1.8,"address":"270 Corscot Avenue"},
{"id":396,"name":"Leonanie","lat":-4.3601087,"lon":14.7608448,"puntuation":4.2,"address":"307 Johnson Place"},
{"id":397,"name":"Loretta","lat":3.0721692,"lon":101.4687196,"puntuation":1.0,"address":"9 Crest Line Point"},
{"id":398,"name":"Lotte","lat":-6.6721504,"lon":111.5910078,"puntuation":1.4,"address":"895 Loftsgordon Pass"},
{"id":399,"name":"Innis","lat":59.320622,"lon":18.055922,"puntuation":1.9,"address":"0 Hovde Place"},
{"id":400,"name":"Brennen","lat":-11.6723638,"lon":-61.1984811,"puntuation":4.8,"address":"084 Elgar Parkway"},
{"id":401,"name":"Enriqueta","lat":38.7326381,"lon":-9.4508962,"puntuation":1.7,"address":"82 Talmadge Pass"},
{"id":402,"name":"Lorens","lat":-5.2218841,"lon":145.7856324,"puntuation":4.9,"address":"352 Golf View Crossing"},
{"id":403,"name":"Humfrey","lat":-11.403372,"lon":-74.752726,"puntuation":4.4,"address":"97810 Transport Parkway"},
{"id":404,"name":"Holly-anne","lat":-34.5802207,"lon":-58.5351929,"puntuation":2.3,"address":"518 Walton Hill"},
{"id":405,"name":"Melodie","lat":7.38153,"lon":-73.919121,"puntuation":1.0,"address":"1414 Hovde Lane"},
{"id":406,"name":"Mignonne","lat":39.0277832,"lon":-94.6557914,"puntuation":5.0,"address":"9 Almo Terrace"},
{"id":407,"name":"Nathanial","lat":40.7,"lon":-111.94,"puntuation":1.3,"address":"52532 Vermont Hill"},
{"id":408,"name":"Vitoria","lat":62.930833,"lon":152.385,"puntuation":2.3,"address":"76645 Namekagon Plaza"},
{"id":409,"name":"Niven","lat":54.914389,"lon":85.646652,"puntuation":3.4,"address":"80173 Morning Center"},
{"id":410,"name":"Karilynn","lat":31.138677,"lon":120.645158,"puntuation":4.4,"address":"59 Stang Road"},
{"id":411,"name":"Godfrey","lat":33.0524588,"lon":-96.795855,"puntuation":2.1,"address":"218 Mendota Alley"},
{"id":412,"name":"Ignazio","lat":-18.3591857,"lon":-44.6254642,"puntuation":5.0,"address":"3276 Forest Run Place"},
{"id":413,"name":"Petey","lat":15.7790394,"lon":-88.0265257,"puntuation":4.9,"address":"54072 Basil Hill"},
{"id":414,"name":"Keri","lat":40.991594,"lon":110.722523,"puntuation":2.4,"address":"52871 Morning Way"},
{"id":415,"name":"Dorey","lat":19.5959923,"lon":-99.2820233,"puntuation":1.2,"address":"88 2nd Park"},
{"id":416,"name":"Bertie","lat":-13.6616515,"lon":-73.3767641,"puntuation":4.3,"address":"763 Cordelia Parkway"},
{"id":417,"name":"Dominique","lat":28.363741,"lon":87.771182,"puntuation":3.4,"address":"0294 Hintze Court"},
{"id":418,"name":"Lynnell","lat":47.1575927,"lon":115.3064094,"puntuation":4.6,"address":"525 Golf View Trail"},
{"id":419,"name":"Lisetta","lat":-7.1923781,"lon":110.6396456,"puntuation":3.1,"address":"43559 Lakewood Gardens Alley"},
{"id":420,"name":"Nomi","lat":30.2638032,"lon":102.8054753,"puntuation":3.3,"address":"0 Aberg Drive"},
{"id":421,"name":"Brandyn","lat":-7.0453363,"lon":108.2347863,"puntuation":2.3,"address":"3 Rusk Junction"},
{"id":422,"name":"Raul","lat":53.2948229,"lon":69.4047872,"puntuation":3.1,"address":"4099 Kim Plaza"},
{"id":423,"name":"Raina","lat":37.7574326,"lon":-25.2384711,"puntuation":1.5,"address":"58632 Ridgeview Street"},
{"id":424,"name":"Hilary","lat":-9.6481,"lon":124.5579,"puntuation":2.9,"address":"81 School Terrace"},
{"id":425,"name":"Yevette","lat":-6.9940246,"lon":112.825447,"puntuation":4.4,"address":"219 Green Circle"},
{"id":426,"name":"Lyssa","lat":49.7582153,"lon":21.3418674,"puntuation":2.8,"address":"32 Saint Paul Hill"},
{"id":427,"name":"Mabelle","lat":-7.150975,"lon":110.1402594,"puntuation":3.2,"address":"33863 Merrick Drive"},
{"id":428,"name":"Johna","lat":32.2875125,"lon":105.5230659,"puntuation":2.3,"address":"73 Bultman Park"},
{"id":429,"name":"Marion","lat":32.1030654,"lon":131.3999389,"puntuation":3.1,"address":"06 Moose Center"},
{"id":430,"name":"Carlotta","lat":-7.0725035,"lon":107.6777669,"puntuation":3.9,"address":"432 Goodland Circle"},
{"id":431,"name":"Camille","lat":12.405227,"lon":121.990643,"puntuation":3.7,"address":"5050 Holy Cross Place"},
{"id":432,"name":"Veronika","lat":38.0206378,"lon":-7.2626804,"puntuation":4.0,"address":"4770 Nelson Point"},
{"id":433,"name":"Morry","lat":51.32372,"lon":-113.60475,"puntuation":4.5,"address":"08899 David Parkway"},
{"id":434,"name":"Maire","lat":39.6599999,"lon":-104.84,"puntuation":2.7,"address":"23 Maryland Hill"},
{"id":435,"name":"Goldarina","lat":40.4868316,"lon":23.5963957,"puntuation":1.8,"address":"6858 Dayton Court"},
{"id":436,"name":"Lalo","lat":11.0068891,"lon":123.9185105,"puntuation":3.6,"address":"88 Vermont Plaza"},
{"id":437,"name":"Myrtice","lat":-4.0078909,"lon":-79.2112769,"puntuation":3.1,"address":"151 Coolidge Point"},
{"id":438,"name":"Ingra","lat":59.1096942,"lon":11.3840397,"puntuation":1.3,"address":"9828 Orin Junction"},
{"id":439,"name":"Estrellita","lat":34.4344694,"lon":133.2279653,"puntuation":2.6,"address":"07 Kensington Hill"},
{"id":440,"name":"Van","lat":4.6376919,"lon":9.6870459,"puntuation":4.8,"address":"3675 Village Green Hill"},
{"id":441,"name":"Bobby","lat":-6.8827,"lon":115.4189,"puntuation":4.3,"address":"7958 Northfield Avenue"},
{"id":442,"name":"Jenn","lat":28.643587,"lon":115.568583,"puntuation":1.2,"address":"0147 Acker Alley"},
{"id":443,"name":"Sandi","lat":40.2166885,"lon":141.3014573,"puntuation":2.3,"address":"05728 Sherman Center"},
{"id":444,"name":"Westbrook","lat":39.7083252,"lon":20.7237136,"puntuation":4.2,"address":"74593 Barby Court"},
{"id":445,"name":"Connor","lat":57.8661799,"lon":47.1083094,"puntuation":3.6,"address":"4629 Main Court"},
{"id":446,"name":"Hillard","lat":30.63166,"lon":114.040353,"puntuation":1.4,"address":"772 Calypso Street"},
{"id":447,"name":"Pat","lat":-11.7843129,"lon":-75.4242758,"puntuation":3.1,"address":"17949 Oak Valley Park"},
{"id":448,"name":"Winifred","lat":32.7231719,"lon":110.060938,"puntuation":1.9,"address":"05607 Del Mar Place"},
{"id":449,"name":"Erinna","lat":32.096344,"lon":118.909159,"puntuation":3.6,"address":"66 Monica Way"},
{"id":450,"name":"Chilton","lat":45.0783589,"lon":18.6758688,"puntuation":4.0,"address":"3929 Aberg Drive"},
{"id":451,"name":"Arden","lat":-25.2631384,"lon":-57.2536314,"puntuation":4.6,"address":"4 Reinke Plaza"},
{"id":452,"name":"Marice","lat":7.116798,"lon":125.9279251,"puntuation":1.0,"address":"89 Eagle Crest Avenue"},
{"id":453,"name":"Eran","lat":10.7714376,"lon":122.3099619,"puntuation":2.7,"address":"4 Westerfield Trail"},
{"id":454,"name":"Amie","lat":3.9671435,"lon":103.40391,"puntuation":2.8,"address":"19971 Debra Street"},
{"id":455,"name":"Myrtia","lat":-12.8446575,"lon":45.1073445,"puntuation":3.4,"address":"7416 Miller Court"},
{"id":456,"name":"Etta","lat":23.460229,"lon":114.010317,"puntuation":2.2,"address":"513 Hoffman Parkway"},
{"id":457,"name":"Eugen","lat":38.1164434,"lon":140.8492779,"puntuation":1.7,"address":"2 Hansons Street"},
{"id":458,"name":"Gwenneth","lat":62.0772471,"lon":49.5698112,"puntuation":3.9,"address":"922 Starling Road"},
{"id":459,"name":"Harley","lat":-21.9221397,"lon":-50.7317774,"puntuation":4.1,"address":"50 Knutson Terrace"},
{"id":460,"name":"Felisha","lat":-6.1512014,"lon":-79.7147468,"puntuation":4.9,"address":"4 Mallard Crossing"},
{"id":461,"name":"Pippy","lat":53.1872306,"lon":18.0963464,"puntuation":2.1,"address":"9071 Service Park"},
{"id":462,"name":"Minni","lat":-8.3864643,"lon":123.2293021,"puntuation":2.4,"address":"714 Melrose Terrace"},
{"id":463,"name":"Marika","lat":30.2047151,"lon":-92.0167547,"puntuation":3.7,"address":"69 Bluestem Trail"},
{"id":464,"name":"Neall","lat":53.6923042,"lon":38.1938089,"puntuation":3.7,"address":"028 Graceland Pass"},
{"id":465,"name":"Alphard","lat":13.9734064,"lon":121.6889505,"puntuation":1.8,"address":"892 Garrison Drive"},
{"id":466,"name":"Ellwood","lat":31.2660017,"lon":70.8743691,"puntuation":1.2,"address":"72170 Scofield Alley"},
{"id":467,"name":"Guilbert","lat":0.3391763,"lon":-78.1222336,"puntuation":1.0,"address":"6694 Tony Circle"},
{"id":468,"name":"Sydelle","lat":56.4475016,"lon":36.5587561,"puntuation":3.5,"address":"1 Del Sol Lane"},
{"id":469,"name":"Gaynor","lat":30.304377,"lon":103.686294,"puntuation":3.9,"address":"8228 Fairview Center"},
{"id":470,"name":"Siana","lat":-26.9165792,"lon":-49.0717331,"puntuation":2.9,"address":"66 Veith Pass"},
{"id":471,"name":"Madelaine","lat":-37.9973752,"lon":-57.5825246,"puntuation":2.1,"address":"51494 Redwing Circle"},
{"id":472,"name":"Ernesto","lat":43.2587403,"lon":17.8880075,"puntuation":2.7,"address":"63 Laurel Street"},
{"id":473,"name":"Dareen","lat":31.2367474,"lon":121.5221244,"puntuation":1.9,"address":"28 Hoffman Circle"},
{"id":474,"name":"Kary","lat":-15.6093293,"lon":-72.0896229,"puntuation":4.7,"address":"9360 School Hill"},
{"id":475,"name":"Rupert","lat":6.6614944,"lon":7.7688358,"puntuation":3.3,"address":"1 Linden Parkway"},
{"id":476,"name":"Edi","lat":38.5597722,"lon":68.7870384,"puntuation":4.1,"address":"92 Manley Way"},
{"id":477,"name":"Mariska","lat":50.0116973,"lon":17.0907562,"puntuation":1.7,"address":"8803 Old Gate Drive"},
{"id":478,"name":"Marinna","lat":-26.8039789,"lon":-48.6489134,"puntuation":4.1,"address":"4 Manitowish Park"},
{"id":479,"name":"Byrle","lat":48.834578,"lon":23.4472258,"puntuation":2.7,"address":"6623 Prentice Court"},
{"id":480,"name":"Glenden","lat":39.6720868,"lon":-84.0960056,"puntuation":1.9,"address":"9 Anniversary Terrace"},
{"id":481,"name":"Jillian","lat":-38.9351182,"lon":-68.2320043,"puntuation":2.2,"address":"13 Hagan Lane"},
{"id":482,"name":"Desirae","lat":-7.7687701,"lon":112.9386472,"puntuation":1.2,"address":"106 Tony Alley"},
{"id":483,"name":"Linnet","lat":42.0107787,"lon":128.0660957,"puntuation":4.9,"address":"60 Reindahl Trail"},
{"id":484,"name":"Cacilia","lat":29.703113,"lon":107.389298,"puntuation":1.7,"address":"1 Melvin Street"},
{"id":485,"name":"Sammy","lat":10.097212,"lon":-83.504629,"puntuation":3.8,"address":"37 Armistice Place"},
{"id":486,"name":"Meredith","lat":25.456453,"lon":103.240546,"puntuation":1.0,"address":"39568 Lakeland Park"},
{"id":487,"name":"Juliet","lat":5.003233,"lon":-76.003424,"puntuation":1.2,"address":"2127 Tony Circle"},
{"id":488,"name":"Marlene","lat":38.143169,"lon":117.497651,"puntuation":1.4,"address":"6 Bellgrove Terrace"},
{"id":489,"name":"Kariotta","lat":13.78333,"lon":-14.93333,"puntuation":4.8,"address":"157 Hooker Circle"},
{"id":490,"name":"Toby","lat":-15.0364493,"lon":40.7323311,"puntuation":1.4,"address":"0534 Hanson Alley"},
{"id":491,"name":"Sol","lat":55.9576019,"lon":36.2249059,"puntuation":3.4,"address":"55766 Maryland Court"},
{"id":492,"name":"Gustavus","lat":45.7333281,"lon":20.6693099,"puntuation":3.5,"address":"90 Myrtle Parkway"},
{"id":493,"name":"Roderich","lat":-9.1462164,"lon":-37.8188445,"puntuation":4.5,"address":"34902 Express Court"},
{"id":494,"name":"Salomone","lat":13.3846598,"lon":-88.5045477,"puntuation":4.8,"address":"97 Mifflin Point"},
{"id":495,"name":"Marena","lat":34.3507417,"lon":135.6964987,"puntuation":2.2,"address":"3 Lakeland Court"},
{"id":496,"name":"Rosalinde","lat":44.9727255,"lon":18.6011657,"puntuation":4.6,"address":"26 Golf View Center"},
{"id":497,"name":"Ramonda","lat":24.6755872,"lon":121.770825,"puntuation":1.8,"address":"5740 Colorado Road"},
{"id":498,"name":"Wenonah","lat":37.865759,"lon":27.345742,"puntuation":3.6,"address":"85 American Drive"},
{"id":499,"name":"Abbie","lat":-7.6371755,"lon":112.9386472,"puntuation":2.1,"address":"031 Northport Alley"},
{"id":500,"name":"Kameko","lat":41.3442557,"lon":-8.4002579,"puntuation":4.4,"address":"98342 Badeau Alley"},
{"id":501,"name":"Stacy","lat":40.2361837,"lon":20.3517334,"puntuation":4.6,"address":"0 Schiller Way"},
{"id":502,"name":"Dal","lat":49.7495189,"lon":19.288837,"puntuation":1.5,"address":"6 Hoffman Road"},
{"id":503,"name":"Pris","lat":40.2361837,"lon":20.3517334,"puntuation":4.2,"address":"8 Vidon Lane"},
{"id":504,"name":"Tanny","lat":16.9126068,"lon":121.622089,"puntuation":3.5,"address":"107 Sage Center"},
{"id":505,"name":"Gabriele","lat":27.783878,"lon":106.585841,"puntuation":1.3,"address":"581 Eliot Avenue"},
{"id":506,"name":"Claudell","lat":14.6092588,"lon":120.9924256,"puntuation":3.2,"address":"579 Merchant Trail"},
{"id":507,"name":"Malorie","lat":24.8697215,"lon":89.3700108,"puntuation":1.2,"address":"687 Lakewood Gardens Avenue"},
{"id":508,"name":"Allister","lat":34.9116774,"lon":-5.9145568,"puntuation":4.3,"address":"8434 Kim Place"},
{"id":509,"name":"Elaine","lat":31.2579515,"lon":120.2051096,"puntuation":2.5,"address":"5884 Rutledge Drive"},
{"id":510,"name":"Kristyn","lat":9.2422286,"lon":125.5562747,"puntuation":2.4,"address":"425 Judy Terrace"},
{"id":511,"name":"Rafaelita","lat":31.637714,"lon":119.716535,"puntuation":4.3,"address":"44 Dakota Park"},
{"id":512,"name":"Ches","lat":33.631238,"lon":113.645873,"puntuation":1.1,"address":"33452 Oxford Lane"},
{"id":513,"name":"Kitti","lat":30.3039275,"lon":120.3376132,"puntuation":1.7,"address":"1807 Rusk Point"},
{"id":514,"name":"Rutledge","lat":8.955271,"lon":126.009711,"puntuation":1.4,"address":"66121 Pine View Pass"},
{"id":515,"name":"Almira","lat":14.0031627,"lon":0.7556575,"puntuation":4.3,"address":"56 Cascade Terrace"},
{"id":516,"name":"Catlaina","lat":-8.7820436,"lon":120.4155972,"puntuation":2.8,"address":"5655 Nelson Parkway"},
{"id":517,"name":"Marsh","lat":28.924679,"lon":115.245001,"puntuation":1.5,"address":"74 Bonner Point"},
{"id":518,"name":"Clair","lat":49.0535092,"lon":16.8367681,"puntuation":1.9,"address":"00 Novick Place"},
{"id":519,"name":"Francyne","lat":47.3455396,"lon":123.9558083,"puntuation":2.3,"address":"816 Mcguire Drive"},
{"id":520,"name":"Rhoda","lat":32.968455,"lon":117.167673,"puntuation":1.5,"address":"03742 Dorton Lane"},
{"id":521,"name":"Nickolai","lat":39.903538,"lon":116.42675,"puntuation":3.9,"address":"8761 Brown Street"},
{"id":522,"name":"Thor","lat":38.6969299,"lon":-9.3053201,"puntuation":3.5,"address":"07710 Loomis Way"},
{"id":523,"name":"Concordia","lat":40.4407041,"lon":19.8451169,"puntuation":3.2,"address":"03998 Main Hill"},
{"id":524,"name":"Timmi","lat":40.0480392,"lon":23.4134501,"puntuation":2.2,"address":"96739 Shopko Drive"},
{"id":525,"name":"Rudiger","lat":-22.0699763,"lon":-46.5728156,"puntuation":1.6,"address":"977 Sherman Hill"},
{"id":526,"name":"Thalia","lat":8.955271,"lon":126.009711,"puntuation":3.2,"address":"2050 Vahlen Place"},
{"id":527,"name":"Arlin","lat":59.2264863,"lon":18.2509127,"puntuation":4.5,"address":"655 Carpenter Park"},
{"id":528,"name":"Glendon","lat":22.5250447,"lon":91.9196949,"puntuation":4.6,"address":"3 Mallory Point"},
{"id":529,"name":"Augustine","lat":-41.172184,"lon":-71.437354,"puntuation":3.4,"address":"7113 Twin Pines Drive"},
{"id":530,"name":"Melisent","lat":-13.3970988,"lon":48.2667279,"puntuation":4.2,"address":"4 Glacier Hill Point"},
{"id":531,"name":"Karlan","lat":26.312444,"lon":99.850365,"puntuation":2.1,"address":"58079 Mccormick Hill"},
{"id":532,"name":"Rubi","lat":32.7940463,"lon":34.989571,"puntuation":4.7,"address":"285 Fairview Lane"},
{"id":533,"name":"Harrie","lat":19.4458447,"lon":-99.1497664,"puntuation":1.4,"address":"975 International Circle"},
{"id":534,"name":"Fair","lat":41.76,"lon":-72.69,"puntuation":4.7,"address":"1221 Lyons Crossing"},
{"id":535,"name":"Robers","lat":31.77,"lon":-106.43,"puntuation":1.8,"address":"25350 Blaine Circle"},
{"id":536,"name":"Dare","lat":24.315499,"lon":109.410683,"puntuation":4.3,"address":"9 Red Cloud Trail"},
{"id":537,"name":"Carry","lat":24.625561,"lon":118.431541,"puntuation":4.3,"address":"90 Pine View Street"},
{"id":538,"name":"Newton","lat":41.4954461,"lon":-8.575938,"puntuation":4.9,"address":"9951 Spaight Circle"},
{"id":539,"name":"Pearce","lat":48.9897585,"lon":37.8049964,"puntuation":2.0,"address":"5818 Hanson Hill"},
{"id":540,"name":"Cairistiona","lat":43.4945737,"lon":5.8978018,"puntuation":4.4,"address":"59476 Shopko Hill"},
{"id":541,"name":"Maure","lat":54.13607,"lon":19.00874,"puntuation":2.4,"address":"74 Almo Street"},
{"id":542,"name":"Leonanie","lat":17.3798237,"lon":104.6821048,"puntuation":3.7,"address":"10792 Hovde Alley"},
{"id":543,"name":"Rem","lat":53.8386511,"lon":22.9882406,"puntuation":2.9,"address":"4629 Mosinee Lane"},
{"id":544,"name":"Haley","lat":-7.5754887,"lon":110.8243272,"puntuation":3.9,"address":"6 Pepper Wood Hill"},
{"id":545,"name":"Susana","lat":52.5928523,"lon":21.458395,"puntuation":4.9,"address":"2 Corben Alley"},
{"id":546,"name":"Lynea","lat":-1.0645451,"lon":103.9608091,"puntuation":2.0,"address":"97067 Moose Parkway"},
{"id":547,"name":"Ted","lat":49.2059545,"lon":-2.1336267,"puntuation":4.7,"address":"3946 Prentice Plaza"},
{"id":548,"name":"Elwira","lat":44.1497667,"lon":43.4577689,"puntuation":2.4,"address":"841 Rockefeller Junction"},
{"id":549,"name":"Frasco","lat":62.2500936,"lon":25.18352,"puntuation":2.4,"address":"5684 Graedel Junction"},
{"id":550,"name":"Jennette","lat":0.4568473,"lon":101.4046099,"puntuation":2.4,"address":"1 Graceland Drive"},
{"id":551,"name":"Braden","lat":54.8675594,"lon":31.3957567,"puntuation":5.0,"address":"673 Melvin Pass"},
{"id":552,"name":"Kirk","lat":-8.0450166,"lon":113.87632,"puntuation":3.0,"address":"187 Charing Cross Drive"},
{"id":553,"name":"Zonnya","lat":51.8478427,"lon":42.4697909,"puntuation":1.0,"address":"53069 Pierstorff Plaza"},
{"id":554,"name":"Wyn","lat":-14.2171388,"lon":-71.4314206,"puntuation":1.5,"address":"5 Kinsman Alley"},
{"id":555,"name":"Abrahan","lat":-22.7485717,"lon":-46.8931368,"puntuation":3.8,"address":"91 2nd Drive"},
{"id":556,"name":"Shayla","lat":53.83345,"lon":-113.33531,"puntuation":1.9,"address":"429 Killdeer Drive"},
{"id":557,"name":"Roddy","lat":44.335532,"lon":85.625121,"puntuation":1.9,"address":"41 Schlimgen Point"},
{"id":558,"name":"Olympe","lat":10.9357,"lon":122.4932,"puntuation":3.1,"address":"77399 Vernon Pass"},
{"id":559,"name":"Melosa","lat":41.3337534,"lon":19.8753308,"puntuation":1.6,"address":"147 Nelson Pass"},
{"id":560,"name":"Toni","lat":37.7181047,"lon":-25.372789,"puntuation":4.0,"address":"57 Swallow Avenue"},
{"id":561,"name":"Maude","lat":39.672791,"lon":113.732809,"puntuation":2.0,"address":"75648 Esch Drive"},
{"id":562,"name":"Gamaliel","lat":-3.9257199,"lon":29.9899512,"puntuation":4.9,"address":"73 Maryland Parkway"},
{"id":563,"name":"Loy","lat":41.2783338,"lon":-8.4553816,"puntuation":2.3,"address":"84 Chive Pass"},
{"id":564,"name":"Abby","lat":14.9699796,"lon":145.6412079,"puntuation":4.9,"address":"2 Golf Course Center"},
{"id":565,"name":"Myrtia","lat":26.7831243,"lon":85.2774207,"puntuation":4.4,"address":"153 Tomscot Junction"},
{"id":566,"name":"Cornelia","lat":33.2487196,"lon":129.736915,"puntuation":1.8,"address":"026 Coleman Road"},
{"id":567,"name":"Kahlil","lat":-22.0028763,"lon":27.8428651,"puntuation":4.4,"address":"5860 Schurz Lane"},
{"id":568,"name":"Geordie","lat":22.654032,"lon":110.18122,"puntuation":2.6,"address":"35 Utah Lane"},
{"id":569,"name":"Abbe","lat":13.7829673,"lon":109.2196634,"puntuation":3.7,"address":"02 Rutledge Lane"},
{"id":570,"name":"Cecilia","lat":-7.02476,"lon":107.08093,"puntuation":4.9,"address":"79527 Cascade Crossing"},
{"id":571,"name":"Peadar","lat":-8.7183,"lon":115.5233,"puntuation":3.2,"address":"3 Annamark Hill"},
{"id":572,"name":"Yoko","lat":48.9446931,"lon":91.1606763,"puntuation":1.0,"address":"50108 Nelson Plaza"},
{"id":573,"name":"Ursula","lat":-38.0033365,"lon":-57.5430848,"puntuation":3.3,"address":"52159 Monica Way"},
{"id":574,"name":"Sybil","lat":30.862289,"lon":103.915953,"puntuation":1.0,"address":"814 Lukken Point"},
{"id":575,"name":"Dex","lat":48.6354729,"lon":38.6373937,"puntuation":1.3,"address":"3 Petterle Pass"},
{"id":576,"name":"Guillaume","lat":30.664436,"lon":108.326536,"puntuation":2.4,"address":"480 Kedzie Drive"},
{"id":577,"name":"Morna","lat":46.4476799,"lon":14.0197219,"puntuation":3.5,"address":"8053 Dryden Circle"},
{"id":578,"name":"Carr","lat":57.1447448,"lon":43.1648753,"puntuation":1.5,"address":"7 Goodland Avenue"},
{"id":579,"name":"Darin","lat":3.01334,"lon":-76.643755,"puntuation":2.5,"address":"07 Dahle Center"},
{"id":580,"name":"Gerri","lat":43.4794825,"lon":-79.6558242,"puntuation":4.4,"address":"567 Arrowood Parkway"},
{"id":581,"name":"Vinni","lat":13.0748766,"lon":123.7526021,"puntuation":1.9,"address":"8089 Hoepker Point"},
{"id":582,"name":"Vitia","lat":-31.4834373,"lon":-64.2145666,"puntuation":2.8,"address":"9252 Vidon Way"},
{"id":583,"name":"Harry","lat":49.8687559,"lon":17.0138788,"puntuation":1.8,"address":"067 Fulton Junction"},
{"id":584,"name":"Gregory","lat":0.0851034,"lon":-76.8940156,"puntuation":1.1,"address":"82 Sachtjen Road"},
{"id":585,"name":"Marys","lat":45.1689858,"lon":1.5588851,"puntuation":1.1,"address":"6058 Clarendon Crossing"},
{"id":586,"name":"Freddy","lat":54.0282094,"lon":48.329762,"puntuation":1.1,"address":"247 Briar Crest Way"},
{"id":587,"name":"Cal","lat":22.5397224,"lon":114.1114725,"puntuation":4.2,"address":"2 Springs Pass"},
{"id":588,"name":"Marcelo","lat":11.2428856,"lon":-73.4062342,"puntuation":3.0,"address":"8170 Dahle Circle"},
{"id":589,"name":"Trixie","lat":-8.2666267,"lon":115.054678,"puntuation":4.3,"address":"9 Heffernan Drive"},
{"id":590,"name":"Georgie","lat":35.408609,"lon":117.146885,"puntuation":4.2,"address":"81 Mariners Cove Trail"},
{"id":591,"name":"Marylinda","lat":55.5376879,"lon":42.0791342,"puntuation":4.1,"address":"4033 West Hill"},
{"id":592,"name":"Ginny","lat":49.1278721,"lon":16.613233,"puntuation":2.5,"address":"0844 Paget Plaza"},
{"id":593,"name":"Lyn","lat":-22.8521905,"lon":-46.3160679,"puntuation":1.2,"address":"74 Jenna Pass"},
{"id":594,"name":"Elisabetta","lat":55.86328,"lon":37.621698,"puntuation":4.5,"address":"990 Mayfield Place"},
{"id":595,"name":"Broddie","lat":13.8018124,"lon":8.98527,"puntuation":4.3,"address":"26 Commercial Street"},
{"id":596,"name":"Charisse","lat":59.65089,"lon":67.412319,"puntuation":2.2,"address":"896 American Court"},
{"id":597,"name":"Petra","lat":28.006273,"lon":120.635515,"puntuation":2.5,"address":"6586 Haas Plaza"},
{"id":598,"name":"Aurora","lat":48.0080981,"lon":6.7166698,"puntuation":1.8,"address":"542 Lakewood Hill"},
{"id":599,"name":"Audre","lat":34.8809639,"lon":44.6207633,"puntuation":1.2,"address":"5303 Artisan Terrace"},
{"id":600,"name":"Robina","lat":49.8756758,"lon":-106.5573172,"puntuation":3.6,"address":"88868 Manufacturers Junction"},
{"id":601,"name":"Ruthie","lat":28.365818,"lon":121.061097,"puntuation":5.0,"address":"24 Morning Way"},
{"id":602,"name":"Linet","lat":0.4919195,"lon":42.778437,"puntuation":1.1,"address":"13 Hoffman Drive"},
{"id":603,"name":"Burton","lat":47.0163969,"lon":-68.1430029,"puntuation":2.1,"address":"94622 Butterfield Place"},
{"id":604,"name":"Blair","lat":49.5562052,"lon":6.2862731,"puntuation":3.6,"address":"656 Loomis Way"},
{"id":605,"name":"Billy","lat":52.6738562,"lon":41.7631303,"puntuation":4.8,"address":"5957 Beilfuss Drive"},
{"id":606,"name":"Farrel","lat":16.6482598,"lon":101.0118776,"puntuation":3.4,"address":"84857 Del Sol Point"},
{"id":607,"name":"Lefty","lat":38.235892,"lon":115.725833,"puntuation":1.9,"address":"6225 Vidon Alley"},
{"id":608,"name":"Valencia","lat":52.7009338,"lon":-6.9692181,"puntuation":2.6,"address":"25 Corry Crossing"},
{"id":609,"name":"Deb","lat":14.4783119,"lon":121.0331004,"puntuation":4.6,"address":"54197 Victoria Lane"},
{"id":610,"name":"Corene","lat":49.9718258,"lon":12.8846277,"puntuation":1.8,"address":"43196 Killdeer Trail"},
{"id":611,"name":"Ofella","lat":35.035,"lon":10.90809,"puntuation":4.1,"address":"39 Schurz Park"},
{"id":612,"name":"Colet","lat":-10.7333933,"lon":123.1260578,"puntuation":1.4,"address":"610 Schlimgen Center"},
{"id":613,"name":"Rhianna","lat":30.368126,"lon":102.814531,"puntuation":3.8,"address":"03522 Reindahl Crossing"},
{"id":614,"name":"Averil","lat":53.1892176,"lon":50.119277,"puntuation":2.1,"address":"66191 Corben Junction"},
{"id":615,"name":"Laverna","lat":9.93644,"lon":-84.96602,"puntuation":1.6,"address":"8437 Bultman Way"},
{"id":616,"name":"Wells","lat":15.8171073,"lon":106.2522143,"puntuation":2.4,"address":"1150 Declaration Way"},
{"id":617,"name":"Drusi","lat":18.026373,"lon":-95.514174,"puntuation":3.5,"address":"1 Service Circle"},
{"id":618,"name":"Niles","lat":50.75425,"lon":86.13414,"puntuation":2.6,"address":"86631 Fulton Circle"},
{"id":619,"name":"Vidovic","lat":29.956858,"lon":107.209965,"puntuation":2.4,"address":"38661 Delladonna Point"},
{"id":620,"name":"Dexter","lat":37.9656089,"lon":23.5677089,"puntuation":2.0,"address":"0 Butterfield Junction"},
{"id":621,"name":"Horatia","lat":14.6274805,"lon":120.9679677,"puntuation":2.5,"address":"5712 Ilene Avenue"},
{"id":622,"name":"Veda","lat":7.6182738,"lon":100.3048897,"puntuation":4.1,"address":"70 Shoshone Avenue"},
{"id":623,"name":"Freedman","lat":-6.2323908,"lon":106.8318446,"puntuation":3.5,"address":"69609 Eagle Crest Trail"},
{"id":624,"name":"Auria","lat":15.1051826,"lon":-91.929029,"puntuation":3.3,"address":"1 American Ash Crossing"},
{"id":625,"name":"Cassey","lat":-7.081475,"lon":-76.702454,"puntuation":1.9,"address":"24489 Hanson Point"},
{"id":626,"name":"Bert","lat":54.311687,"lon":-130.3293111,"puntuation":3.3,"address":"559 Hovde Circle"},
{"id":627,"name":"Joane","lat":18.2291677,"lon":-78.1393397,"puntuation":1.7,"address":"02410 Union Circle"},
{"id":628,"name":"Andromache","lat":39.4865544,"lon":-8.0215061,"puntuation":4.3,"address":"25072 Pawling Crossing"},
{"id":629,"name":"Tamqrah","lat":13.6441828,"lon":4.0337846,"puntuation":3.3,"address":"50 Warbler Point"},
{"id":630,"name":"Baudoin","lat":-24.8472072,"lon":-56.3530514,"puntuation":3.7,"address":"390 Memorial Street"},
{"id":631,"name":"Alford","lat":50.1191124,"lon":26.8281141,"puntuation":2.1,"address":"0710 Fulton Parkway"},
{"id":632,"name":"Olga","lat":51.95914,"lon":21.53057,"puntuation":1.0,"address":"62122 Blue Bill Park Lane"},
{"id":633,"name":"Janeta","lat":-12.4,"lon":-74.7,"puntuation":2.6,"address":"9 Sachs Court"},
{"id":634,"name":"Barbara","lat":41.6493465,"lon":22.1713543,"puntuation":1.8,"address":"53162 Summer Ridge Court"},
{"id":635,"name":"Eziechiele","lat":26.480043,"lon":113.778639,"puntuation":4.2,"address":"806 Dryden Trail"},
{"id":636,"name":"Berthe","lat":12.0419812,"lon":13.9172992,"puntuation":3.5,"address":"02583 Fremont Crossing"},
{"id":637,"name":"Libby","lat":1.424768,"lon":103.6487041,"puntuation":2.1,"address":"51 Nobel Center"},
{"id":638,"name":"Bud","lat":62.5898079,"lon":50.8599404,"puntuation":3.4,"address":"50 Fuller Avenue"},
{"id":639,"name":"Carly","lat":23.7221111,"lon":-15.9347384,"puntuation":1.5,"address":"2958 Elgar Lane"},
{"id":640,"name":"Garvin","lat":45.2114093,"lon":-72.7399622,"puntuation":2.6,"address":"8 Pearson Trail"},
{"id":641,"name":"Allissa","lat":-7.1072394,"lon":109.011884,"puntuation":3.2,"address":"767 Springs Lane"},
{"id":642,"name":"Dennet","lat":-13.54918,"lon":-71.893158,"puntuation":4.3,"address":"21548 Redwing Plaza"},
{"id":643,"name":"Aldis","lat":48.1700928,"lon":11.5776824,"puntuation":3.3,"address":"38 Nova Pass"},
{"id":644,"name":"Inglis","lat":39.822507,"lon":109.963338,"puntuation":3.0,"address":"3 Maple Wood Way"},
{"id":645,"name":"Giraldo","lat":51.0031913,"lon":14.4423662,"puntuation":1.2,"address":"15965 Burrows Circle"},
{"id":646,"name":"Renae","lat":10.332444,"lon":4.464398,"puntuation":4.8,"address":"5996 Killdeer Place"},
{"id":647,"name":"Guglielma","lat":5.246361,"lon":95.9872235,"puntuation":1.9,"address":"2576 Melody Hill"},
{"id":648,"name":"Katine","lat":-12.0169195,"lon":-75.2799884,"puntuation":4.0,"address":"31 Briar Crest Road"},
{"id":649,"name":"Tyne","lat":37.8909637,"lon":139.3167305,"puntuation":4.6,"address":"54 Parkside Way"},
{"id":650,"name":"Neala","lat":52.6683384,"lon":19.5041229,"puntuation":4.4,"address":"2 Red Cloud Place"},
{"id":651,"name":"Nicol","lat":-6.5413435,"lon":-80.0129679,"puntuation":3.5,"address":"3930 Washington Terrace"},
{"id":652,"name":"Mack","lat":14.5919106,"lon":121.0228804,"puntuation":2.9,"address":"15916 Redwing Plaza"},
{"id":653,"name":"Joseph","lat":43.977331,"lon":81.318189,"puntuation":4.4,"address":"40 Michigan Alley"},
{"id":654,"name":"Josefa","lat":29.722611,"lon":118.339653,"puntuation":4.1,"address":"3 Parkside Center"},
{"id":655,"name":"Minnnie","lat":11.582354,"lon":-11.8920237,"puntuation":3.6,"address":"0 Morningstar Terrace"},
{"id":656,"name":"Nelie","lat":39.7383486,"lon":-8.9107106,"puntuation":4.6,"address":"4578 Blue Bill Park Alley"},
{"id":657,"name":"Dukey","lat":48.9802395,"lon":2.612562,"puntuation":1.5,"address":"5826 Goodland Lane"},
{"id":658,"name":"Jeanelle","lat":51.6437127,"lon":18.6691683,"puntuation":3.9,"address":"156 Lakewood Court"},
{"id":659,"name":"Sande","lat":29.2642495,"lon":115.3133908,"puntuation":1.6,"address":"2611 Morrow Point"},
{"id":660,"name":"Carlye","lat":26.885704,"lon":120.005147,"puntuation":4.6,"address":"68 Northwestern Point"},
{"id":661,"name":"Virgie","lat":26.629211,"lon":101.266195,"puntuation":2.8,"address":"694 Lakewood Gardens Point"},
{"id":662,"name":"Drona","lat":31.4727877,"lon":72.9967658,"puntuation":1.2,"address":"73433 Village Road"},
{"id":663,"name":"Andromache","lat":34.265637,"lon":107.62613,"puntuation":4.8,"address":"111 Jenifer Park"},
{"id":664,"name":"Arda","lat":8.2545666,"lon":124.5716112,"puntuation":3.4,"address":"7384 John Wall Lane"},
{"id":665,"name":"Olin","lat":35.41,"lon":127.38583,"puntuation":4.1,"address":"64108 Westerfield Park"},
{"id":666,"name":"Adrianna","lat":6.6746161,"lon":-3.9725378,"puntuation":1.6,"address":"2 Dwight Drive"},
{"id":667,"name":"Armin","lat":28.312001,"lon":109.738781,"puntuation":3.8,"address":"11 Briar Crest Way"},
{"id":668,"name":"Jourdain","lat":-21.8833835,"lon":-42.6985095,"puntuation":3.2,"address":"8 Dwight Circle"},
{"id":669,"name":"Fara","lat":44.7790716,"lon":40.5449803,"puntuation":2.9,"address":"096 Evergreen Alley"},
{"id":670,"name":"Sherlocke","lat":31.85587,"lon":35.19706,"puntuation":3.2,"address":"3 Dapin Circle"},
{"id":671,"name":"Val","lat":1.5594449,"lon":101.0146187,"puntuation":4.7,"address":"2 Grover Road"},
{"id":672,"name":"Tiffanie","lat":41.403128,"lon":119.64328,"puntuation":1.3,"address":"56080 La Follette Plaza"},
{"id":673,"name":"Rycca","lat":57.1928469,"lon":56.9199638,"puntuation":4.6,"address":"25068 Leroy Avenue"},
{"id":674,"name":"Sharon","lat":9.8586845,"lon":-84.0943743,"puntuation":5.0,"address":"34 Messerschmidt Point"},
{"id":675,"name":"Heindrick","lat":41.0394733,"lon":-8.5310302,"puntuation":1.3,"address":"035 Lawn Avenue"},
{"id":676,"name":"Waverly","lat":-6.3934005,"lon":-77.4859711,"puntuation":2.9,"address":"68151 Del Mar Drive"},
{"id":677,"name":"Ina","lat":51.1610189,"lon":17.9045829,"puntuation":3.4,"address":"52 Shasta Place"},
{"id":678,"name":"Kayne","lat":-7.2947788,"lon":110.3427968,"puntuation":2.5,"address":"07 Lunder Road"},
{"id":679,"name":"Roman","lat":10.7782801,"lon":106.9447146,"puntuation":1.8,"address":"0187 Boyd Street"},
{"id":680,"name":"Rutger","lat":5.9840985,"lon":116.0761121,"puntuation":5.0,"address":"56994 Hagan Street"},
{"id":681,"name":"Christian","lat":54.93333,"lon":23.6,"puntuation":4.5,"address":"09 Holy Cross Lane"},
{"id":682,"name":"Jarrett","lat":59.3316697,"lon":18.0278909,"puntuation":1.9,"address":"4 Porter Way"},
{"id":683,"name":"Jdavie","lat":23.101893,"lon":113.297193,"puntuation":1.7,"address":"95 Kim Avenue"},
{"id":684,"name":"Leroy","lat":31.628871,"lon":65.7371749,"puntuation":2.8,"address":"031 Moose Point"},
{"id":685,"name":"Davide","lat":59.4641209,"lon":18.0433215,"puntuation":3.8,"address":"23767 Marquette Plaza"},
{"id":686,"name":"Joletta","lat":51.46681,"lon":-109.16818,"puntuation":4.0,"address":"55 Welch Avenue"},
{"id":687,"name":"Bryanty","lat":36.6415869,"lon":59.1213974,"puntuation":4.9,"address":"05438 Buena Vista Way"},
{"id":688,"name":"Diandra","lat":3.1523104,"lon":101.7178316,"puntuation":1.3,"address":"461 Sachs Pass"},
{"id":689,"name":"Siobhan","lat":48.695223,"lon":2.190167,"puntuation":2.2,"address":"64 7th Junction"},
{"id":690,"name":"Fabio","lat":12.2722898,"lon":-86.0529604,"puntuation":4.1,"address":"078 Kings Park"},
{"id":691,"name":"Romonda","lat":44.31681,"lon":-79.88295,"puntuation":3.2,"address":"49 Kennedy Junction"},
{"id":692,"name":"Ben","lat":59.449371,"lon":18.1145597,"puntuation":2.4,"address":"39266 Jay Place"},
{"id":693,"name":"Donovan","lat":-22.5923709,"lon":27.637617,"puntuation":1.7,"address":"44784 Elgar Lane"},
{"id":694,"name":"Venita","lat":24.018269,"lon":114.987268,"puntuation":3.1,"address":"94 Troy Trail"},
{"id":695,"name":"Cele","lat":55.1506212,"lon":82.8518405,"puntuation":3.5,"address":"8213 Eastlawn Avenue"},
{"id":696,"name":"Niel","lat":44.6757957,"lon":20.4004819,"puntuation":4.6,"address":"8 Katie Trail"},
{"id":697,"name":"Hermine","lat":45.7140258,"lon":20.7713965,"puntuation":2.9,"address":"4185 Kings Lane"},
{"id":698,"name":"Borg","lat":48.6140715,"lon":2.4739044,"puntuation":3.4,"address":"1 Maple Wood Plaza"},
{"id":699,"name":"Arman","lat":-7.4727879,"lon":109.0274877,"puntuation":1.0,"address":"8 Dunning Point"},
{"id":700,"name":"Roderick","lat":35.86166,"lon":104.195397,"puntuation":1.6,"address":"5 Mitchell Plaza"},
{"id":701,"name":"Juana","lat":-7.1056569,"lon":107.9005972,"puntuation":3.0,"address":"5113 Northwestern Place"},
{"id":702,"name":"Nicola","lat":51.5258667,"lon":57.3241614,"puntuation":4.8,"address":"5602 Eliot Hill"},
{"id":703,"name":"Stella","lat":13.4841015,"lon":-88.4670322,"puntuation":3.0,"address":"55471 Huxley Place"},
{"id":704,"name":"Elianora","lat":16.3770105,"lon":104.5422225,"puntuation":3.3,"address":"8286 Schiller Road"},
{"id":705,"name":"Roselin","lat":2.9662346,"lon":99.7985457,"puntuation":1.7,"address":"26 Ridgeview Court"},
{"id":706,"name":"Cord","lat":55.1529289,"lon":61.3951545,"puntuation":1.8,"address":"45 Rutledge Circle"},
{"id":707,"name":"Vicki","lat":32.3506936,"lon":-95.3018275,"puntuation":3.4,"address":"110 Monument Road"},
{"id":708,"name":"Katee","lat":54.7747231,"lon":22.8634338,"puntuation":2.4,"address":"32 Farragut Parkway"},
{"id":709,"name":"Pate","lat":49.5207147,"lon":23.2065501,"puntuation":3.5,"address":"5 Mockingbird Street"},
{"id":710,"name":"Montague","lat":23.201636,"lon":99.330641,"puntuation":1.5,"address":"4069 Cardinal Point"},
{"id":711,"name":"Pauly","lat":51.240387,"lon":20.3798933,"puntuation":2.0,"address":"6807 Anderson Avenue"},
{"id":712,"name":"Eimile","lat":52.1513886,"lon":4.4982869,"puntuation":1.8,"address":"112 Cottonwood Center"},
{"id":713,"name":"Hatty","lat":49.886516,"lon":5.8121284,"puntuation":4.0,"address":"9 Toban Terrace"},
{"id":714,"name":"Joceline","lat":-7.617735,"lon":112.4172256,"puntuation":2.1,"address":"94000 Farmco Junction"},
{"id":715,"name":"Lenee","lat":55.6849184,"lon":12.5506988,"puntuation":3.4,"address":"51334 Mayer Crossing"},
{"id":716,"name":"Lorita","lat":18.8107813,"lon":-71.2227043,"puntuation":1.5,"address":"49892 Butterfield Junction"},
{"id":717,"name":"Laurette","lat":51.035673,"lon":18.5985286,"puntuation":4.2,"address":"83 Corscot Street"},
{"id":718,"name":"Titos","lat":45.2977605,"lon":2.5135985,"puntuation":4.4,"address":"8 Hudson Junction"},
{"id":719,"name":"Nelson","lat":4.917531,"lon":-74.024773,"puntuation":4.5,"address":"7 David Drive"},
{"id":720,"name":"Lanette","lat":49.1472664,"lon":-102.9866567,"puntuation":3.7,"address":"7621 Coolidge Road"},
{"id":721,"name":"Marys","lat":-6.4991921,"lon":106.8915948,"puntuation":3.8,"address":"14570 Grim Lane"},
{"id":722,"name":"Monte","lat":60.3749535,"lon":19.8471958,"puntuation":2.1,"address":"89088 Vermont Drive"},
{"id":723,"name":"Tobiah","lat":41.867116,"lon":-8.1991214,"puntuation":4.3,"address":"7744 Burrows Circle"},
{"id":724,"name":"Myrah","lat":7.1864095,"lon":100.5927222,"puntuation":4.7,"address":"95251 Manufacturers Road"},
{"id":725,"name":"Terrye","lat":31.5587,"lon":35.1244,"puntuation":3.5,"address":"9 Bay Hill"},
{"id":726,"name":"Jamal","lat":14.4223149,"lon":-16.702825,"puntuation":1.5,"address":"5495 Mosinee Crossing"},
{"id":727,"name":"Celene","lat":-33.3516458,"lon":-56.5112061,"puntuation":3.7,"address":"37 Lukken Circle"},
{"id":728,"name":"Antonella","lat":49.4263976,"lon":2.0887457,"puntuation":1.0,"address":"767 Ridgeview Street"},
{"id":729,"name":"Riordan","lat":47.0641228,"lon":8.2785907,"puntuation":4.9,"address":"92795 Bluejay Lane"},
{"id":730,"name":"Starla","lat":16.9112786,"lon":120.5714754,"puntuation":3.9,"address":"6154 Hollow Ridge Court"},
{"id":731,"name":"Chucho","lat":13.38333,"lon":-13.85,"puntuation":2.5,"address":"5952 Hanson Terrace"},
{"id":732,"name":"Ingeborg","lat":38.4298138,"lon":22.6668104,"puntuation":1.0,"address":"4392 Oakridge Alley"},
{"id":733,"name":"Valeria","lat":9.2284759,"lon":-80.0856189,"puntuation":2.9,"address":"7 Judy Place"},
{"id":734,"name":"Finlay","lat":49.1931313,"lon":-0.3907558,"puntuation":2.1,"address":"37 Kropf Pass"},
{"id":735,"name":"Brad","lat":41.6213969,"lon":-8.6287913,"puntuation":3.1,"address":"3 Larry Court"},
{"id":736,"name":"Roseanne","lat":65.4026,"lon":21.1886684,"puntuation":4.9,"address":"761 Mcbride Hill"},
{"id":737,"name":"Kara-lynn","lat":53.9045398,"lon":27.5615244,"puntuation":1.8,"address":"14442 Hansons Park"},
{"id":738,"name":"Gilburt","lat":35.6110549,"lon":127.2826599,"puntuation":3.8,"address":"595 Bayside Lane"},
{"id":739,"name":"Thorn","lat":59.3778462,"lon":18.0367294,"puntuation":3.0,"address":"7 Carey Court"},
{"id":740,"name":"Sebastian","lat":55.658365,"lon":37.615691,"puntuation":4.2,"address":"21 Lotheville Junction"},
{"id":741,"name":"Arie","lat":47.2243648,"lon":1.7394788,"puntuation":2.7,"address":"087 Dapin Center"},
{"id":742,"name":"Manda","lat":48.5129473,"lon":2.6780176,"puntuation":1.9,"address":"5 Monument Hill"},
{"id":743,"name":"Tamarra","lat":27.868393,"lon":113.433712,"puntuation":2.5,"address":"5874 Forest Dale Way"},
{"id":744,"name":"Lanny","lat":57.7594822,"lon":14.1522619,"puntuation":4.3,"address":"7738 Columbus Avenue"},
{"id":745,"name":"Thorpe","lat":36.0558208,"lon":40.731064,"puntuation":2.6,"address":"28 Vidon Lane"},
{"id":746,"name":"Kenn","lat":41.5318938,"lon":-8.6939907,"puntuation":2.6,"address":"2 Banding Avenue"},
{"id":747,"name":"Rufus","lat":-10.1628,"lon":123.5781,"puntuation":2.0,"address":"4 Carberry Circle"},
{"id":748,"name":"Ladonna","lat":-32.5711982,"lon":-64.3878273,"puntuation":3.5,"address":"57480 Pankratz Parkway"},
{"id":749,"name":"Una","lat":41.2870015,"lon":20.321945,"puntuation":2.8,"address":"274 Farmco Street"},
{"id":750,"name":"Doralynne","lat":28.94074,"lon":113.447431,"puntuation":4.8,"address":"5 Fisk Way"},
{"id":751,"name":"Bryn","lat":31.5825784,"lon":48.8875486,"puntuation":1.5,"address":"0 Gerald Point"},
{"id":752,"name":"Melanie","lat":-19.9245018,"lon":-43.9352376,"puntuation":2.6,"address":"82 Eliot Center"},
{"id":753,"name":"Creight","lat":16.0543375,"lon":100.2151578,"puntuation":2.9,"address":"5 Vidon Hill"},
{"id":754,"name":"Fidelio","lat":-6.939897,"lon":106.9506175,"puntuation":3.3,"address":"77 Bashford Pass"},
{"id":755,"name":"Lawton","lat":35.1899597,"lon":25.7164166,"puntuation":1.8,"address":"9 Autumn Leaf Terrace"},
{"id":756,"name":"Aigneis","lat":50.0360024,"lon":22.0152079,"puntuation":1.7,"address":"8 Division Place"},
{"id":757,"name":"Claudio","lat":23.14855,"lon":113.249429,"puntuation":2.9,"address":"811 Golf View Lane"},
{"id":758,"name":"Drugi","lat":53.5460327,"lon":47.6885743,"puntuation":3.6,"address":"4650 Di Loreto Terrace"},
{"id":759,"name":"Chelsy","lat":44.4113398,"lon":18.7480201,"puntuation":2.6,"address":"7872 Luster Hill"},
{"id":760,"name":"Nolie","lat":38.0412749,"lon":23.5418125,"puntuation":3.7,"address":"31 Bartillon Crossing"},
{"id":761,"name":"Duncan","lat":51.378691,"lon":21.3788326,"puntuation":3.8,"address":"6691 Esch Trail"},
{"id":762,"name":"Blinnie","lat":23.365556,"lon":116.70345,"puntuation":1.3,"address":"14 Toban Lane"},
{"id":763,"name":"Hakeem","lat":-41.748446,"lon":171.596443,"puntuation":4.5,"address":"0508 Vidon Terrace"},
{"id":764,"name":"Gillan","lat":-3.5273652,"lon":128.2849463,"puntuation":3.6,"address":"24 Kenwood Lane"},
{"id":765,"name":"Wernher","lat":-12.2800422,"lon":-75.7863836,"puntuation":1.6,"address":"8 Marquette Place"},
{"id":766,"name":"Sullivan","lat":27.508801,"lon":59.333,"puntuation":4.1,"address":"602 Nobel Drive"},
{"id":767,"name":"Kelcy","lat":17.0187975,"lon":103.2432632,"puntuation":2.4,"address":"9699 Reindahl Road"},
{"id":768,"name":"Gray","lat":-10.7072554,"lon":22.22946,"puntuation":1.3,"address":"4055 Blaine Circle"},
{"id":769,"name":"Brandy","lat":57.007322,"lon":39.2695629,"puntuation":2.3,"address":"11703 Morning Parkway"},
{"id":770,"name":"Blake","lat":53.4917756,"lon":29.3327582,"puntuation":2.1,"address":"92403 Novick Road"},
{"id":771,"name":"Binnie","lat":-9.6993439,"lon":119.9740534,"puntuation":1.1,"address":"3547 Melvin Circle"},
{"id":772,"name":"Lacey","lat":26.3039206,"lon":127.7616484,"puntuation":4.6,"address":"826 Union Parkway"},
{"id":773,"name":"Even","lat":-6.9517959,"lon":107.4561832,"puntuation":4.5,"address":"5193 Boyd Road"},
{"id":774,"name":"Rachele","lat":14.68778,"lon":120.9760496,"puntuation":2.3,"address":"06922 Tennessee Lane"},
{"id":775,"name":"Chrisy","lat":9.2217178,"lon":-65.9794807,"puntuation":2.4,"address":"7948 Heffernan Way"},
{"id":776,"name":"Armand","lat":28.650072,"lon":121.261886,"puntuation":1.6,"address":"51 Katie Drive"},
{"id":777,"name":"Katusha","lat":-22.3595631,"lon":-47.3853435,"puntuation":1.1,"address":"5 Commercial Place"},
{"id":778,"name":"Marthe","lat":22.9457326,"lon":112.3578078,"puntuation":4.2,"address":"28342 Jay Park"},
{"id":779,"name":"Steffie","lat":13.7634469,"lon":123.055727,"puntuation":2.6,"address":"60 Hayes Terrace"},
{"id":780,"name":"Meridel","lat":18.9331158,"lon":-70.4059336,"puntuation":2.5,"address":"28 Tomscot Pass"},
{"id":781,"name":"Angelia","lat":-7.7533886,"lon":109.8975853,"puntuation":3.3,"address":"1381 Del Sol Drive"},
{"id":782,"name":"Sasha","lat":42.7333428,"lon":-87.8255014,"puntuation":3.6,"address":"31758 Cordelia Avenue"},
{"id":783,"name":"Florentia","lat":48.235668,"lon":16.373098,"puntuation":1.1,"address":"33 Logan Place"},
{"id":784,"name":"Dedra","lat":53.0319419,"lon":18.9576575,"puntuation":3.2,"address":"2 Union Junction"},
{"id":785,"name":"Gregorio","lat":34.6850948,"lon":138.1992472,"puntuation":2.8,"address":"0129 Lighthouse Bay Circle"},
{"id":786,"name":"Brose","lat":35.6803,"lon":51.0193,"puntuation":1.1,"address":"5013 Waubesa Hill"},
{"id":787,"name":"Marlie","lat":31.236833,"lon":121.532286,"puntuation":1.5,"address":"4 Fuller Junction"},
{"id":788,"name":"Leshia","lat":-7.0872117,"lon":110.9134113,"puntuation":3.2,"address":"7 Beilfuss Center"},
{"id":789,"name":"Tabitha","lat":19.188296,"lon":108.799374,"puntuation":2.1,"address":"03 Farmco Park"},
{"id":790,"name":"Rutter","lat":-41.1254857,"lon":-71.2485941,"puntuation":3.1,"address":"7 Bartillon Avenue"},
{"id":791,"name":"Adelheid","lat":-6.955869,"lon":110.248722,"puntuation":2.1,"address":"30426 Fulton Alley"},
{"id":792,"name":"Megen","lat":9.8245916,"lon":122.9082413,"puntuation":2.8,"address":"6 Mockingbird Avenue"},
{"id":793,"name":"Monah","lat":41.2130334,"lon":23.2996379,"puntuation":2.2,"address":"2 Longview Park"},
{"id":794,"name":"Hazel","lat":14.1501831,"lon":121.3167785,"puntuation":3.3,"address":"8 Banding Center"},
{"id":795,"name":"Atlante","lat":31.827364,"lon":119.9690478,"puntuation":3.7,"address":"81679 Everett Drive"},
{"id":796,"name":"Waring","lat":58.5370785,"lon":15.0077799,"puntuation":4.8,"address":"047 Sage Park"},
{"id":797,"name":"Byran","lat":37.1764814,"lon":-8.201073,"puntuation":4.5,"address":"9334 Towne Place"},
{"id":798,"name":"Leela","lat":24.4908935,"lon":118.1202121,"puntuation":4.3,"address":"506 Mayer Plaza"},
{"id":799,"name":"Maison","lat":-26.1631828,"lon":27.8252814,"puntuation":1.9,"address":"8 Katie Pass"},
{"id":800,"name":"Roderigo","lat":39.1538529,"lon":127.4460001,"puntuation":1.5,"address":"949 Milwaukee Avenue"},
{"id":801,"name":"Dewain","lat":54.8583596,"lon":44.1463438,"puntuation":2.7,"address":"23892 Lakewood Junction"},
{"id":802,"name":"Andromache","lat":43.7477413,"lon":39.5308638,"puntuation":4.8,"address":"35967 Rieder Junction"},
{"id":803,"name":"Amory","lat":59.8863041,"lon":29.9085976,"puntuation":3.3,"address":"19980 Laurel Lane"},
{"id":804,"name":"Priscella","lat":55.5146696,"lon":35.8272389,"puntuation":4.0,"address":"8194 Arkansas Drive"},
{"id":805,"name":"Mozes","lat":28.249827,"lon":91.767413,"puntuation":3.2,"address":"507 Cody Drive"},
{"id":806,"name":"Patrice","lat":23.018033,"lon":-82.3343375,"puntuation":4.6,"address":"776 Forest Park"},
{"id":807,"name":"Saxon","lat":40.9192881,"lon":-8.4188235,"puntuation":3.2,"address":"06 Arrowood Hill"},
{"id":808,"name":"Nixie","lat":10.7424589,"lon":13.8042382,"puntuation":3.8,"address":"4348 Reinke Trail"},
{"id":809,"name":"Ikey","lat":-19.4085525,"lon":-42.374164,"puntuation":5.0,"address":"781 Clemons Parkway"},
{"id":810,"name":"Kyle","lat":27.690732,"lon":111.45269,"puntuation":3.8,"address":"19733 Lake View Way"},
{"id":811,"name":"Agace","lat":-7.5145399,"lon":112.7330892,"puntuation":3.5,"address":"94334 Sachs Court"},
{"id":812,"name":"Wilfrid","lat":47.389969,"lon":122.738679,"puntuation":3.0,"address":"0 Redwing Center"},
{"id":813,"name":"Norean","lat":50.4064969,"lon":17.301758,"puntuation":2.7,"address":"90 Delaware Pass"},
{"id":814,"name":"Nonah","lat":35.916433,"lon":14.5025108,"puntuation":1.6,"address":"13 Pennsylvania Drive"},
{"id":815,"name":"Lianna","lat":55.6188565,"lon":74.0452068,"puntuation":2.6,"address":"9537 Moulton Lane"},
{"id":816,"name":"Libbey","lat":11.0068891,"lon":123.9185105,"puntuation":4.9,"address":"5 Stang Terrace"},
{"id":817,"name":"Karisa","lat":50.429849,"lon":19.0520962,"puntuation":4.2,"address":"9907 David Drive"},
{"id":818,"name":"Germayne","lat":-8.416667,"lon":-77.45,"puntuation":1.9,"address":"8904 Caliangt Hill"},
{"id":819,"name":"May","lat":50.0005617,"lon":25.5072523,"puntuation":2.3,"address":"940 Butternut Lane"},
{"id":820,"name":"Abe","lat":51.64027,"lon":22.9003199,"puntuation":4.7,"address":"865 Sheridan Drive"},
{"id":821,"name":"Hobart","lat":1.6940945,"lon":-76.2363248,"puntuation":1.5,"address":"99 Hayes Crossing"},
{"id":822,"name":"Alfie","lat":48.6828993,"lon":37.5280345,"puntuation":4.2,"address":"9851 Debs Drive"},
{"id":823,"name":"Leonardo","lat":5.3794023,"lon":-73.6557707,"puntuation":1.2,"address":"6 Toban Circle"},
{"id":824,"name":"Gabriele","lat":34.058401,"lon":107.319116,"puntuation":1.3,"address":"6 Ryan Plaza"},
{"id":825,"name":"Gavra","lat":50.40008,"lon":-113.25189,"puntuation":3.8,"address":"6003 Thierer Point"},
{"id":826,"name":"Talyah","lat":24.9936281,"lon":121.3009798,"puntuation":4.3,"address":"5 1st Drive"},
{"id":827,"name":"Eadmund","lat":-9.8015544,"lon":-77.4314703,"puntuation":4.7,"address":"5 Morningstar Court"},
{"id":828,"name":"Kameko","lat":45.9735653,"lon":134.1872425,"puntuation":2.1,"address":"42 Fisk Trail"},
{"id":829,"name":"Alfred","lat":35.054002,"lon":103.133562,"puntuation":4.1,"address":"52 Merrick Trail"},
{"id":830,"name":"Garrik","lat":7.1302807,"lon":-3.2030756,"puntuation":1.5,"address":"254 Aberg Lane"},
{"id":831,"name":"Rhiamon","lat":50.0521348,"lon":16.0850004,"puntuation":3.2,"address":"937 Sheridan Center"},
{"id":832,"name":"Georgie","lat":-7.324188,"lon":110.509841,"puntuation":2.4,"address":"4 Delaware Way"},
{"id":833,"name":"Randa","lat":32.9520318,"lon":35.1599957,"puntuation":2.7,"address":"6 Killdeer Plaza"},
{"id":834,"name":"Kasey","lat":34.9731207,"lon":137.0345088,"puntuation":1.7,"address":"8 Sachtjen Lane"},
{"id":835,"name":"Mandi","lat":24.546876,"lon":107.04219,"puntuation":1.6,"address":"20535 Gale Alley"},
{"id":836,"name":"Felicia","lat":50.1611633,"lon":12.2816034,"puntuation":3.3,"address":"7062 Lindbergh Center"},
{"id":837,"name":"Rollin","lat":47.4441206,"lon":-0.5572458,"puntuation":2.2,"address":"42436 Rieder Crossing"},
{"id":838,"name":"Pepi","lat":0.4607691,"lon":34.1114621,"puntuation":1.6,"address":"24932 Dwight Hill"},
{"id":839,"name":"Giacobo","lat":34.0076216,"lon":44.148291,"puntuation":4.9,"address":"3 Springs Junction"},
{"id":840,"name":"Megan","lat":30.577776,"lon":99.197234,"puntuation":3.2,"address":"46145 Gulseth Hill"},
{"id":841,"name":"Wylma","lat":22.2479136,"lon":-97.8755614,"puntuation":2.7,"address":"242 Elmside Terrace"},
{"id":842,"name":"Langsdon","lat":53.29667,"lon":16.99062,"puntuation":3.4,"address":"6088 Valley Edge Point"},
{"id":843,"name":"Gertie","lat":57.767136,"lon":24.8770839,"puntuation":2.3,"address":"202 Manitowish Lane"},
{"id":844,"name":"Paulina","lat":54.0809529,"lon":21.4937201,"puntuation":3.9,"address":"777 Thackeray Terrace"},
{"id":845,"name":"Petunia","lat":56.1276639,"lon":43.0729987,"puntuation":4.4,"address":"64675 Oriole Pass"},
{"id":846,"name":"Sonny","lat":-30.7456924,"lon":-58.0135415,"puntuation":2.6,"address":"392 Lawn Pass"},
{"id":847,"name":"Torin","lat":7.1065989,"lon":6.6878719,"puntuation":3.9,"address":"885 Oxford Circle"},
{"id":848,"name":"Martelle","lat":30.536514,"lon":114.975487,"puntuation":1.3,"address":"6 Hintze Alley"},
{"id":849,"name":"Kylen","lat":33.189192,"lon":120.103473,"puntuation":3.3,"address":"15548 Golf Road"},
{"id":850,"name":"Keefer","lat":16.6054808,"lon":121.1848786,"puntuation":3.5,"address":"08 Village Green Point"},
{"id":851,"name":"Thorndike","lat":45.4699386,"lon":4.5014237,"puntuation":2.4,"address":"3 Welch Circle"},
{"id":852,"name":"Rice","lat":53.495408,"lon":-112.0538628,"puntuation":5.0,"address":"2646 Badeau Junction"},
{"id":853,"name":"Lorne","lat":0.76202,"lon":127.32015,"puntuation":4.5,"address":"68 Judy Lane"},
{"id":854,"name":"Everard","lat":-2.2027147,"lon":115.2778317,"puntuation":2.1,"address":"69613 Thierer Road"},
{"id":855,"name":"Orton","lat":-6.6597862,"lon":107.7132895,"puntuation":2.7,"address":"87749 Carpenter Point"},
{"id":856,"name":"Abbot","lat":40.8955806,"lon":68.3670494,"puntuation":3.1,"address":"71148 Burning Wood Avenue"},
{"id":857,"name":"Palmer","lat":-31.3224313,"lon":-62.813111,"puntuation":4.5,"address":"3144 Anthes Avenue"},
{"id":858,"name":"Ashla","lat":18.4931208,"lon":-69.9293076,"puntuation":4.9,"address":"29 Mallard Court"},
{"id":859,"name":"Kelli","lat":-6.8364154,"lon":111.1980575,"puntuation":1.4,"address":"90192 Summer Ridge Circle"},
{"id":860,"name":"Hirsch","lat":47.837001,"lon":28.4339797,"puntuation":2.9,"address":"691 Dovetail Junction"},
{"id":861,"name":"Joshia","lat":60.2638215,"lon":18.4529131,"puntuation":4.4,"address":"695 Center Circle"},
{"id":862,"name":"Shea","lat":22.517585,"lon":113.39277,"puntuation":4.6,"address":"1288 Schiller Crossing"},
{"id":863,"name":"Igor","lat":15.9121913,"lon":120.5841083,"puntuation":3.5,"address":"0 Arizona Circle"},
{"id":864,"name":"Carlynn","lat":31.2035483,"lon":30.5502219,"puntuation":1.1,"address":"08099 Coolidge Pass"},
{"id":865,"name":"Dominga","lat":34.9556581,"lon":135.272163,"puntuation":1.7,"address":"7 Sunbrook Trail"},
{"id":866,"name":"Kara-lynn","lat":30.572815,"lon":104.066801,"puntuation":3.5,"address":"5 Utah Court"},
{"id":867,"name":"Leonidas","lat":30.753924,"lon":120.758543,"puntuation":4.0,"address":"1525 Macpherson Terrace"},
{"id":868,"name":"Rafferty","lat":42.1874125,"lon":20.0003019,"puntuation":1.6,"address":"6 East Point"},
{"id":869,"name":"Ignaz","lat":7.2466086,"lon":16.4346979,"puntuation":3.2,"address":"4 Mccormick Crossing"},
{"id":870,"name":"Bennie","lat":40.979512,"lon":19.897722,"puntuation":2.0,"address":"44 Shasta Parkway"},
{"id":871,"name":"Alika","lat":33.347316,"lon":120.16366,"puntuation":2.7,"address":"37 Vermont Road"},
{"id":872,"name":"Margaux","lat":-8.2307484,"lon":113.2998705,"puntuation":3.9,"address":"9482 Pierstorff Circle"},
{"id":873,"name":"Marshal","lat":48.689836,"lon":6.17445,"puntuation":4.8,"address":"9 Dorton Center"},
{"id":874,"name":"Ibby","lat":31.823845,"lon":121.507229,"puntuation":4.8,"address":"840 Kinsman Court"},
{"id":875,"name":"Fiona","lat":40.2221306,"lon":-8.0122102,"puntuation":3.6,"address":"2214 Hollow Ridge Drive"},
{"id":876,"name":"Paulie","lat":50.7671084,"lon":35.267666,"puntuation":1.0,"address":"1900 Golf View Alley"},
{"id":877,"name":"Janelle","lat":42.046011,"lon":-8.4825685,"puntuation":3.6,"address":"22137 Old Gate Pass"},
{"id":878,"name":"Trixi","lat":60.8151976,"lon":23.8712999,"puntuation":1.3,"address":"89 Dryden Place"},
{"id":879,"name":"Shep","lat":-6.7515973,"lon":107.9287898,"puntuation":3.0,"address":"471 Mccormick Parkway"},
{"id":880,"name":"Brendin","lat":45.7646846,"lon":4.861724,"puntuation":4.3,"address":"078 Bowman Pass"},
{"id":881,"name":"Filmore","lat":6.8873531,"lon":73.113569,"puntuation":1.3,"address":"1774 Erie Court"},
{"id":882,"name":"Dario","lat":-3.879263,"lon":-38.612338,"puntuation":1.7,"address":"15344 Swallow Crossing"},
{"id":883,"name":"Lauren","lat":51.2228143,"lon":19.3045833,"puntuation":1.9,"address":"7149 Lakewood Gardens Circle"},
{"id":884,"name":"Latrina","lat":-11.1892053,"lon":28.8888064,"puntuation":3.7,"address":"8 Charing Cross Center"},
{"id":885,"name":"Ann-marie","lat":51.6698819,"lon":34.21546,"puntuation":4.8,"address":"66 Valley Edge Trail"},
{"id":886,"name":"Tobye","lat":-23.216667,"lon":46.6666669,"puntuation":1.5,"address":"22 Longview Hill"},
{"id":887,"name":"Desdemona","lat":-8.650979,"lon":116.3249438,"puntuation":4.2,"address":"43738 Oakridge Road"},
{"id":888,"name":"Morie","lat":51.449197,"lon":7.1957779,"puntuation":1.3,"address":"44774 Goodland Circle"},
{"id":889,"name":"Ilaire","lat":15.64453,"lon":44.47337,"puntuation":3.3,"address":"669 Larry Circle"},
{"id":890,"name":"Phillip","lat":57.6727414,"lon":-2.955445,"puntuation":1.8,"address":"4 Redwing Road"},
{"id":891,"name":"Deane","lat":35.1612182,"lon":-5.2632201,"puntuation":1.1,"address":"04024 Orin Drive"},
{"id":892,"name":"Jocko","lat":-21.5957703,"lon":-46.8877455,"puntuation":1.2,"address":"542 Marcy Pass"},
{"id":893,"name":"Karlens","lat":45.180548,"lon":0.768949,"puntuation":3.2,"address":"0449 Ilene Place"},
{"id":894,"name":"Clerc","lat":35.7055251,"lon":140.5585737,"puntuation":3.0,"address":"0034 Stang Center"},
{"id":895,"name":"Meara","lat":46.946681,"lon":142.0144982,"puntuation":3.9,"address":"32 Doe Crossing Circle"},
{"id":896,"name":"Audrey","lat":34.329605,"lon":108.708991,"puntuation":2.4,"address":"2592 Stephen Circle"},
{"id":897,"name":"Ofelia","lat":40.6335639,"lon":20.5885853,"puntuation":4.1,"address":"7 Stephen Point"},
{"id":898,"name":"Nikoletta","lat":35.3,"lon":25,"puntuation":2.2,"address":"54253 Moose Trail"},
{"id":899,"name":"Gae","lat":15.3098003,"lon":119.9994908,"puntuation":1.5,"address":"71986 Anhalt Trail"},
{"id":900,"name":"Lora","lat":49.8662503,"lon":18.3762685,"puntuation":2.6,"address":"9261 Mesta Center"},
{"id":901,"name":"Samara","lat":53.9732574,"lon":123.9092222,"puntuation":1.3,"address":"8 Judy Court"},
{"id":902,"name":"Ulises","lat":-18.9732399,"lon":-40.7361322,"puntuation":4.6,"address":"719 Ohio Parkway"},
{"id":903,"name":"Celia","lat":-29.6216078,"lon":-50.534262,"puntuation":3.6,"address":"82918 Morrow Center"},
{"id":904,"name":"Meriel","lat":45.7211508,"lon":20.4710429,"puntuation":2.7,"address":"19 Karstens Pass"},
{"id":905,"name":"Juline","lat":1.3566345,"lon":172.9299068,"puntuation":4.6,"address":"81078 High Crossing Drive"},
{"id":906,"name":"Cesare","lat":22.915094,"lon":112.044491,"puntuation":4.6,"address":"8724 Briar Crest Avenue"},
{"id":907,"name":"Lari","lat":43.4945737,"lon":5.8978018,"puntuation":4.0,"address":"4347 Roth Crossing"},
{"id":908,"name":"Alexio","lat":5.119358,"lon":-75.023736,"puntuation":3.2,"address":"49593 Shasta Center"},
{"id":909,"name":"Coraline","lat":-6.8572408,"lon":107.5088982,"puntuation":3.3,"address":"3212 Nelson Alley"},
{"id":910,"name":"Vaughan","lat":12.5968345,"lon":-85.7641013,"puntuation":3.7,"address":"9 Eastlawn Point"},
{"id":911,"name":"Hyacinthe","lat":8.9806034,"lon":38.7577605,"puntuation":3.3,"address":"7452 Hudson Road"},
{"id":912,"name":"Lorry","lat":31.228026,"lon":121.454211,"puntuation":2.1,"address":"679 Iowa Drive"},
{"id":913,"name":"Johnnie","lat":53.9165867,"lon":18.1905615,"puntuation":1.5,"address":"3780 1st Hill"},
{"id":914,"name":"Lindsay","lat":-20.5558832,"lon":-48.5762695,"puntuation":4.2,"address":"6 Erie Street"},
{"id":915,"name":"Kerrie","lat":35.6139047,"lon":36.5607888,"puntuation":3.2,"address":"45 Farmco Point"},
{"id":916,"name":"Lynnea","lat":38.4600166,"lon":-9.1141307,"puntuation":3.5,"address":"21 Shelley Street"},
{"id":917,"name":"Cash","lat":-7.5088,"lon":108.2386,"puntuation":4.8,"address":"2993 Lighthouse Bay Drive"},