[{"id":1,"name":"Caddric","lat":32.137793,"lon":34.840278,"puntuation":3.5,"address":"PO Box 56273"},
{"id":2,"name":"Rachele","lat":17.9469612,"lon":98.8113193,"puntuation":2.9,"address":"PO Box 84522"},
{"id":3,"name":"Franklin","lat":44.6063199,"lon":17.8595342,"puntuation":3.9,"address":"16th Floor"},
{"id":4,"name":"Lacie","lat":30.145729,"lon":120.589457,"puntuation":1.5,"address":"Suite 18"},
{"id":5,"name":"Carmelita","lat":52.3287247,"lon":21.1718237,"puntuation":4.6,"address":"Room 218"},
{"id":6,"name":"Kleon","lat":49.2389409,"lon":-121.7658827,"puntuation":1.9,"address":"Suite 37"},
{"id":7,"name":"Fawn","lat":53.0733767,"lon":26.9940296,"puntuation":4.0,"address":"PO Box 22578"},
{"id":8,"name":"Nan","lat":41.2658376,"lon":-8.6729604,"puntuation":2.5,"address":"PO Box 40560"},
{"id":9,"name":"Gardie","lat":50.045621,"lon":22.4322889,"puntuation":3.2,"address":"PO Box 41435"},
{"id":10,"name":"Brodie","lat":32.5496232,"lon":131.6597893,"puntuation":3.6,"address":"Apt 1310"},
{"id":11,"name":"Chic","lat":32.983101,"lon":107.766613,"puntuation":2.2,"address":"PO Box 90174"},
{"id":12,"name":"Clay","lat":56.91683,"lon":-117.61945,"puntuation":1.0,"address":"Room 829"},
{"id":13,"name":"Edie","lat":52.8522051,"lon":23.0334561,"puntuation":4.7,"address":"Room 1820"},
{"id":14,"name":"Meade","lat":-6.1840029,"lon":106.8466001,"puntuation":3.4,"address":"18th Floor"},
{"id":15,"name":"Cyrille","lat":12.8897363,"lon":100.9010416,"puntuation":2.6,"address":"Suite 88"},
{"id":16,"name":"Redford","lat":33.1584786,"lon":-5.8432964,"puntuation":3.0,"address":"Room 429"},
{"id":17,"name":"Cherey","lat":-10.9965942,"lon":-76.3289941,"puntuation":3.0,"address":"Suite 19"},
{"id":18,"name":"Nicholle","lat":34.857149,"lon":118.07065,"puntuation":3.2,"address":"Room 348"},
{"id":19,"name":"Vincent","lat":8.47834,"lon":125.743983,"puntuation":2.4,"address":"PO Box 42485"},
{"id":20,"name":"Nanny","lat":14.6101685,"lon":121.0088573,"puntuation":2.5,"address":"Suite 69"},
{"id":21,"name":"Aggie","lat":43.4604716,"lon":21.0489533,"puntuation":3.6,"address":"Apt 590"},
{"id":22,"name":"Maury","lat":51.8796,"lon":4.5059,"puntuation":4.9,"address":"5th Floor"},
{"id":23,"name":"Natalie","lat":15.491919,"lon":99.8348146,"puntuation":3.5,"address":"Suite 25"},
{"id":24,"name":"Craig","lat":12.9714369,"lon":99.8991604,"puntuation":4.5,"address":"17th Floor"},
{"id":25,"name":"Modesty","lat":45.5839189,"lon":5.2733732,"puntuation":3.7,"address":"Room 21"},
{"id":26,"name":"Neville","lat":-6.7098551,"lon":111.3479498,"puntuation":5.0,"address":"Room 1291"},
{"id":27,"name":"Gardener","lat":41.4981839,"lon":-8.3569915,"puntuation":4.8,"address":"Suite 18"},
{"id":28,"name":"Trenton","lat":39.105787,"lon":111.862117,"puntuation":3.5,"address":"Apt 1186"},
{"id":29,"name":"Kingsly","lat":48.1120825,"lon":25.7664345,"puntuation":4.4,"address":"PO Box 77613"},
{"id":30,"name":"Cass","lat":-6.6409658,"lon":106.8030892,"puntuation":4.8,"address":"3rd Floor"},
{"id":31,"name":"Yolande","lat":18.7863009,"lon":-69.6531674,"puntuation":4.3,"address":"PO Box 90112"},
{"id":32,"name":"Anett","lat":55.5808883,"lon":42.0289058,"puntuation":3.9,"address":"Room 568"},
{"id":33,"name":"Ilyse","lat":36.7336287,"lon":137.1426455,"puntuation":4.8,"address":"6th Floor"},
{"id":34,"name":"Odetta","lat":37.841046,"lon":140.5203882,"puntuation":3.6,"address":"Room 1999"},
{"id":35,"name":"Farr","lat":33.12688,"lon":106.558023,"puntuation":3.6,"address":"Apt 176"},
{"id":36,"name":"Keelia","lat":35.640089,"lon":103.766427,"puntuation":4.3,"address":"Apt 1751"},
{"id":37,"name":"Virge","lat":39.3041754,"lon":-9.1967347,"puntuation":4.0,"address":"Apt 625"},
{"id":38,"name":"Silvana","lat":-6.9714991,"lon":107.569381,"puntuation":3.9,"address":"Room 209"},
{"id":39,"name":"Lanny","lat":-6.2900045,"lon":106.8672736,"puntuation":1.8,"address":"10th Floor"},
{"id":40,"name":"Shae","lat":57.0228035,"lon":28.9142107,"puntuation":3.3,"address":"PO Box 97903"},
{"id":41,"name":"Pattin","lat":50.6856,"lon":-121.942,"puntuation":4.5,"address":"2nd Floor"},
{"id":42,"name":"Kristina","lat":-8.8559,"lon":121.6432,"puntuation":2.5,"address":"Apt 1664"},
{"id":43,"name":"Joelly","lat":-7.0631844,"lon":107.7843483,"puntuation":3.8,"address":"Apt 327"},
{"id":44,"name":"Terri-jo","lat":13.5218669,"lon":120.9617948,"puntuation":2.8,"address":"Room 521"},
{"id":45,"name":"Raul","lat":28.512467,"lon":111.034516,"puntuation":3.3,"address":"Apt 1324"},
{"id":46,"name":"Wilow","lat":54.6186348,"lon":18.3257,"puntuation":3.4,"address":"Room 287"},
{"id":47,"name":"Hy","lat":48.8351221,"lon":2.6302303,"puntuation":4.8,"address":"PO Box 67107"},
{"id":48,"name":"Whitman","lat":42.3332013,"lon":142.3680716,"puntuation":3.9,"address":"Apt 1393"},
{"id":49,"name":"Honoria","lat":54.8098373,"lon":36.3116274,"puntuation":4.6,"address":"Room 900"},
{"id":50,"name":"Shanta","lat":12.7430244,"lon":-3.8553507,"puntuation":2.2,"address":"Room 288"},
{"id":51,"name":"Cullie","lat":14.18364,"lon":122.899983,"puntuation":3.2,"address":"PO Box 52095"},
{"id":52,"name":"Chelsie","lat":15.5973118,"lon":-87.2145498,"puntuation":4.6,"address":"Suite 7"},
{"id":53,"name":"Freda","lat":15.2307976,"lon":-87.9653335,"puntuation":1.9,"address":"Suite 94"},
{"id":54,"name":"Bree","lat":13.9142931,"lon":-87.921223,"puntuation":1.3,"address":"Suite 40"},
{"id":55,"name":"Cirilo","lat":35.015101,"lon":110.998272,"puntuation":3.0,"address":"PO Box 98332"},
{"id":56,"name":"Mabelle","lat":48.1206294,"lon":17.1168892,"puntuation":2.0,"address":"Room 1116"},
{"id":57,"name":"Worden","lat":13.4082642,"lon":-15.6082651,"puntuation":2.0,"address":"Room 827"},
{"id":58,"name":"Darsey","lat":5.0153677,"lon":-9.0377612,"puntuation":1.9,"address":"Room 1363"},
{"id":59,"name":"Merrel","lat":30.520783,"lon":120.145342,"puntuation":2.0,"address":"15th Floor"},
{"id":60,"name":"Dwayne","lat":6.2244851,"lon":10.6759772,"puntuation":4.2,"address":"Suite 79"},
{"id":61,"name":"Thorin","lat":46.71034,"lon":84.046436,"puntuation":3.4,"address":"PO Box 6277"},
{"id":62,"name":"Claire","lat":48.8834605,"lon":2.2335234,"puntuation":2.4,"address":"PO Box 38551"},
{"id":63,"name":"Kalindi","lat":0,"lon":2.8125,"puntuation":1.7,"address":"Apt 1610"},
{"id":64,"name":"Jazmin","lat":6.7703871,"lon":8.9935558,"puntuation":3.2,"address":"1st Floor"},
{"id":65,"name":"Josey","lat":39.4977854,"lon":20.2749783,"puntuation":2.6,"address":"Suite 79"},
{"id":66,"name":"Colette","lat":11.7913106,"lon":42.8796227,"puntuation":3.7,"address":"PO Box 908"},
{"id":67,"name":"Lissie","lat":59.82941,"lon":30.1775921,"puntuation":4.3,"address":"Suite 1"},
{"id":68,"name":"Shayne","lat":10.554131,"lon":123.0143845,"puntuation":2.2,"address":"11th Floor"},
{"id":69,"name":"Bellanca","lat":62.6014659,"lon":25.7278806,"puntuation":4.7,"address":"PO Box 71246"},
{"id":70,"name":"Sabra","lat":32.38632,"lon":35.48084,"puntuation":2.8,"address":"Room 310"},
{"id":71,"name":"Timotheus","lat":41.3258441,"lon":-8.4786662,"puntuation":2.6,"address":"Apt 1095"},
{"id":72,"name":"Brandy","lat":10.9455193,"lon":122.5100535,"puntuation":1.9,"address":"20th Floor"},
{"id":73,"name":"Morrie","lat":63.1747832,"lon":17.2654819,"puntuation":4.7,"address":"PO Box 47080"},
{"id":74,"name":"Tamas","lat":50.255556,"lon":136.640833,"puntuation":2.1,"address":"Suite 71"},
{"id":75,"name":"Anny","lat":55.376816,"lon":13.1536197,"puntuation":4.9,"address":"Apt 806"},
{"id":76,"name":"Lindie","lat":38.013999,"lon":24.4198995,"puntuation":1.4,"address":"7th Floor"},
{"id":77,"name":"Dewitt","lat":-9.113585,"lon":-37.119659,"puntuation":1.1,"address":"Room 1308"},
{"id":78,"name":"Ansley","lat":10.332444,"lon":4.464398,"puntuation":2.0,"address":"Suite 12"},
{"id":79,"name":"Jake","lat":-30.9738956,"lon":-54.6847647,"puntuation":2.4,"address":"PO Box 89298"},
{"id":80,"name":"Margery","lat":-38.9459345,"lon":-68.113957,"puntuation":3.0,"address":"Apt 298"},
{"id":81,"name":"Clarke","lat":-8.4680384,"lon":-78.0380882,"puntuation":4.4,"address":"Room 1256"},
{"id":82,"name":"Julita","lat":32.735468,"lon":-16.792927,"puntuation":1.4,"address":"9th Floor"},
{"id":83,"name":"Christy","lat":36.691279,"lon":101.255892,"puntuation":2.0,"address":"13th Floor"},
{"id":84,"name":"Kristoforo","lat":-26.7761609,"lon":-51.0124989,"puntuation":4.5,"address":"PO Box 51625"},
{"id":85,"name":"Padriac","lat":34.8591956,"lon":134.5488877,"puntuation":2.6,"address":"Suite 41"},
{"id":86,"name":"Lesya","lat":57.0473929,"lon":44.8980984,"puntuation":3.5,"address":"PO Box 54203"},
{"id":87,"name":"Reena","lat":5.9840985,"lon":116.0761121,"puntuation":2.9,"address":"9th Floor"},
{"id":88,"name":"Kalli","lat":30.630173,"lon":120.565098,"puntuation":4.1,"address":"13th Floor"},
{"id":89,"name":"Lyndel","lat":29.837883,"lon":120.353629,"puntuation":4.7,"address":"Room 1458"},
{"id":90,"name":"Tatum","lat":50.5368321,"lon":23.4027578,"puntuation":3.8,"address":"Suite 50"},
{"id":91,"name":"Germain","lat":35.8659607,"lon":14.5139265,"puntuation":4.3,"address":"Room 1365"},
{"id":92,"name":"Gardy","lat":25.1629584,"lon":69.6226406,"puntuation":3.7,"address":"PO Box 37283"},
{"id":93,"name":"Kimberlyn","lat":-6.1306709,"lon":23.5966577,"puntuation":3.6,"address":"4th Floor"},
{"id":94,"name":"Kimbra","lat":65.836924,"lon":13.1934011,"puntuation":5.0,"address":"Suite 70"},
{"id":95,"name":"Nerty","lat":-8.8899,"lon":121.2806,"puntuation":3.4,"address":"8th Floor"},
{"id":96,"name":"Page","lat":33.786489,"lon":133.7255189,"puntuation":2.2,"address":"Room 1250"},
{"id":97,"name":"Drud","lat":53.0018699,"lon":-6.9858993,"puntuation":2.6,"address":"PO Box 12435"},
{"id":98,"name":"Bent","lat":46.11923,"lon":83.09014,"puntuation":4.0,"address":"PO Box 9755"},
{"id":99,"name":"Gaile","lat":-29.6540396,"lon":-51.1848488,"puntuation":2.2,"address":"17th Floor"},
{"id":100,"name":"Alexis","lat":22.170437,"lon":111.791539,"puntuation":4.1,"address":"Room 40"},
{"id":101,"name":"Corenda","lat":-12.8549255,"lon":15.5620927,"puntuation":4.5,"address":"PO Box 96912"},
{"id":102,"name":"Crin","lat":-21.8047006,"lon":-54.5432691,"puntuation":3.7,"address":"Apt 1605"},
{"id":103,"name":"Genia","lat":6.064944,"lon":-8.1393179,"puntuation":3.3,"address":"PO Box 57813"},
{"id":104,"name":"Carney","lat":50.6992259,"lon":21.896691,"puntuation":3.3,"address":"17th Floor"},
{"id":105,"name":"Aubert","lat":54.305019,"lon":23.747034,"puntuation":1.9,"address":"Room 595"},
{"id":106,"name":"Rosette","lat":34.8066794,"lon":32.4212424,"puntuation":3.1,"address":"Apt 1296"},
{"id":107,"name":"Leanna","lat":28.6517195,"lon":-100.5577685,"puntuation":2.7,"address":"Suite 44"},
{"id":108,"name":"Tracey","lat":45.054535,"lon":15.8966615,"puntuation":2.8,"address":"Room 73"},
{"id":109,"name":"Burk","lat":41.8401694,"lon":-8.8183159,"puntuation":1.7,"address":"Apt 1589"},
{"id":110,"name":"Jocelin","lat":-10.1678413,"lon":123.574902,"puntuation":2.7,"address":"Apt 112"},
{"id":111,"name":"Reine","lat":-26.4070347,"lon":-61.4128561,"puntuation":4.3,"address":"Room 1120"},
{"id":112,"name":"Hollie","lat":61.4559668,"lon":23.7382315,"puntuation":2.7,"address":"Suite 26"},
{"id":113,"name":"Evangeline","lat":49.854154,"lon":37.6740168,"puntuation":3.4,"address":"PO Box 82299"},
{"id":114,"name":"Garrick","lat":40.9192881,"lon":-8.4188235,"puntuation":3.7,"address":"Suite 40"},
{"id":115,"name":"Ethelin","lat":29.5530941,"lon":118.9353968,"puntuation":3.5,"address":"Apt 1174"},
{"id":116,"name":"Annabal","lat":23.377789,"lon":116.508701,"puntuation":4.0,"address":"12th Floor"},
{"id":117,"name":"Welby","lat":29.0300404,"lon":111.7227409,"puntuation":4.5,"address":"Suite 24"},
{"id":118,"name":"Anna-maria","lat":13.5924758,"lon":100.1031202,"puntuation":4.2,"address":"Room 516"},
{"id":119,"name":"Langsdon","lat":28.15041,"lon":115.667833,"puntuation":2.1,"address":"Room 1677"},
{"id":120,"name":"Nelie","lat":34.0536548,"lon":136.2016809,"puntuation":3.1,"address":"Room 274"},
{"id":121,"name":"Elton","lat":49.8151822,"lon":19.3771749,"puntuation":4.4,"address":"Apt 648"},
{"id":122,"name":"Francine","lat":28.454862,"lon":117.943433,"puntuation":3.9,"address":"Apt 77"},
{"id":123,"name":"Darcee","lat":27.395894,"lon":114.286422,"puntuation":2.6,"address":"10th Floor"},
{"id":124,"name":"Claire","lat":-22.3734081,"lon":-48.3860575,"puntuation":4.1,"address":"Suite 81"},
{"id":125,"name":"Kesley","lat":51.38494,"lon":30.19978,"puntuation":3.7,"address":"Apt 607"},
{"id":126,"name":"Ailina","lat":8.3375063,"lon":-82.5510469,"puntuation":1.7,"address":"PO Box 88042"},
{"id":127,"name":"Alard","lat":23.841237,"lon":110.47479,"puntuation":4.2,"address":"PO Box 82079"},
{"id":128,"name":"Lincoln","lat":34.1596834,"lon":72.2333024,"puntuation":1.5,"address":"20th Floor"},
{"id":129,"name":"Ninnette","lat":51.86318,"lon":79.470665,"puntuation":3.6,"address":"14th Floor"},
{"id":130,"name":"Bryan","lat":47.216667,"lon":-67.916667,"puntuation":3.1,"address":"Room 72"},
{"id":131,"name":"Debora","lat":-13.24679,"lon":-75.534477,"puntuation":3.0,"address":"Room 994"},
{"id":132,"name":"Kimberly","lat":34.5824996,"lon":-2.5098914,"puntuation":1.0,"address":"Suite 15"},
{"id":133,"name":"Desmund","lat":51.5418755,"lon":19.9724913,"puntuation":1.3,"address":"Room 1549"},
{"id":134,"name":"Gene","lat":33.8779023,"lon":9.745565,"puntuation":1.4,"address":"Suite 21"},
{"id":135,"name":"Anastasie","lat":28.260141,"lon":112.571923,"puntuation":2.5,"address":"Apt 1026"},
{"id":136,"name":"Georgena","lat":34.208655,"lon":107.788999,"puntuation":1.3,"address":"Apt 843"},
{"id":137,"name":"Marsiella","lat":25.991991,"lon":119.368971,"puntuation":2.9,"address":"Apt 1620"},
{"id":138,"name":"Bel","lat":-2.9997434,"lon":104.8162784,"puntuation":4.6,"address":"2nd Floor"},
{"id":139,"name":"Emilee","lat":-23.7834562,"lon":-53.0762805,"puntuation":1.4,"address":"PO Box 17697"},
{"id":140,"name":"Gard","lat":45.6243985,"lon":-62.002631,"puntuation":2.6,"address":"5th Floor"},
{"id":141,"name":"Emlyn","lat":30.2638032,"lon":102.8054753,"puntuation":1.8,"address":"11th Floor"},
{"id":142,"name":"Courtenay","lat":47.9403226,"lon":35.4328125,"puntuation":3.4,"address":"Suite 84"},
{"id":143,"name":"Eli","lat":10.664587,"lon":106.1816196,"puntuation":3.3,"address":"Apt 1431"},
{"id":144,"name":"Julianna","lat":-6.854923,"lon":107.595305,"puntuation":1.6,"address":"Apt 502"},
{"id":145,"name":"Dani","lat":59.3216049,"lon":14.5216278,"puntuation":3.0,"address":"Apt 1451"},
{"id":146,"name":"Yolanthe","lat":44.0527811,"lon":6.1717148,"puntuation":4.8,"address":"PO Box 9525"},
{"id":147,"name":"Griffith","lat":35.649152,"lon":138.5884549,"puntuation":2.5,"address":"PO Box 31069"},
{"id":148,"name":"Mendel","lat":25.80914,"lon":110.011686,"puntuation":2.8,"address":"Apt 458"},
{"id":149,"name":"Napoleon","lat":-11.8256582,"lon":43.4536443,"puntuation":1.5,"address":"Apt 1138"},
{"id":150,"name":"Sheffie","lat":-8.1264039,"lon":111.7018452,"puntuation":4.0,"address":"Apt 1087"},
{"id":151,"name":"Blancha","lat":-7.150975,"lon":110.1402594,"puntuation":4.5,"address":"Suite 72"},
{"id":152,"name":"Georgeanna","lat":13.3678344,"lon":123.3081877,"puntuation":1.5,"address":"6th Floor"},
{"id":153,"name":"Yanaton","lat":8.7461253,"lon":-72.5263984,"puntuation":1.3,"address":"16th Floor"},
{"id":154,"name":"Elvyn","lat":50.483611,"lon":13.357778,"puntuation":1.5,"address":"Suite 14"},
{"id":155,"name":"Konstantin","lat":24.541563,"lon":104.964912,"puntuation":1.9,"address":"Room 585"},
{"id":156,"name":"Doti","lat":14.5609722,"lon":121.0224008,"puntuation":3.7,"address":"Suite 88"},
{"id":157,"name":"Collette","lat":36.3034445,"lon":139.8755526,"puntuation":3.0,"address":"PO Box 70497"},
{"id":158,"name":"Chalmers","lat":14.5352162,"lon":-90.8862218,"puntuation":3.5,"address":"Suite 43"},
{"id":159,"name":"Marjorie","lat":-34.6821989,"lon":-58.3298681,"puntuation":2.8,"address":"Room 231"},
{"id":160,"name":"Svend","lat":-8.4824984,"lon":118.9586867,"puntuation":2.6,"address":"PO Box 16299"},
{"id":161,"name":"Fenelia","lat":16.1344075,"lon":102.2090224,"puntuation":3.2,"address":"13th Floor"},
{"id":162,"name":"Adrien","lat":41.746429,"lon":22.199654,"puntuation":2.1,"address":"PO Box 44896"},
{"id":163,"name":"Trudie","lat":22.581293,"lon":113.896129,"puntuation":1.6,"address":"Room 1461"},
{"id":164,"name":"Davin","lat":44.934021,"lon":-123.3072848,"puntuation":4.1,"address":"Suite 34"},
{"id":165,"name":"Walton","lat":15.0312765,"lon":-88.6458421,"puntuation":4.5,"address":"Apt 1287"},
{"id":166,"name":"Rosy","lat":58.7472646,"lon":17.0266546,"puntuation":3.4,"address":"Apt 320"},
{"id":167,"name":"Mufi","lat":46.176012,"lon":129.425798,"puntuation":1.4,"address":"Suite 25"},
{"id":168,"name":"Seymour","lat":-46.5996116,"lon":168.3457088,"puntuation":2.2,"address":"Room 890"},
{"id":169,"name":"Tallou","lat":-7.0215218,"lon":112.4798088,"puntuation":2.8,"address":"PO Box 75079"},
{"id":170,"name":"Ada","lat":48.3940341,"lon":28.4034797,"puntuation":2.4,"address":"Apt 611"},
{"id":171,"name":"Dari","lat":-6.9100633,"lon":107.7147697,"puntuation":4.5,"address":"Suite 93"},
{"id":172,"name":"Gilbert","lat":5.3262083,"lon":-4.3667907,"puntuation":4.2,"address":"Room 1852"},
{"id":173,"name":"Tate","lat":7.8870586,"lon":98.3854869,"puntuation":1.2,"address":"PO Box 65000"},
{"id":174,"name":"Brittne","lat":35.288456,"lon":115.098698,"puntuation":2.3,"address":"PO Box 90318"},
{"id":175,"name":"Ursula","lat":-3.7368149,"lon":119.5803605,"puntuation":4.5,"address":"Suite 100"},
{"id":176,"name":"Pepita","lat":11.4696902,"lon":106.6527099,"puntuation":1.9,"address":"Suite 15"},
{"id":177,"name":"Liana","lat":40.02575,"lon":124.2869167,"puntuation":2.6,"address":"PO Box 69452"},
{"id":178,"name":"Veronika","lat":-7.3276166,"lon":112.7137227,"puntuation":2.7,"address":"Room 1818"},
{"id":179,"name":"Piotr","lat":43.193399,"lon":128.7887591,"puntuation":1.7,"address":"6th Floor"},
{"id":180,"name":"Valeda","lat":46.0457437,"lon":14.8410058,"puntuation":2.5,"address":"1st Floor"},
{"id":181,"name":"Sigismundo","lat":60.4563994,"lon":50.9907161,"puntuation":1.4,"address":"Apt 1581"},
{"id":182,"name":"Bogey","lat":-14.2329823,"lon":-39.8579118,"puntuation":4.1,"address":"PO Box 51937"},
{"id":183,"name":"Wit","lat":40.9557367,"lon":-8.5885858,"puntuation":3.9,"address":"Suite 70"},
{"id":184,"name":"Lou","lat":10.2933091,"lon":22.7822485,"puntuation":2.2,"address":"PO Box 99243"},
{"id":185,"name":"Marcelle","lat":35.15,"lon":-90.05,"puntuation":3.6,"address":"Suite 90"},
{"id":186,"name":"Dorey","lat":30.1755285,"lon":121.3325306,"puntuation":1.2,"address":"PO Box 56263"},
{"id":187,"name":"Eolanda","lat":-7.6247732,"lon":110.2951364,"puntuation":3.6,"address":"Suite 79"},
{"id":188,"name":"Fenelia","lat":-33.5482466,"lon":-71.6045745,"puntuation":1.6,"address":"Suite 82"},
{"id":189,"name":"Hall","lat":19.6267726,"lon":-99.2993504,"puntuation":4.7,"address":"PO Box 25115"},
{"id":190,"name":"Sheela","lat":38.7107263,"lon":-9.3975414,"puntuation":2.6,"address":"Room 1790"},
{"id":191,"name":"Nelia","lat":6.0122865,"lon":7.0175879,"puntuation":3.9,"address":"Apt 1325"},
{"id":192,"name":"Alonzo","lat":31.50911,"lon":34.94938,"puntuation":4.8,"address":"2nd Floor"},
{"id":193,"name":"Patrizius","lat":-8.2104974,"lon":114.9671388,"puntuation":3.8,"address":"Suite 63"},
{"id":194,"name":"Royal","lat":-27.604634,"lon":-50.3069088,"puntuation":4.2,"address":"Suite 42"},
{"id":195,"name":"Isaac","lat":29.815139,"lon":121.300551,"puntuation":3.5,"address":"Suite 12"},
{"id":196,"name":"Ferdie","lat":10.2214803,"lon":-71.3111773,"puntuation":4.0,"address":"14th Floor"},
{"id":197,"name":"Joline","lat":-7.0407255,"lon":107.0893798,"puntuation":1.6,"address":"Suite 48"},
{"id":198,"name":"Demetre","lat":10.6936663,"lon":122.5655726,"puntuation":4.8,"address":"Room 1525"},
{"id":199,"name":"Trstram","lat":57.6959194,"lon":11.8724097,"puntuation":3.7,"address":"Apt 1361"},
{"id":200,"name":"Moll","lat":-7.6832323,"lon":110.670528,"puntuation":2.4,"address":"Suite 31"},
{"id":201,"name":"Schuyler","lat":41.7669671,"lon":129.723402,"puntuation":4.1,"address":"Suite 42"},
{"id":202,"name":"Andree","lat":13.4960361,"lon":-88.5299428,"puntuation":4.9,"address":"1st Floor"},
{"id":203,"name":"Sayers","lat":10.2166111,"lon":-83.7819816,"puntuation":2.2,"address":"Room 752"},
{"id":204,"name":"Thaxter","lat":51.46681,"lon":-109.16818,"puntuation":1.0,"address":"PO Box 56479"},
{"id":205,"name":"Louisa","lat":60.2527141,"lon":16.7904143,"puntuation":2.4,"address":"PO Box 92586"},
{"id":206,"name":"Kip","lat":37.9984095,"lon":140.6381624,"puntuation":2.4,"address":"Suite 95"},
{"id":207,"name":"Cecilio","lat":13.1277417,"lon":122.9790773,"puntuation":2.9,"address":"9th Floor"},
{"id":208,"name":"Rupert","lat":-12.0971829,"lon":-77.032585,"puntuation":4.3,"address":"Apt 1196"},
{"id":209,"name":"Dosi","lat":27.993828,"lon":120.699361,"puntuation":3.2,"address":"Apt 1859"},
{"id":210,"name":"Margaret","lat":22.9861757,"lon":-82.4102628,"puntuation":2.9,"address":"Apt 1280"},
{"id":211,"name":"Roz","lat":-28.7653754,"lon":28.2468148,"puntuation":4.1,"address":"Room 1834"},
{"id":212,"name":"Michelle","lat":54.356424,"lon":41.9194126,"puntuation":2.3,"address":"Apt 900"},
{"id":213,"name":"Chas","lat":-17.3218249,"lon":-39.2360718,"puntuation":2.3,"address":"Room 451"},
{"id":214,"name":"Alaine","lat":6.3833462,"lon":-75.5858886,"puntuation":4.0,"address":"1st Floor"},
{"id":215,"name":"Dino","lat":10.4141663,"lon":8.6903172,"puntuation":3.3,"address":"PO Box 52785"},
{"id":216,"name":"Malissa","lat":-20.5180739,"lon":57.5263859,"puntuation":2.9,"address":"Room 1606"},
{"id":217,"name":"Shell","lat":59.397367,"lon":16.4816867,"puntuation":1.9,"address":"Room 1393"},
{"id":218,"name":"Aldwin","lat":32.5777123,"lon":59.7977761,"puntuation":3.9,"address":"PO Box 76687"},
{"id":219,"name":"Randie","lat":-6.6760058,"lon":111.0102737,"puntuation":3.1,"address":"Apt 960"},
{"id":220,"name":"Emilio","lat":51.2717148,"lon":18.5618708,"puntuation":4.2,"address":"Apt 1273"},
{"id":221,"name":"Shelli","lat":40.1336715,"lon":44.6507762,"puntuation":2.2,"address":"Room 1067"},
{"id":222,"name":"Dasya","lat":24.960385,"lon":118.386279,"puntuation":4.6,"address":"Suite 78"},
{"id":223,"name":"Genni","lat":38.214135,"lon":114.877945,"puntuation":4.8,"address":"Room 331"},
{"id":224,"name":"Jedidiah","lat":34.9128121,"lon":-116.6492954,"puntuation":4.9,"address":"PO Box 46274"},
{"id":225,"name":"Erika","lat":-7.1861216,"lon":108.4424414,"puntuation":3.9,"address":"Suite 75"},
{"id":226,"name":"Aimil","lat":34.5594987,"lon":112.4678779,"puntuation":2.5,"address":"PO Box 40708"},
{"id":227,"name":"Alanah","lat":50.1922582,"lon":12.6257516,"puntuation":3.7,"address":"11th Floor"},
{"id":228,"name":"Lian","lat":26.242301,"lon":105.943312,"puntuation":1.4,"address":"20th Floor"},
{"id":229,"name":"Mayne","lat":46.3789875,"lon":14.0683139,"puntuation":1.9,"address":"PO Box 37313"},
{"id":230,"name":"Marcelle","lat":29.476705,"lon":121.869339,"puntuation":4.2,"address":"1st Floor"},
{"id":231,"name":"Hugo","lat":40.9303746,"lon":-8.4777484,"puntuation":5.0,"address":"Suite 6"},
{"id":232,"name":"Lynne","lat":54.4555308,"lon":83.3748613,"puntuation":1.8,"address":"Room 1811"},
{"id":233,"name":"Gayle","lat":39.6920939,"lon":-8.4272356,"puntuation":1.8,"address":"PO Box 60904"},
{"id":234,"name":"Dal","lat":35.818632,"lon":111.285799,"puntuation":2.9,"address":"Apt 1153"},
{"id":235,"name":"Gabe","lat":52.9779583,"lon":49.4270742,"puntuation":1.6,"address":"Room 1408"},
{"id":236,"name":"Janetta","lat":45.8899146,"lon":13.6263627,"puntuation":2.9,"address":"Apt 1118"},
{"id":237,"name":"Nettle","lat":-8.0716019,"lon":112.1758089,"puntuation":4.9,"address":"Apt 84"},
{"id":238,"name":"Roobbie","lat":50.0549693,"lon":6.0239884,"puntuation":3.1,"address":"Room 52"},
{"id":239,"name":"Hendrika","lat":48.6632704,"lon":33.0967875,"puntuation":2.2,"address":"Suite 59"},
{"id":240,"name":"Lizette","lat":10.890811,"lon":124.457075,"puntuation":1.4,"address":"Room 1807"},
{"id":241,"name":"Elka","lat":23.106401,"lon":113.459749,"puntuation":2.6,"address":"PO Box 77723"},
{"id":242,"name":"Bridget","lat":46.73336,"lon":-72.56581,"puntuation":1.1,"address":"Suite 93"},
{"id":243,"name":"Analiese","lat":-3.6499007,"lon":-69.097023,"puntuation":3.0,"address":"Suite 93"},
{"id":244,"name":"Demott","lat":14.0246473,"lon":-0.0233208,"puntuation":1.6,"address":"Apt 1512"},
{"id":245,"name":"Carlota","lat":41.1,"lon":23.633333,"puntuation":3.2,"address":"2nd Floor"},
{"id":246,"name":"Udale","lat":27.872028,"lon":112.969479,"puntuation":3.8,"address":"Room 159"},
{"id":247,"name":"Anni","lat":13.81425,"lon":-16.4405872,"puntuation":1.1,"address":"Room 125"},
{"id":248,"name":"Odella","lat":-7.1765737,"lon":111.3828738,"puntuation":3.1,"address":"18th Floor"},
{"id":249,"name":"Fionnula","lat":42.6503176,"lon":77.0852258,"puntuation":1.5,"address":"1st Floor"},
{"id":250,"name":"Shirl","lat":12.5951892,"lon":6.5863469,"puntuation":4.8,"address":"13th Floor"},
{"id":251,"name":"Sophie","lat":8.27533,"lon":-73.868176,"puntuation":4.1,"address":"PO Box 8494"},
{"id":252,"name":"Lindy","lat":-5.7,"lon":-75.983333,"puntuation":1.6,"address":"Apt 145"},
{"id":253,"name":"Thornton","lat":32.795859,"lon":35.530973,"puntuation":3.7,"address":"PO Box 12346"},
{"id":254,"name":"Prisca","lat":27.141681,"lon":105.613174,"puntuation":2.7,"address":"Apt 276"},
{"id":255,"name":"Jessie","lat":-6.6780425,"lon":106.9172768,"puntuation":4.4,"address":"PO Box 64966"},
{"id":256,"name":"Anatollo","lat":32.2865221,"lon":71.5558263,"puntuation":2.5,"address":"Suite 17"},
{"id":257,"name":"Kore","lat":52.5433958,"lon":13.4413606,"puntuation":4.6,"address":"Suite 95"},
{"id":258,"name":"Mufi","lat":52.2248754,"lon":36.1135722,"puntuation":2.2,"address":"Room 943"},
{"id":259,"name":"Raddie","lat":-30.2932904,"lon":28.7693554,"puntuation":2.2,"address":"Suite 54"},
{"id":260,"name":"Ingar","lat":43.1790617,"lon":-86.1853474,"puntuation":2.5,"address":"Suite 46"},
{"id":261,"name":"Carley","lat":27.9424688,"lon":48.6614478,"puntuation":2.7,"address":"Suite 45"},
{"id":262,"name":"Magnum","lat":33.892817,"lon":105.373163,"puntuation":1.1,"address":"Room 309"},
{"id":263,"name":"Jaimie","lat":-6.1583904,"lon":106.4288088,"puntuation":3.5,"address":"Room 1508"},
{"id":264,"name":"Georgie","lat":34.5000218,"lon":135.6006995,"puntuation":4.9,"address":"PO Box 21409"},
{"id":265,"name":"Englebert","lat":-7.8003628,"lon":110.0181673,"puntuation":4.6,"address":"PO Box 52287"},
{"id":266,"name":"Shalne","lat":36.1899557,"lon":117.1168644,"puntuation":2.6,"address":"Apt 228"},
{"id":267,"name":"Perri","lat":48.5202109,"lon":3.6973504,"puntuation":1.1,"address":"Suite 4"},
{"id":268,"name":"Adaline","lat":22.0897108,"lon":-78.6228504,"puntuation":4.4,"address":"Suite 27"},
{"id":269,"name":"Hernando","lat":14.8827263,"lon":120.5201733,"puntuation":1.1,"address":"2nd Floor"},
{"id":270,"name":"Lidia","lat":27.756339,"lon":112.555087,"puntuation":3.0,"address":"Room 1375"},
{"id":271,"name":"Mathew","lat":40.8005366,"lon":72.1593842,"puntuation":1.2,"address":"15th Floor"},
{"id":272,"name":"Flemming","lat":45.437603,"lon":121.094913,"puntuation":3.7,"address":"Room 291"},
{"id":273,"name":"Killian","lat":47.23123,"lon":98.5714,"puntuation":3.7,"address":"2nd Floor"},
{"id":274,"name":"Johannes","lat":41.3537964,"lon":-8.540112,"puntuation":5.0,"address":"Apt 854"},
{"id":275,"name":"Ana","lat":51.341478,"lon":34.6310084,"puntuation":2.4,"address":"1st Floor"},
{"id":276,"name":"Madalena","lat":47.49714,"lon":96.80311,"puntuation":4.6,"address":"Room 339"},
{"id":277,"name":"Zacharie","lat":44.7891553,"lon":38.8019542,"puntuation":2.8,"address":"Apt 1233"},
{"id":278,"name":"Fleurette","lat":63.917408,"lon":38.1141079,"puntuation":4.9,"address":"Suite 100"},
{"id":279,"name":"Kenyon","lat":-20.5501168,"lon":46.8010727,"puntuation":3.3,"address":"Room 89"},
{"id":280,"name":"Anetta","lat":28.214419,"lon":121.293705,"puntuation":4.8,"address":"Room 523"},
{"id":281,"name":"Marin","lat":41.1872522,"lon":-8.434873,"puntuation":3.6,"address":"1st Floor"},
{"id":282,"name":"Conn","lat":39.46662,"lon":112.094594,"puntuation":3.3,"address":"PO Box 77304"},
{"id":283,"name":"Maud","lat":-12.8490559,"lon":45.1394745,"puntuation":4.1,"address":"4th Floor"},
{"id":284,"name":"Gertrude","lat":0.3268809,"lon":-79.4647633,"puntuation":4.1,"address":"PO Box 38523"},
{"id":285,"name":"Ranna","lat":32.5741487,"lon":73.8854331,"puntuation":3.5,"address":"12th Floor"},
{"id":286,"name":"Mohandas","lat":-2.3062241,"lon":-78.1153707,"puntuation":1.3,"address":"PO Box 93112"},
{"id":287,"name":"Tally","lat":49.6498731,"lon":17.3224082,"puntuation":1.0,"address":"Suite 23"},
{"id":288,"name":"Cookie","lat":47.6668709,"lon":38.076284,"puntuation":1.4,"address":"Apt 352"},
{"id":289,"name":"Frannie","lat":51.84045,"lon":39.94134,"puntuation":1.0,"address":"PO Box 25388"},
{"id":290,"name":"Mirella","lat":40.9357866,"lon":20.2899237,"puntuation":1.2,"address":"Apt 1955"},
{"id":291,"name":"Kimmie","lat":-7.2536471,"lon":107.8954131,"puntuation":4.6,"address":"Suite 59"},
{"id":292,"name":"Nelia","lat":42.08336,"lon":21.05994,"puntuation":4.6,"address":"18th Floor"},
{"id":293,"name":"Orv","lat":-38.25,"lon":-72.6833,"puntuation":3.8,"address":"Suite 51"},
{"id":294,"name":"Bale","lat":-2.5503853,"lon":-44.070196,"puntuation":3.9,"address":"14th Floor"},
{"id":295,"name":"Carmina","lat":41.4495777,"lon":-8.3894249,"puntuation":4.2,"address":"Apt 974"},
{"id":296,"name":"Ddene","lat":-4.232717,"lon":104.5247463,"puntuation":2.1,"address":"9th Floor"},
{"id":297,"name":"Corbin","lat":14.41747,"lon":101.863168,"puntuation":3.3,"address":"4th Floor"},
{"id":298,"name":"Mallorie","lat":23.105394,"lon":113.874335,"puntuation":1.1,"address":"Room 778"},
{"id":299,"name":"Imogen","lat":43.1697579,"lon":45.3686414,"puntuation":1.5,"address":"Suite 89"},
{"id":300,"name":"Bertha","lat":43.4945737,"lon":5.8978018,"puntuation":4.9,"address":"17th Floor"},
{"id":301,"name":"Linnell","lat":-8.371078,"lon":-77.32901,"puntuation":4.9,"address":"PO Box 34242"},
{"id":302,"name":"Danielle","lat":-7.0837462,"lon":107.6540877,"puntuation":1.2,"address":"Room 149"},
{"id":303,"name":"Dell","lat":36.973912,"lon":121.793839,"puntuation":1.6,"address":"Apt 850"},
{"id":304,"name":"Mozes","lat":31.068932,"lon":121.397142,"puntuation":1.4,"address":"Suite 86"},
{"id":305,"name":"Blondell","lat":32.751027,"lon":36.301039,"puntuation":4.5,"address":"PO Box 82079"},
{"id":306,"name":"Anna-maria","lat":29.5320522,"lon":35.0063209,"puntuation":3.8,"address":"PO Box 84886"},
{"id":307,"name":"Domini","lat":14.0206423,"lon":123.2983232,"puntuation":1.8,"address":"PO Box 67034"},
{"id":308,"name":"Hilton","lat":18.6794938,"lon":-71.940875,"puntuation":4.4,"address":"PO Box 47200"},
{"id":309,"name":"Bronny","lat":41.4112348,"lon":-7.9526065,"puntuation":4.0,"address":"7th Floor"},
{"id":310,"name":"Gerladina","lat":23.5958633,"lon":120.2858846,"puntuation":1.2,"address":"4th Floor"},
{"id":311,"name":"Ema","lat":42.71068,"lon":26.9786398,"puntuation":1.2,"address":"Room 1991"},
{"id":312,"name":"Denni","lat":51.5775677,"lon":16.4684556,"puntuation":1.4,"address":"PO Box 71007"},
{"id":313,"name":"Jilli","lat":41.1572852,"lon":-8.434873,"puntuation":4.2,"address":"19th Floor"},
{"id":314,"name":"Leodora","lat":27.088049,"lon":119.647769,"puntuation":1.8,"address":"PO Box 38805"},
{"id":315,"name":"Ethyl","lat":31.259822,"lon":121.525727,"puntuation":3.1,"address":"Room 130"},
{"id":316,"name":"Britt","lat":23.365556,"lon":116.70345,"puntuation":4.3,"address":"Room 170"},
{"id":317,"name":"Beverlee","lat":-6.9627021,"lon":111.305369,"puntuation":4.6,"address":"Suite 55"},
{"id":318,"name":"Ciro","lat":-7.8136774,"lon":110.6794676,"puntuation":4.9,"address":"6th Floor"},
{"id":319,"name":"Cher","lat":57.1739369,"lon":24.7091049,"puntuation":1.6,"address":"1st Floor"},
{"id":320,"name":"Dalli","lat":-6.8332046,"lon":108.4068343,"puntuation":1.3,"address":"17th Floor"},
{"id":321,"name":"Toma","lat":46.2646441,"lon":20.1120379,"puntuation":3.4,"address":"Suite 85"},
{"id":322,"name":"Winni","lat":6.3182464,"lon":-3.9549641,"puntuation":4.6,"address":"17th Floor"},
{"id":323,"name":"Georgianne","lat":31.385848,"lon":94.427663,"puntuation":2.5,"address":"Room 664"},
{"id":324,"name":"Barney","lat":10.142762,"lon":-85.454983,"puntuation":1.7,"address":"Room 836"},
{"id":325,"name":"Jaquelin","lat":34.0181246,"lon":-5.0078451,"puntuation":3.7,"address":"6th Floor"},
{"id":326,"name":"Ericha","lat":17.292049,"lon":96.5756695,"puntuation":1.7,"address":"1st Floor"},
{"id":327,"name":"Ingunna","lat":44.3204868,"lon":40.6203439,"puntuation":2.6,"address":"Apt 107"},
{"id":328,"name":"Barnard","lat":14.5713307,"lon":121.0273302,"puntuation":3.3,"address":"Apt 1107"},
{"id":329,"name":"Rudd","lat":18.4849304,"lon":-69.8887766,"puntuation":2.0,"address":"11th Floor"},
{"id":330,"name":"Yasmin","lat":3.5144204,"lon":11.5077573,"puntuation":1.4,"address":"Apt 1672"},
{"id":331,"name":"Marcus","lat":30.406007,"lon":110.971573,"puntuation":2.0,"address":"Suite 58"},
{"id":332,"name":"Bennett","lat":13.8263447,"lon":-89.270477,"puntuation":1.9,"address":"Suite 94"},
{"id":333,"name":"Cob","lat":52.8436256,"lon":32.6840185,"puntuation":1.4,"address":"Apt 1121"},
{"id":334,"name":"Cosme","lat":-34.6250746,"lon":-58.4879365,"puntuation":4.8,"address":"18th Floor"},
{"id":335,"name":"Dulcia","lat":-10.7072554,"lon":22.22946,"puntuation":1.9,"address":"3rd Floor"},
{"id":336,"name":"Eba","lat":31.8123014,"lon":34.7770192,"puntuation":4.3,"address":"Apt 1064"},
{"id":337,"name":"Syman","lat":-24.5323166,"lon":32.9831998,"puntuation":1.2,"address":"Suite 65"},
{"id":338,"name":"Isabeau","lat":46.9,"lon":97.15,"puntuation":2.6,"address":"Room 603"},
{"id":339,"name":"Babette","lat":-26.3902488,"lon":-70.0475302,"puntuation":3.7,"address":"15th Floor"},
{"id":340,"name":"Tobiah","lat":11.9891869,"lon":106.7942405,"puntuation":5.0,"address":"PO Box 96193"},
{"id":341,"name":"Silvio","lat":50.49976,"lon":-120.80253,"puntuation":2.3,"address":"Apt 634"},
{"id":342,"name":"Marget","lat":-6.21956,"lon":106.92596,"puntuation":1.9,"address":"Suite 9"},
{"id":343,"name":"Vicky","lat":50.111779,"lon":18.7966419,"puntuation":4.5,"address":"15th Floor"},
{"id":344,"name":"Coretta","lat":33.253142,"lon":112.64751,"puntuation":2.3,"address":"PO Box 65654"},
{"id":345,"name":"Lucita","lat":2.965147,"lon":99.0626377,"puntuation":3.8,"address":"PO Box 22365"},
{"id":346,"name":"Eddie","lat":55.632969,"lon":37.4416961,"puntuation":3.6,"address":"Suite 33"},
{"id":347,"name":"Ethelbert","lat":8.7600869,"lon":-79.8576828,"puntuation":1.0,"address":"Apt 1035"},
{"id":348,"name":"Eydie","lat":16.8759704,"lon":120.8934263,"puntuation":1.4,"address":"16th Floor"},
{"id":349,"name":"Anderson","lat":37.520481,"lon":115.251124,"puntuation":2.5,"address":"PO Box 96576"},
{"id":350,"name":"Shae","lat":32.990664,"lon":112.528308,"puntuation":5.0,"address":"Room 690"},
{"id":351,"name":"Camel","lat":22.198745,"lon":113.543873,"puntuation":2.0,"address":"Apt 1594"},
{"id":352,"name":"Carlee","lat":-11.4077673,"lon":-69.4887886,"puntuation":2.4,"address":"PO Box 39256"},
{"id":353,"name":"Wait","lat":21.2811908,"lon":-89.6651628,"puntuation":5.0,"address":"16th Floor"},
{"id":354,"name":"Brook","lat":35.23375,"lon":115.480656,"puntuation":2.2,"address":"Room 278"},
{"id":355,"name":"Aaron","lat":32.890479,"lon":115.814504,"puntuation":2.6,"address":"PO Box 45046"},
{"id":356,"name":"Letty","lat":22.521523,"lon":114.055023,"puntuation":4.9,"address":"PO Box 62759"},
{"id":357,"name":"Cybil","lat":49.508379,"lon":19.9809619,"puntuation":3.2,"address":"PO Box 41792"},
{"id":358,"name":"Salomone","lat":29.322952,"lon":109.998621,"puntuation":3.3,"address":"PO Box 71405"},
{"id":359,"name":"Galen","lat":31.6903638,"lon":-106.4245478,"puntuation":3.4,"address":"7th Floor"},
{"id":360,"name":"Katinka","lat":20.36667,"lon":-75.01667,"puntuation":4.6,"address":"Suite 56"},
{"id":361,"name":"Barbara-anne","lat":36.307064,"lon":120.39631,"puntuation":4.2,"address":"Suite 70"},
{"id":362,"name":"Luella","lat":62.0893368,"lon":28.9160917,"puntuation":4.3,"address":"Room 648"},
{"id":363,"name":"Cecilia","lat":51.209018,"lon":24.6980251,"puntuation":3.2,"address":"Suite 91"},
{"id":364,"name":"Pancho","lat":-6.3235522,"lon":106.6948015,"puntuation":3.2,"address":"PO Box 60594"},
{"id":365,"name":"Clifford","lat":22.276022,"lon":114.1751471,"puntuation":1.2,"address":"Room 712"},
{"id":366,"name":"Nat","lat":21.857958,"lon":111.982232,"puntuation":4.0,"address":"PO Box 9116"},
{"id":367,"name":"Husein","lat":-6.4698493,"lon":107.5150139,"puntuation":2.0,"address":"Suite 76"},
{"id":368,"name":"Claribel","lat":1.2540403,"lon":42.5779182,"puntuation":2.6,"address":"10th Floor"},
{"id":369,"name":"Nickie","lat":-6.9262046,"lon":112.1474925,"puntuation":1.5,"address":"16th Floor"},
{"id":370,"name":"Dicky","lat":-6.7565445,"lon":106.7382072,"puntuation":1.3,"address":"PO Box 64484"},
{"id":371,"name":"Benedict","lat":40.02575,"lon":124.2869167,"puntuation":2.2,"address":"Room 1965"},
{"id":372,"name":"Kally","lat":55.8304171,"lon":49.1812984,"puntuation":3.2,"address":"Apt 1090"},
{"id":373,"name":"Hedi","lat":23.69589,"lon":113.645048,"puntuation":3.0,"address":"PO Box 5767"},
{"id":374,"name":"Trumann","lat":41.821778,"lon":124.048453,"puntuation":1.9,"address":"Apt 1165"},
{"id":375,"name":"Christy","lat":59.4527156,"lon":18.091186,"puntuation":1.7,"address":"Suite 81"},
{"id":376,"name":"Jeannine","lat":-34.6353335,"lon":-58.5941325,"puntuation":4.5,"address":"Apt 580"},
{"id":377,"name":"Maddie","lat":26.170171,"lon":118.190467,"puntuation":2.0,"address":"5th Floor"},
{"id":378,"name":"Galven","lat":8.047281,"lon":-69.3339418,"puntuation":3.4,"address":"16th Floor"},
{"id":379,"name":"Alfred","lat":-12.15024,"lon":-75.229111,"puntuation":3.4,"address":"Room 1273"},
{"id":380,"name":"Maryellen","lat":52.0130334,"lon":15.4233905,"puntuation":2.4,"address":"Apt 1548"},
{"id":381,"name":"Richard","lat":45.548669,"lon":126.958098,"puntuation":4.9,"address":"Suite 17"},
{"id":382,"name":"Stafford","lat":6.783333,"lon":-1.566667,"puntuation":2.9,"address":"Room 819"},
{"id":383,"name":"Kirbie","lat":51.8113447,"lon":-8.3929404,"puntuation":4.6,"address":"PO Box 95582"},
{"id":384,"name":"Ramsay","lat":5.9295558,"lon":-0.9725085,"puntuation":3.4,"address":"Suite 18"},
{"id":385,"name":"Viva","lat":-0.4960508,"lon":101.866362,"puntuation":3.4,"address":"13th Floor"},
{"id":386,"name":"Edgardo","lat":40.56762,"lon":65.67947,"puntuation":3.7,"address":"2nd Floor"},
{"id":387,"name":"Lorilyn","lat":-23.3549445,"lon":-47.8451996,"puntuation":1.9,"address":"Apt 90"},
{"id":388,"name":"Sibilla","lat":-9.9755,"lon":120.4083,"puntuation":1.2,"address":"Room 658"},
{"id":389,"name":"Ileane","lat":-14.91256,"lon":-69.874893,"puntuation":2.1,"address":"Room 1474"},
{"id":390,"name":"Sandy","lat":-45.3321502,"lon":168.7149323,"puntuation":3.4,"address":"Suite 93"},
{"id":391,"name":"Skyler","lat":31.455948,"lon":120.879101,"puntuation":5.0,"address":"Suite 5"},
{"id":392,"name":"Leonora","lat":44.16652,"lon":133.86495,"puntuation":2.4,"address":"Apt 1521"},
{"id":393,"name":"Else","lat":-27.5283814,"lon":-59.5741045,"puntuation":5.0,"address":"Suite 81"},
{"id":394,"name":"Brooke","lat":-14.34147,"lon":-71.46311,"puntuation":3.4,"address":"Room 182"},
{"id":395,"name":"Renae","lat":3.541868,"lon":98.729681,"puntuation":4.2,"address":"Suite 30"},
{"id":396,"name":"Sheila","lat":-6.990714,"lon":107.400299,"puntuation":2.0,"address":"PO Box 88102"},
{"id":397,"name":"Olav","lat":51.5671926,"lon":19.3967389,"puntuation":1.4,"address":"Suite 2"},
{"id":398,"name":"Celisse","lat":31.2652893,"lon":32.3018661,"puntuation":3.7,"address":"Suite 66"},
{"id":399,"name":"Alanah","lat":12.734087,"lon":-86.1217424,"puntuation":1.5,"address":"PO Box 57842"},
{"id":400,"name":"Winonah","lat":16.6053508,"lon":-15.348246,"puntuation":4.4,"address":"Room 193"},
{"id":401,"name":"Daniele","lat":-8.128563,"lon":112.6943559,"puntuation":3.7,"address":"11th Floor"},
{"id":402,"name":"Adler","lat":15.0319912,"lon":-91.7358506,"puntuation":3.8,"address":"PO Box 26517"},
{"id":403,"name":"Hallsy","lat":-7.643739,"lon":110.284601,"puntuation":1.9,"address":"Room 1389"},
{"id":404,"name":"Julianna","lat":39.4546797,"lon":-8.398033,"puntuation":3.6,"address":"Apt 1699"},
{"id":405,"name":"Gard","lat":50.1143147,"lon":20.2689645,"puntuation":4.3,"address":"16th Floor"},
{"id":406,"name":"Jere","lat":25.403263,"lon":104.828238,"puntuation":1.8,"address":"3rd Floor"},
{"id":407,"name":"Tabor","lat":46.9063815,"lon":102.7636515,"puntuation":1.5,"address":"Apt 713"},
{"id":408,"name":"Rodolphe","lat":14.7793575,"lon":121.0489884,"puntuation":3.0,"address":"Room 1009"},
{"id":409,"name":"Edin","lat":7.20312,"lon":124.796217,"puntuation":4.7,"address":"Suite 69"},
{"id":410,"name":"Darrin","lat":39.8651684,"lon":-8.857121,"puntuation":3.1,"address":"Room 364"},
{"id":411,"name":"Becky","lat":43.3911349,"lon":42.9174509,"puntuation":1.5,"address":"Room 1534"},
{"id":412,"name":"Gregorio","lat":23.090823,"lon":113.74595,"puntuation":3.5,"address":"Room 493"},
{"id":413,"name":"Conn","lat":29.8867778,"lon":-95.549054,"puntuation":4.9,"address":"Suite 33"},
{"id":414,"name":"Amelita","lat":22.1623468,"lon":105.6002024,"puntuation":1.2,"address":"PO Box 15426"},
{"id":415,"name":"Catrina","lat":55.0764307,"lon":98.8426483,"puntuation":2.1,"address":"PO Box 5859"},
{"id":416,"name":"Jeramie","lat":-7.7519029,"lon":110.7077766,"puntuation":1.2,"address":"Suite 66"},
{"id":417,"name":"Myrah","lat":38.7865307,"lon":-9.3643528,"puntuation":1.2,"address":"Room 1637"},
{"id":418,"name":"Mychal","lat":-6.8057733,"lon":107.5609228,"puntuation":3.1,"address":"Suite 10"},
{"id":419,"name":"Luciana","lat":53.2482376,"lon":-6.5924609,"puntuation":4.9,"address":"PO Box 82953"},
{"id":420,"name":"Simone","lat":34.3507417,"lon":135.6964987,"puntuation":3.1,"address":"PO Box 72456"},
{"id":421,"name":"Marin","lat":-6.2741889,"lon":106.7020556,"puntuation":2.8,"address":"Apt 488"},
{"id":422,"name":"Angel","lat":22.517585,"lon":113.39277,"puntuation":2.0,"address":"Suite 81"},
{"id":423,"name":"Noelle","lat":10.668154,"lon":125.042795,"puntuation":4.7,"address":"Apt 1842"},
{"id":424,"name":"Jonathan","lat":14.5042512,"lon":101.948349,"puntuation":3.4,"address":"Room 450"},
{"id":425,"name":"Delly","lat":38.92,"lon":-76.99,"puntuation":3.5,"address":"Room 61"},
{"id":426,"name":"Vicky","lat":32.7074464,"lon":108.9391253,"puntuation":3.9,"address":"PO Box 74456"},
{"id":427,"name":"Rennie","lat":-12.8454679,"lon":-40.2271243,"puntuation":1.3,"address":"PO Box 29769"},
{"id":428,"name":"Siusan","lat":6.8873531,"lon":73.113569,"puntuation":1.4,"address":"PO Box 60119"},
{"id":429,"name":"Mallory","lat":26.303854,"lon":107.682455,"puntuation":2.7,"address":"PO Box 36369"},
{"id":430,"name":"Geneva","lat":29.20022,"lon":121.479162,"puntuation":3.5,"address":"Apt 1939"},
{"id":431,"name":"Aidan","lat":30.113962,"lon":118.169798,"puntuation":2.3,"address":"Suite 84"},
{"id":432,"name":"Livy","lat":12.6920562,"lon":109.2221964,"puntuation":1.7,"address":"Room 1208"},
{"id":433,"name":"Rene","lat":25.80914,"lon":110.011686,"puntuation":1.9,"address":"Suite 50"},
{"id":434,"name":"Matty","lat":14.4693883,"lon":121.0059518,"puntuation":4.6,"address":"Room 1929"},
{"id":435,"name":"Harris","lat":41.565627,"lon":120.453743,"puntuation":4.8,"address":"20th Floor"},
{"id":436,"name":"Trev","lat":53.3062953,"lon":36.0446294,"puntuation":1.8,"address":"PO Box 29797"},
{"id":437,"name":"Rosanna","lat":-1.2276385,"lon":116.8123832,"puntuation":2.9,"address":"Room 1963"},
{"id":438,"name":"Lenee","lat":46.7803082,"lon":14.9136917,"puntuation":4.5,"address":"Room 391"},
{"id":439,"name":"Claudelle","lat":38.7777943,"lon":-9.2518104,"puntuation":2.1,"address":"Suite 21"},
{"id":440,"name":"Jordain","lat":47.9956173,"lon":0.1924459,"puntuation":1.5,"address":"Apt 185"},
{"id":441,"name":"Valaria","lat":-3.2342185,"lon":116.234153,"puntuation":1.9,"address":"Suite 34"},
{"id":442,"name":"Si","lat":46.2209242,"lon":14.3353423,"puntuation":1.3,"address":"Suite 31"},
{"id":443,"name":"Inessa","lat":-12.257739,"lon":43.6723087,"puntuation":3.1,"address":"18th Floor"},
{"id":444,"name":"Kaiser","lat":-7.6387228,"lon":111.0460407,"puntuation":3.2,"address":"Apt 1576"},
{"id":445,"name":"Gasparo","lat":8.721124,"lon":5.7563151,"puntuation":1.9,"address":"4th Floor"},
{"id":446,"name":"Bradly","lat":30.525475,"lon":105.568297,"puntuation":4.0,"address":"Suite 18"},
{"id":447,"name":"Lena","lat":49.189451,"lon":-0.804935,"puntuation":4.4,"address":"Apt 479"},
{"id":448,"name":"Elsi","lat":15.3694451,"lon":44.1910066,"puntuation":3.5,"address":"Apt 377"},
{"id":449,"name":"Janeva","lat":8.5493413,"lon":-71.2428737,"puntuation":4.0,"address":"PO Box 21910"},
{"id":450,"name":"Hedy","lat":9.258006,"lon":123.281809,"puntuation":2.5,"address":"PO Box 20721"},
{"id":451,"name":"Agnese","lat":23.549701,"lon":116.372708,"puntuation":3.2,"address":"Suite 26"},
{"id":452,"name":"Ward","lat":57.0936018,"lon":24.5424341,"puntuation":3.0,"address":"Apt 743"},
{"id":453,"name":"Dominik","lat":9.9477873,"lon":-84.0592667,"puntuation":3.3,"address":"Room 831"},
{"id":454,"name":"Hamid","lat":-8.2497955,"lon":112.673499,"puntuation":1.9,"address":"Room 561"},
{"id":455,"name":"Carlene","lat":21.938596,"lon":110.552977,"puntuation":4.4,"address":"Suite 82"},
{"id":456,"name":"Etti","lat":35.8784374,"lon":139.6119289,"puntuation":2.5,"address":"Suite 57"},
{"id":457,"name":"Beverley","lat":-30.6732959,"lon":-51.4052742,"puntuation":2.0,"address":"Room 1024"},
{"id":458,"name":"Andriana","lat":32.7481978,"lon":35.3438402,"puntuation":1.7,"address":"Room 256"},
{"id":459,"name":"Caitrin","lat":47.0163969,"lon":-68.1430029,"puntuation":4.1,"address":"Suite 88"},
{"id":460,"name":"Emmy","lat":-0.272699,"lon":36.3775152,"puntuation":2.7,"address":"Room 1513"},
{"id":461,"name":"Garey","lat":59.5135547,"lon":13.3075189,"puntuation":3.6,"address":"Apt 501"},
{"id":462,"name":"Normie","lat":34.800458,"lon":114.364875,"puntuation":4.5,"address":"10th Floor"},
{"id":463,"name":"Norris","lat":41.6429311,"lon":-8.1464077,"puntuation":1.1,"address":"16th Floor"},
{"id":464,"name":"Rosalie","lat":34.5594987,"lon":112.4678779,"puntuation":4.9,"address":"6th Floor"},
{"id":465,"name":"Willie","lat":49.2275285,"lon":14.7209457,"puntuation":5.0,"address":"3rd Floor"},
{"id":466,"name":"Lilly","lat":11.8469126,"lon":-86.4364441,"puntuation":4.3,"address":"Room 1469"},
{"id":467,"name":"Drake","lat":51.8863277,"lon":-8.5176583,"puntuation":4.4,"address":"Suite 99"},
{"id":468,"name":"Ella","lat":38.119756,"lon":23.8661305,"puntuation":1.6,"address":"Apt 1461"},
{"id":469,"name":"Zed","lat":9.3756584,"lon":-83.7053072,"puntuation":2.1,"address":"Apt 193"},
{"id":470,"name":"Sindee","lat":-23.5198964,"lon":-46.3408798,"puntuation":4.8,"address":"PO Box 97365"},
{"id":471,"name":"Harlin","lat":-7.6144216,"lon":110.7742709,"puntuation":3.2,"address":"Room 159"},
{"id":472,"name":"Ashley","lat":22.7129122,"lon":-83.0415078,"puntuation":1.5,"address":"1st Floor"},
{"id":473,"name":"Jonie","lat":-26.7162431,"lon":23.9253941,"puntuation":4.1,"address":"Suite 60"},
{"id":474,"name":"Lanni","lat":59.8503114,"lon":17.5896168,"puntuation":2.3,"address":"Suite 58"},
{"id":475,"name":"Webster","lat":7.1302807,"lon":-3.2030756,"puntuation":3.1,"address":"20th Floor"},
{"id":476,"name":"Abbey","lat":39.906972,"lon":-8.2750089,"puntuation":2.7,"address":"Room 1717"},
{"id":477,"name":"Gifford","lat":4.5827227,"lon":-74.2117465,"puntuation":2.1,"address":"Room 1920"},
{"id":478,"name":"Noak","lat":38.8163486,"lon":-104.8512993,"puntuation":3.5,"address":"Apt 14"},
{"id":479,"name":"Koenraad","lat":44.8722614,"lon":64.764401,"puntuation":4.0,"address":"7th Floor"},
{"id":480,"name":"Benson","lat":50.2914556,"lon":15.4772549,"puntuation":4.4,"address":"3rd Floor"},
{"id":481,"name":"Raffarty","lat":1.5484759,"lon":103.7983752,"puntuation":2.3,"address":"18th Floor"},
{"id":482,"name":"Theresina","lat":46.64635,"lon":131.158416,"puntuation":4.2,"address":"PO Box 81278"},
{"id":483,"name":"Babette","lat":49.799354,"lon":23.518328,"puntuation":4.5,"address":"PO Box 72994"},
{"id":484,"name":"Vicki","lat":32.864167,"lon":35.294547,"puntuation":3.3,"address":"Room 1282"},
{"id":485,"name":"Malissia","lat":59.596992,"lon":11.1771539,"puntuation":4.6,"address":"Suite 74"},
{"id":486,"name":"Bradford","lat":44.780865,"lon":128.447649,"puntuation":3.6,"address":"Apt 1052"},
{"id":487,"name":"Roslyn","lat":-31.946337,"lon":-65.180261,"puntuation":3.2,"address":"Apt 24"},
{"id":488,"name":"Harcourt","lat":52.5234718,"lon":15.4078292,"puntuation":1.8,"address":"1st Floor"},
{"id":489,"name":"Elvera","lat":28.0990178,"lon":-15.4203257,"puntuation":4.8,"address":"Room 1616"},
{"id":490,"name":"Fayette","lat":18.467605,"lon":-69.911527,"puntuation":2.3,"address":"PO Box 95725"},
{"id":491,"name":"Silvana","lat":-8.5895217,"lon":117.2793685,"puntuation":1.4,"address":"PO Box 46649"},
{"id":492,"name":"Janine","lat":52.00577,"lon":33.2615,"puntuation":3.1,"address":"Suite 97"},
{"id":493,"name":"Betty","lat":49.5207147,"lon":23.2065501,"puntuation":4.6,"address":"Apt 937"},
{"id":494,"name":"Verine","lat":-7.4565208,"lon":108.0272646,"puntuation":4.9,"address":"PO Box 24005"},
{"id":495,"name":"Beverie","lat":22.630834,"lon":114.4194,"puntuation":4.0,"address":"17th Floor"},
{"id":496,"name":"Roana","lat":-7.5153339,"lon":108.7660364,"puntuation":4.3,"address":"17th Floor"},
{"id":497,"name":"Allistir","lat":-6.7332152,"lon":111.1950767,"puntuation":3.0,"address":"Room 1392"},
{"id":498,"name":"Evangelin","lat":5.9840985,"lon":116.0761121,"puntuation":4.9,"address":"Room 1428"},
{"id":499,"name":"Cybill","lat":-4.1393386,"lon":39.3180297,"puntuation":2.4,"address":"Room 1464"},
{"id":500,"name":"Arley","lat":34.253164,"lon":117.251076,"puntuation":5.0,"address":"Apt 863"},
{"id":501,"name":"Annabelle","lat":21.430823,"lon":110.949819,"puntuation":2.8,"address":"6th Floor"},
{"id":502,"name":"Lanae","lat":22.6680599,"lon":113.2327987,"puntuation":2.2,"address":"Room 896"},
{"id":503,"name":"Roley","lat":39.66667,"lon":22.38333,"puntuation":3.9,"address":"Room 197"},
{"id":504,"name":"Merralee","lat":59.811981,"lon":17.6188276,"puntuation":4.7,"address":"Room 669"},
{"id":505,"name":"Karilynn","lat":42.61667,"lon":25.4,"puntuation":3.7,"address":"17th Floor"},
{"id":506,"name":"Elga","lat":32.7668648,"lon":-7.5057737,"puntuation":3.5,"address":"Room 1173"},
{"id":507,"name":"Blisse","lat":43.1564817,"lon":-80.1651854,"puntuation":1.5,"address":"PO Box 29595"},
{"id":508,"name":"Tyne","lat":43.834535,"lon":5.0436629,"puntuation":3.0,"address":"Room 1046"},
{"id":509,"name":"Eimile","lat":49.9731106,"lon":32.9873888,"puntuation":1.5,"address":"Room 1775"},
{"id":510,"name":"Genvieve","lat":55.9840531,"lon":37.1619979,"puntuation":2.4,"address":"7th Floor"},
{"id":511,"name":"Vania","lat":59.3043475,"lon":18.0873579,"puntuation":3.2,"address":"19th Floor"},
{"id":512,"name":"Beverlie","lat":36.7818033,"lon":140.7299857,"puntuation":2.7,"address":"Apt 1413"},
{"id":513,"name":"Bernhard","lat":15.3445135,"lon":104.1560983,"puntuation":1.1,"address":"Apt 532"},
{"id":514,"name":"Dallis","lat":59.7591608,"lon":18.6810496,"puntuation":1.3,"address":"Room 1670"},
{"id":515,"name":"Gunther","lat":41.3869496,"lon":-8.0022034,"puntuation":2.4,"address":"Suite 48"},
{"id":516,"name":"Zandra","lat":51.7181762,"lon":17.7257496,"puntuation":3.5,"address":"10th Floor"},
{"id":517,"name":"Daffi","lat":23.436592,"lon":115.836219,"puntuation":3.8,"address":"20th Floor"},
{"id":518,"name":"Deena","lat":33.8937913,"lon":35.5017767,"puntuation":4.7,"address":"Suite 92"},
{"id":519,"name":"Blair","lat":-33.7974423,"lon":151.2502275,"puntuation":4.1,"address":"PO Box 56885"},
{"id":520,"name":"Ronalda","lat":18.2291677,"lon":-78.1393397,"puntuation":1.9,"address":"Apt 793"},
{"id":521,"name":"Sosanna","lat":3.0062022,"lon":34.1114621,"puntuation":1.4,"address":"Suite 17"},
{"id":522,"name":"Willabella","lat":-37.758979,"lon":176.4495638,"puntuation":1.9,"address":"Apt 1171"},
{"id":523,"name":"Kelbee","lat":52.2254703,"lon":6.893632,"puntuation":3.2,"address":"PO Box 24396"},
{"id":524,"name":"Massimo","lat":39.856276,"lon":-8.78126,"puntuation":4.5,"address":"3rd Floor"},
{"id":525,"name":"Matthias","lat":26.444341,"lon":115.699778,"puntuation":4.7,"address":"17th Floor"},
{"id":526,"name":"Libbey","lat":30.893837,"lon":121.092179,"puntuation":1.6,"address":"Apt 1023"},
{"id":527,"name":"Chrysler","lat":23.1833095,"lon":113.358579,"puntuation":4.5,"address":"Apt 18"},
{"id":528,"name":"Cyndie","lat":60.0409397,"lon":29.9879347,"puntuation":1.3,"address":"Room 1999"},
{"id":529,"name":"Murial","lat":-7.7888522,"lon":114.1914951,"puntuation":2.0,"address":"Apt 1348"},
{"id":530,"name":"Heath","lat":47.785421,"lon":-3.2602564,"puntuation":3.7,"address":"3rd Floor"},
{"id":531,"name":"Ralph","lat":57.8308498,"lon":50.0688474,"puntuation":1.3,"address":"5th Floor"},
{"id":532,"name":"Bobbee","lat":42.99082,"lon":46.632565,"puntuation":3.5,"address":"Room 1670"},
{"id":533,"name":"Gris","lat":40.73192,"lon":72.76177,"puntuation":1.5,"address":"5th Floor"},
{"id":534,"name":"Fernandina","lat":41.0909864,"lon":-8.4901287,"puntuation":4.0,"address":"Room 1332"},
{"id":535,"name":"Louise","lat":35.656128,"lon":112.117922,"puntuation":4.5,"address":"9th Floor"},
{"id":536,"name":"Iggie","lat":29.23682,"lon":109.31644,"puntuation":1.7,"address":"Suite 31"},
{"id":537,"name":"Conney","lat":36.494701,"lon":117.861851,"puntuation":4.4,"address":"PO Box 43690"},
{"id":538,"name":"Luke","lat":-8.844744,"lon":121.648987,"puntuation":1.1,"address":"Apt 1262"},
{"id":539,"name":"Abigael","lat":7.0024321,"lon":-9.4728244,"puntuation":2.1,"address":"PO Box 36803"},
{"id":540,"name":"Lissa","lat":48.7853082,"lon":2.072661,"puntuation":2.5,"address":"PO Box 70672"},
{"id":541,"name":"Evangeline","lat":36.85608,"lon":81.660646,"puntuation":4.0,"address":"13th Floor"},
{"id":542,"name":"Darius","lat":13.6986477,"lon":30.3723741,"puntuation":1.8,"address":"PO Box 44205"},
{"id":543,"name":"Loydie","lat":24.865287,"lon":118.578967,"puntuation":2.2,"address":"Apt 602"},
{"id":544,"name":"Ole","lat":16.6900154,"lon":121.5455394,"puntuation":2.7,"address":"Suite 35"},
{"id":545,"name":"Laird","lat":50.4427733,"lon":14.9233449,"puntuation":1.5,"address":"8th Floor"},
{"id":546,"name":"Maritsa","lat":5.934363,"lon":-73.615679,"puntuation":3.0,"address":"PO Box 94703"},
{"id":547,"name":"Rusty","lat":-12.064682,"lon":-77.029602,"puntuation":5.0,"address":"18th Floor"},
{"id":548,"name":"Mahmud","lat":-8.3426,"lon":123.2055,"puntuation":1.1,"address":"Suite 100"},
{"id":549,"name":"Dara","lat":41.3595963,"lon":-8.3726599,"puntuation":2.0,"address":"Suite 50"},
{"id":550,"name":"Carole","lat":-0.714024,"lon":109.252403,"puntuation":1.6,"address":"Suite 91"},
{"id":551,"name":"Karin","lat":-38.043127,"lon":145.297768,"puntuation":2.9,"address":"Apt 451"},
{"id":552,"name":"Irving","lat":-13.4528458,"lon":-172.4041647,"puntuation":3.0,"address":"10th Floor"},
{"id":553,"name":"Margi","lat":9.49858,"lon":50.8105261,"puntuation":3.5,"address":"PO Box 96058"},
{"id":554,"name":"Jone","lat":50.153206,"lon":15.7292147,"puntuation":2.5,"address":"Room 1937"},
{"id":555,"name":"Frayda","lat":-17.5706623,"lon":-65.7698663,"puntuation":2.7,"address":"8th Floor"},
{"id":556,"name":"Irv","lat":39.109563,"lon":117.223371,"puntuation":4.0,"address":"15th Floor"},
{"id":557,"name":"Mag","lat":63.1908332,"lon":64.4183685,"puntuation":1.7,"address":"7th Floor"},
{"id":558,"name":"Shaw","lat":9.338682,"lon":123.291063,"puntuation":2.0,"address":"PO Box 43562"},
{"id":559,"name":"Yorke","lat":7.138166,"lon":7.6697323,"puntuation":2.9,"address":"Apt 1591"},
{"id":560,"name":"Annette","lat":33.5617615,"lon":131.428737,"puntuation":2.0,"address":"Suite 90"},
{"id":561,"name":"Arri","lat":-9.3588996,"lon":119.9162276,"puntuation":1.5,"address":"Room 1284"},
{"id":562,"name":"Banky","lat":57.3937216,"lon":21.5647066,"puntuation":2.2,"address":"10th Floor"},
{"id":563,"name":"Dagmar","lat":32.5639,"lon":120.396768,"puntuation":2.4,"address":"PO Box 21280"},
{"id":564,"name":"Standford","lat":14.7059893,"lon":120.9500035,"puntuation":2.6,"address":"Room 213"},
{"id":565,"name":"Carney","lat":13.0504833,"lon":3.2080991,"puntuation":5.0,"address":"PO Box 74235"},
{"id":566,"name":"Christye","lat":40.5420665,"lon":-7.8993756,"puntuation":1.3,"address":"Room 350"},
{"id":567,"name":"Olvan","lat":59.954793,"lon":30.2145439,"puntuation":4.3,"address":"3rd Floor"},
{"id":568,"name":"Evered","lat":52.2681666,"lon":20.4632209,"puntuation":3.5,"address":"PO Box 88632"},
{"id":569,"name":"Muire","lat":-6.10819,"lon":177.33393,"puntuation":3.1,"address":"Suite 94"},
{"id":570,"name":"Adolphe","lat":-15.1838408,"lon":-72.9061903,"puntuation":2.0,"address":"Suite 68"},
{"id":571,"name":"Elsbeth","lat":29.9668343,"lon":32.5498069,"puntuation":4.8,"address":"PO Box 19429"},
{"id":572,"name":"Alleyn","lat":-0.2842862,"lon":20.8850949,"puntuation":3.6,"address":"Apt 846"},
{"id":573,"name":"Rhea","lat":26.656649,"lon":116.799278,"puntuation":4.4,"address":"Suite 77"},
{"id":574,"name":"Dasi","lat":16.0213558,"lon":100.417181,"puntuation":3.7,"address":"Suite 88"},
{"id":575,"name":"Helyn","lat":58.0312993,"lon":38.6043668,"puntuation":3.9,"address":"Room 1258"},
{"id":576,"name":"Dacy","lat":30.0746,"lon":107.367072,"puntuation":2.1,"address":"Apt 682"},
{"id":577,"name":"Janos","lat":60.5854759,"lon":22.897837,"puntuation":4.7,"address":"Apt 488"},
{"id":578,"name":"Krystalle","lat":56.9438063,"lon":51.0642669,"puntuation":3.7,"address":"Apt 1860"},
{"id":579,"name":"Phillipp","lat":59.49639,"lon":34.67222,"puntuation":1.1,"address":"19th Floor"},
{"id":580,"name":"Trueman","lat":36.84757,"lon":11.09386,"puntuation":2.6,"address":"Suite 13"},
{"id":581,"name":"Cyndia","lat":39.886547,"lon":116.989574,"puntuation":2.6,"address":"PO Box 12461"},
{"id":582,"name":"Sasha","lat":40.4583824,"lon":-8.8018715,"puntuation":4.1,"address":"Suite 69"},
{"id":583,"name":"Del","lat":39.6883601,"lon":-8.9606173,"puntuation":1.4,"address":"Suite 97"},
{"id":584,"name":"Forrester","lat":43.0007361,"lon":23.341193,"puntuation":4.5,"address":"7th Floor"},
{"id":585,"name":"Augy","lat":48.9480609,"lon":14.5413068,"puntuation":3.3,"address":"PO Box 62290"},
{"id":586,"name":"Viviana","lat":-4.4564351,"lon":-81.2821647,"puntuation":1.7,"address":"Room 555"},
{"id":587,"name":"Milt","lat":54.6593,"lon":29.2684,"puntuation":4.9,"address":"19th Floor"},
{"id":588,"name":"Nollie","lat":-9.6099,"lon":119.6237,"puntuation":1.8,"address":"Room 1601"},
{"id":589,"name":"Cordi","lat":13.1191133,"lon":-86.9949372,"puntuation":2.6,"address":"Room 1473"},
{"id":590,"name":"Ursala","lat":42.6995493,"lon":24.0846607,"puntuation":1.2,"address":"Suite 13"},
{"id":591,"name":"Natka","lat":34.329605,"lon":108.708991,"puntuation":1.2,"address":"2nd Floor"},
{"id":592,"name":"Concordia","lat":9.7986027,"lon":38.4271461,"puntuation":3.3,"address":"10th Floor"},
{"id":593,"name":"Sean","lat":43.1508732,"lon":-79.2056361,"puntuation":4.0,"address":"PO Box 78673"},
{"id":594,"name":"Reamonn","lat":32.010214,"lon":119.606439,"puntuation":4.8,"address":"Room 1169"},
{"id":595,"name":"Janel","lat":38.570152,"lon":114.112961,"puntuation":1.7,"address":"Room 1296"},
{"id":596,"name":"Eli","lat":-4.9684385,"lon":-39.0161259,"puntuation":2.2,"address":"11th Floor"},
{"id":597,"name":"Twila","lat":25.5822549,"lon":-100.9086492,"puntuation":2.0,"address":"Room 27"},
{"id":598,"name":"Antonia","lat":21.077764,"lon":102.5097274,"puntuation":4.0,"address":"PO Box 56901"},
{"id":599,"name":"Damian","lat":41.131691,"lon":119.7263123,"puntuation":4.7,"address":"Room 1534"},
{"id":600,"name":"Lanna","lat":41.0743876,"lon":-8.5242992,"puntuation":1.8,"address":"20th Floor"},
{"id":601,"name":"Corabel","lat":16.5603828,"lon":121.1486664,"puntuation":2.5,"address":"18th Floor"},
{"id":602,"name":"Dorothea","lat":50.255556,"lon":136.640833,"puntuation":1.3,"address":"12th Floor"},
{"id":603,"name":"Kelsi","lat":-9.8251183,"lon":16.912251,"puntuation":2.4,"address":"Apt 402"},
{"id":604,"name":"Edie","lat":25.843691,"lon":98.854532,"puntuation":2.7,"address":"Room 1781"},
{"id":605,"name":"Talya","lat":11.0537247,"lon":125.0332235,"puntuation":3.1,"address":"4th Floor"},
{"id":606,"name":"Barret","lat":38.7280454,"lon":-9.3225944,"puntuation":3.0,"address":"13th Floor"},
{"id":607,"name":"Reinwald","lat":48.7663087,"lon":2.4119232,"puntuation":2.4,"address":"15th Floor"},
{"id":608,"name":"Even","lat":57.141246,"lon":22.5366558,"puntuation":4.4,"address":"Apt 1268"},
{"id":609,"name":"Martguerita","lat":17.8964345,"lon":-62.852201,"puntuation":3.8,"address":"Apt 1286"},
{"id":610,"name":"Doreen","lat":52.958936,"lon":21.8130562,"puntuation":1.2,"address":"Apt 1842"},
{"id":611,"name":"Marcos","lat":-21.9310093,"lon":-50.5069723,"puntuation":2.3,"address":"PO Box 96503"},
{"id":612,"name":"Yettie","lat":45.5272739,"lon":16.2749715,"puntuation":5.0,"address":"PO Box 37385"},
{"id":613,"name":"Terri-jo","lat":27.375021,"lon":112.239446,"puntuation":1.4,"address":"Suite 27"},
{"id":614,"name":"Justin","lat":24.651518,"lon":109.24473,"puntuation":3.1,"address":"Room 1371"},
{"id":615,"name":"Prentiss","lat":31.275819,"lon":121.499653,"puntuation":4.9,"address":"Room 633"},
{"id":616,"name":"Rosabel","lat":13.4345789,"lon":122.6430631,"puntuation":4.2,"address":"Suite 10"},
{"id":617,"name":"Marietta","lat":15.9798989,"lon":120.4620139,"puntuation":1.9,"address":"Room 972"},
{"id":618,"name":"Guglielmo","lat":51.7173795,"lon":15.4240467,"puntuation":1.2,"address":"Suite 26"},
{"id":619,"name":"Rodina","lat":51.1373971,"lon":39.3988465,"puntuation":4.2,"address":"Suite 93"},
{"id":620,"name":"Dun","lat":27.756339,"lon":112.555087,"puntuation":1.0,"address":"PO Box 97149"},
{"id":621,"name":"Edee","lat":58.955833,"lon":36.5925,"puntuation":4.7,"address":"Suite 33"},
{"id":622,"name":"Julia","lat":-12.7739761,"lon":15.7468535,"puntuation":3.5,"address":"Suite 31"},
{"id":623,"name":"Koren","lat":52.1867388,"lon":16.7971141,"puntuation":1.2,"address":"PO Box 41844"},
{"id":624,"name":"Phelia","lat":63.0706703,"lon":21.6601286,"puntuation":3.0,"address":"PO Box 35608"},
{"id":625,"name":"Lancelot","lat":23.043061,"lon":113.298675,"puntuation":4.0,"address":"Suite 25"},
{"id":626,"name":"Asia","lat":-12.9316863,"lon":34.2810541,"puntuation":4.6,"address":"Apt 1504"},
{"id":627,"name":"Yorker","lat":30.679359,"lon":104.011664,"puntuation":3.2,"address":"Room 1371"},
{"id":628,"name":"Tymothy","lat":27.9852231,"lon":-82.008014,"puntuation":1.1,"address":"Apt 1419"},
{"id":629,"name":"Nadiya","lat":37.3520055,"lon":68.6767454,"puntuation":2.2,"address":"Apt 1874"},
{"id":630,"name":"Britt","lat":31.893274,"lon":121.255306,"puntuation":1.7,"address":"Room 1915"},
{"id":631,"name":"Rockey","lat":43.82551,"lon":81.872025,"puntuation":2.1,"address":"Room 131"},
{"id":632,"name":"Chevalier","lat":51.6551687,"lon":16.9564844,"puntuation":3.9,"address":"Apt 306"},
{"id":633,"name":"Luca","lat":60.8818611,"lon":11.5610075,"puntuation":2.5,"address":"Suite 7"},
{"id":634,"name":"Datha","lat":38.2305534,"lon":15.5532993,"puntuation":3.0,"address":"8th Floor"},
{"id":635,"name":"Lionel","lat":35.015101,"lon":110.998272,"puntuation":2.6,"address":"6th Floor"},
{"id":636,"name":"Aharon","lat":54.4771768,"lon":-8.2817353,"puntuation":3.3,"address":"Room 1668"},
{"id":637,"name":"Mikey","lat":38.8495365,"lon":119.7889248,"puntuation":4.5,"address":"Apt 1266"},
{"id":638,"name":"Janos","lat":13.4767279,"lon":144.7651497,"puntuation":5.0,"address":"Apt 977"},
{"id":639,"name":"Gardner","lat":25.941708,"lon":119.560304,"puntuation":1.1,"address":"16th Floor"},
{"id":640,"name":"Orlando","lat":28.425613,"lon":109.56834,"puntuation":4.7,"address":"Suite 48"},
{"id":641,"name":"Beth","lat":30.640814,"lon":93.232528,"puntuation":1.7,"address":"PO Box 47007"},
{"id":642,"name":"Tully","lat":-7.2425008,"lon":112.7524553,"puntuation":4.6,"address":"Suite 39"},
{"id":643,"name":"Opal","lat":13.1561057,"lon":100.8120563,"puntuation":4.4,"address":"PO Box 63939"},
{"id":644,"name":"Baird","lat":44.000497,"lon":89.180437,"puntuation":2.1,"address":"8th Floor"},
{"id":645,"name":"Stoddard","lat":-33.0276981,"lon":17.9176312,"puntuation":1.2,"address":"Room 1471"},
{"id":646,"name":"Merrill","lat":-25.6801783,"lon":-53.5419225,"puntuation":4.1,"address":"17th Floor"},
{"id":647,"name":"Merilyn","lat":50.5339443,"lon":16.0497864,"puntuation":2.2,"address":"Apt 505"},
{"id":648,"name":"Angil","lat":30.073805,"lon":89.108299,"puntuation":1.3,"address":"10th Floor"},
{"id":649,"name":"Kay","lat":12.261245,"lon":121.990929,"puntuation":1.7,"address":"Room 501"},
{"id":650,"name":"Winnie","lat":35.4441266,"lon":136.3420789,"puntuation":4.3,"address":"Room 719"},
{"id":651,"name":"Donal","lat":-2.2306406,"lon":-80.9001863,"puntuation":1.2,"address":"15th Floor"},
{"id":652,"name":"Maggie","lat":-6.3947391,"lon":106.0081819,"puntuation":3.6,"address":"20th Floor"},
{"id":653,"name":"Ashla","lat":9.5279875,"lon":31.6682347,"puntuation":1.6,"address":"Apt 919"},
{"id":654,"name":"Lita","lat":32.515255,"lon":95.735762,"puntuation":1.5,"address":"Apt 1031"},
{"id":655,"name":"Fleurette","lat":13.6224855,"lon":100.8512816,"puntuation":1.5,"address":"Suite 52"},
{"id":656,"name":"Crista","lat":11.446769,"lon":125.491172,"puntuation":3.4,"address":"Suite 30"},
{"id":657,"name":"Yolande","lat":29.987298,"lon":120.897694,"puntuation":1.1,"address":"PO Box 17461"},
{"id":658,"name":"Aubry","lat":32.629398,"lon":110.798266,"puntuation":1.6,"address":"Suite 66"},
{"id":659,"name":"Amalie","lat":4.2100095,"lon":8.9901033,"puntuation":3.9,"address":"Suite 66"},
{"id":660,"name":"Veronike","lat":32.9320578,"lon":130.5063545,"puntuation":1.9,"address":"12th Floor"},
{"id":661,"name":"Andrea","lat":34.7728913,"lon":138.0126666,"puntuation":4.9,"address":"PO Box 94346"},
{"id":662,"name":"Cordi","lat":-7.1056569,"lon":107.9005972,"puntuation":4.1,"address":"14th Floor"},
{"id":663,"name":"Brand","lat":-7.3063314,"lon":111.9313826,"puntuation":4.9,"address":"Room 1440"},
{"id":664,"name":"Arline","lat":48.9172739,"lon":31.719254,"puntuation":1.7,"address":"Room 1366"},
{"id":665,"name":"Donny","lat":29.601192,"lon":103.565191,"puntuation":4.3,"address":"PO Box 31108"},
{"id":666,"name":"Mortie","lat":37.0237497,"lon":120.5622121,"puntuation":3.1,"address":"Room 1218"},
{"id":667,"name":"Stirling","lat":36.599744,"lon":101.803717,"puntuation":4.4,"address":"Apt 1519"},
{"id":668,"name":"Vivyan","lat":43.1227567,"lon":45.7420648,"puntuation":3.3,"address":"3rd Floor"},
{"id":669,"name":"Bobinette","lat":-20.2810232,"lon":-50.2475804,"puntuation":1.8,"address":"Room 1261"},
{"id":670,"name":"Salmon","lat":39.815838,"lon":118.630532,"puntuation":1.8,"address":"PO Box 59901"},
{"id":671,"name":"Edward","lat":47.4376347,"lon":-70.5082419,"puntuation":1.3,"address":"Apt 917"},
{"id":672,"name":"Jeanette","lat":-8.6791477,"lon":115.1786531,"puntuation":3.5,"address":"16th Floor"},
{"id":673,"name":"Gwenni","lat":48.2211075,"lon":26.2712988,"puntuation":1.4,"address":"PO Box 19635"},
{"id":674,"name":"Pammi","lat":-13.9448918,"lon":-74.3132878,"puntuation":2.2,"address":"Room 311"},
{"id":675,"name":"Lew","lat":49.5508306,"lon":5.9340983,"puntuation":2.2,"address":"Apt 670"},
{"id":676,"name":"Domeniga","lat":22.00001,"lon":110.593212,"puntuation":3.2,"address":"1st Floor"},
{"id":677,"name":"Bengt","lat":57.6480612,"lon":14.0685008,"puntuation":4.4,"address":"13th Floor"},
{"id":678,"name":"Northrup","lat":-38.0846351,"lon":176.6989753,"puntuation":2.6,"address":"Apt 1297"},
{"id":679,"name":"Felice","lat":41.2606416,"lon":-8.4347858,"puntuation":2.3,"address":"Room 1825"},
{"id":680,"name":"Lem","lat":35.10456,"lon":134.067383,"puntuation":2.7,"address":"Apt 1616"},
{"id":681,"name":"Kristian","lat":-3.0040574,"lon":31.9274003,"puntuation":2.9,"address":"Suite 100"},
{"id":682,"name":"Aimee","lat":58.5560583,"lon":26.6261976,"puntuation":1.4,"address":"Suite 84"},
{"id":683,"name":"Nathanil","lat":41.1769352,"lon":44.8345384,"puntuation":2.8,"address":"PO Box 43512"},
{"id":684,"name":"Sherline","lat":-7.4416099,"lon":108.6205315,"puntuation":2.7,"address":"Suite 68"},
{"id":685,"name":"Temp","lat":22.720595,"lon":113.829667,"puntuation":3.1,"address":"Apt 1595"},
{"id":686,"name":"Adel","lat":28.438851,"lon":120.564983,"puntuation":3.1,"address":"Suite 23"},
{"id":687,"name":"Renell","lat":45.6138162,"lon":20.0459853,"puntuation":3.5,"address":"Suite 7"},
{"id":688,"name":"Cleavland","lat":31.7711077,"lon":119.9742793,"puntuation":3.5,"address":"Suite 16"},
{"id":689,"name":"Benjie","lat":-0.8808728,"lon":100.5858786,"puntuation":1.5,"address":"7th Floor"},
{"id":690,"name":"Noellyn","lat":46.8584087,"lon":31.3849652,"puntuation":1.1,"address":"Room 1106"},
{"id":691,"name":"Jody","lat":13.7191394,"lon":100.2207634,"puntuation":3.8,"address":"13th Floor"},
{"id":692,"name":"Barnie","lat":48.138899,"lon":-1.948989,"puntuation":1.1,"address":"10th Floor"},
{"id":693,"name":"Amos","lat":7.5949353,"lon":124.153749,"puntuation":4.2,"address":"Suite 19"},
{"id":694,"name":"Alysia","lat":41.707342,"lon":-8.3509957,"puntuation":4.7,"address":"Suite 21"},
{"id":695,"name":"Madison","lat":44.0519136,"lon":42.8429639,"puntuation":4.2,"address":"Suite 13"},
{"id":696,"name":"Rollo","lat":58.6429512,"lon":13.6587955,"puntuation":4.6,"address":"6th Floor"},
{"id":697,"name":"Dare","lat":27.5936542,"lon":120.5235118,"puntuation":4.8,"address":"Suite 45"},
{"id":698,"name":"Micheline","lat":24.781681,"lon":118.552365,"puntuation":1.4,"address":"Room 1895"},
{"id":699,"name":"Marilyn","lat":30.6217883,"lon":104.0524871,"puntuation":2.9,"address":"PO Box 58086"},
{"id":700,"name":"Georgena","lat":13.75639,"lon":100.5073712,"puntuation":2.4,"address":"PO Box 1584"},
{"id":701,"name":"Raquel","lat":37.114157,"lon":79.922211,"puntuation":2.0,"address":"PO Box 34383"},
{"id":702,"name":"Aaren","lat":41.303548,"lon":-8.7353479,"puntuation":1.3,"address":"Room 344"},
{"id":703,"name":"Gar","lat":52.804249,"lon":6.186692,"puntuation":3.4,"address":"PO Box 92740"},
{"id":704,"name":"Teirtza","lat":38.2,"lon":-84.87,"puntuation":4.1,"address":"Apt 1087"},
{"id":705,"name":"Glyn","lat":31.04565,"lon":121.409039,"puntuation":1.6,"address":"Room 12"},
{"id":706,"name":"Danyette","lat":6.4791846,"lon":124.6644348,"puntuation":1.7,"address":"19th Floor"},
{"id":707,"name":"Shawn","lat":29.060527,"lon":87.762163,"puntuation":3.0,"address":"PO Box 99587"},
{"id":708,"name":"Briano","lat":41.5063062,"lon":20.0859109,"puntuation":3.2,"address":"Apt 1760"},
{"id":709,"name":"Casar","lat":43.2038704,"lon":44.8434843,"puntuation":4.8,"address":"Suite 10"},
{"id":710,"name":"Keri","lat":-22.8481591,"lon":-47.6063666,"puntuation":3.0,"address":"1st Floor"},
{"id":711,"name":"Florida","lat":51.4923815,"lon":6.9694303,"puntuation":3.0,"address":"Room 1234"},
{"id":712,"name":"Bay","lat":39.306292,"lon":-7.6444333,"puntuation":2.8,"address":"Apt 1313"},
{"id":713,"name":"Gayel","lat":11.166186,"lon":123.0143617,"puntuation":2.3,"address":"PO Box 47292"},
{"id":714,"name":"Marieann","lat":53.9323017,"lon":25.7774859,"puntuation":2.2,"address":"Apt 1639"},
{"id":715,"name":"Fallon","lat":27.121652,"lon":107.047128,"puntuation":4.6,"address":"20th Floor"},
{"id":716,"name":"Kennett","lat":51.6553959,"lon":35.2572553,"puntuation":3.7,"address":"Suite 6"},
{"id":717,"name":"Martainn","lat":29.272581,"lon":104.874073,"puntuation":1.8,"address":"Room 149"},
{"id":718,"name":"Brody","lat":52.5871233,"lon":33.7634935,"puntuation":3.1,"address":"Suite 86"},
{"id":719,"name":"Irvine","lat":53.0418691,"lon":16.4616756,"puntuation":5.0,"address":"Room 1195"},
{"id":720,"name":"Cristine","lat":37.1560675,"lon":22.0444933,"puntuation":5.0,"address":"Apt 38"},
{"id":721,"name":"Gusti","lat":-7.9553448,"lon":112.649662,"puntuation":2.6,"address":"Apt 1153"},
{"id":722,"name":"Holmes","lat":30.8337059,"lon":35.6160558,"puntuation":3.1,"address":"Room 1472"},
{"id":723,"name":"Lorene","lat":45.0485391,"lon":20.0808092,"puntuation":3.5,"address":"Apt 948"},
{"id":724,"name":"Joyann","lat":45.742007,"lon":3.199309,"puntuation":3.9,"address":"Apt 136"},
{"id":725,"name":"Mariette","lat":53.7815116,"lon":27.4312339,"puntuation":3.7,"address":"Apt 1495"},
{"id":726,"name":"Laurel","lat":42.5317628,"lon":72.2304571,"puntuation":4.7,"address":"20th Floor"},
{"id":727,"name":"Gloriane","lat":31.207378,"lon":121.4174914,"puntuation":2.0,"address":"12th Floor"},
{"id":728,"name":"Conney","lat":35.89917,"lon":14.49444,"puntuation":4.1,"address":"Suite 61"},
{"id":729,"name":"Paulina","lat":-34.6161437,"lon":-58.5238406,"puntuation":2.5,"address":"PO Box 46201"},
{"id":730,"name":"Hussein","lat":44.200789,"lon":86.468058,"puntuation":2.7,"address":"Apt 794"},
{"id":731,"name":"Rinaldo","lat":-21.2484875,"lon":-45.0013747,"puntuation":1.2,"address":"Room 52"},
{"id":732,"name":"Betteann","lat":37.7779611,"lon":-8.0102678,"puntuation":4.6,"address":"10th Floor"},
{"id":733,"name":"Gratiana","lat":41.305838,"lon":124.120286,"puntuation":2.4,"address":"PO Box 78705"},
{"id":734,"name":"Adriena","lat":34.3276924,"lon":47.0777685,"puntuation":1.8,"address":"1st Floor"},
{"id":735,"name":"Lalo","lat":-7.5002292,"lon":107.9739244,"puntuation":2.7,"address":"Room 1425"},
{"id":736,"name":"Merrill","lat":28.1905018,"lon":112.999502,"puntuation":1.4,"address":"PO Box 53064"},
{"id":737,"name":"Kassie","lat":49.5048872,"lon":5.6944757,"puntuation":2.5,"address":"Room 396"},
{"id":738,"name":"Orella","lat":-11.2568167,"lon":-39.0710754,"puntuation":1.1,"address":"Suite 44"},
{"id":739,"name":"Field","lat":15.1042521,"lon":101.0768333,"puntuation":2.5,"address":"Room 1406"},
{"id":740,"name":"Paco","lat":53.7577169,"lon":17.1077021,"puntuation":2.5,"address":"7th Floor"},
{"id":741,"name":"Wayne","lat":17.9678128,"lon":-77.6936948,"puntuation":2.8,"address":"PO Box 65856"},
{"id":742,"name":"Robbyn","lat":19.7267712,"lon":-101.1850967,"puntuation":2.8,"address":"13th Floor"},
{"id":743,"name":"Marline","lat":-33.7974423,"lon":151.2502275,"puntuation":4.4,"address":"PO Box 78837"},
{"id":744,"name":"Marga","lat":-11.303555,"lon":-41.8561503,"puntuation":3.3,"address":"Room 1365"},
{"id":745,"name":"Konstantine","lat":49.6226783,"lon":21.7697277,"puntuation":1.7,"address":"Suite 17"},
{"id":746,"name":"Barnabe","lat":-34.3048508,"lon":-58.7739249,"puntuation":3.3,"address":"Room 1880"},
{"id":747,"name":"Cristina","lat":25.22796,"lon":106.78953,"puntuation":2.4,"address":"Suite 44"},
{"id":748,"name":"Harry","lat":30.741991,"lon":121.341969,"puntuation":3.0,"address":"Apt 425"},
{"id":749,"name":"Janos","lat":5.7316058,"lon":19.0869316,"puntuation":2.0,"address":"Apt 1222"},
{"id":750,"name":"Guillema","lat":13.439615,"lon":-86.7994359,"puntuation":1.7,"address":"PO Box 63531"},
{"id":751,"name":"Poul","lat":37.7977942,"lon":139.1253637,"puntuation":1.3,"address":"PO Box 10983"},
{"id":752,"name":"Callida","lat":-8.4513,"lon":115.6162,"puntuation":2.6,"address":"PO Box 55160"},
{"id":753,"name":"Jens","lat":53.3500473,"lon":-6.2755912,"puntuation":3.1,"address":"Suite 13"},
{"id":754,"name":"Francklyn","lat":-17.6809984,"lon":-149.3081197,"puntuation":3.1,"address":"Apt 520"},
{"id":755,"name":"Sonny","lat":2.7724038,"lon":32.2880726,"puntuation":3.6,"address":"PO Box 30297"},
{"id":756,"name":"Cliff","lat":57.2992579,"lon":39.8548496,"puntuation":1.0,"address":"Room 43"},
{"id":757,"name":"Kora","lat":53.8145,"lon":-1.56285,"puntuation":2.9,"address":"PO Box 23055"},
{"id":758,"name":"Michaeline","lat":34.5594987,"lon":112.4678779,"puntuation":4.1,"address":"PO Box 29547"},
{"id":759,"name":"Melloney","lat":-16.4544375,"lon":-71.4655565,"puntuation":3.9,"address":"Apt 1588"},
{"id":760,"name":"Cynthy","lat":55.6613674,"lon":37.4429397,"puntuation":3.6,"address":"PO Box 73136"},
{"id":761,"name":"Ardis","lat":10.5388499,"lon":6.4356937,"puntuation":3.5,"address":"PO Box 37677"},
{"id":762,"name":"Katerina","lat":55.1393981,"lon":54.6406219,"puntuation":2.7,"address":"PO Box 89209"},
{"id":763,"name":"Ashia","lat":-2.321899,"lon":110.5930548,"puntuation":1.0,"address":"Room 30"},
{"id":764,"name":"Jarrad","lat":14.7342524,"lon":121.0702642,"puntuation":1.2,"address":"Suite 10"},
{"id":765,"name":"Abby","lat":40.42639,"lon":49.98361,"puntuation":2.4,"address":"Suite 97"},
{"id":766,"name":"Augustine","lat":40.9063009,"lon":24.7069091,"puntuation":1.7,"address":"11th Floor"},
{"id":767,"name":"Alvira","lat":37.9578061,"lon":22.8039689,"puntuation":4.1,"address":"PO Box 43710"},
{"id":768,"name":"Mandy","lat":36.809895,"lon":116.428916,"puntuation":1.3,"address":"Room 336"},
{"id":769,"name":"Aldrich","lat":-8.7393,"lon":121.3054,"puntuation":2.3,"address":"2nd Floor"},
{"id":770,"name":"Ceciley","lat":-12.257739,"lon":43.6723087,"puntuation":3.1,"address":"20th Floor"},
{"id":771,"name":"Elinore","lat":32.890479,"lon":115.814504,"puntuation":4.4,"address":"15th Floor"},
{"id":772,"name":"Zollie","lat":39.612728,"lon":113.497098,"puntuation":4.4,"address":"Suite 59"},
{"id":773,"name":"Dav","lat":42.0938285,"lon":-8.2570282,"puntuation":4.3,"address":"Apt 730"},
{"id":774,"name":"Alisa","lat":62.3658212,"lon":26.4532856,"puntuation":1.8,"address":"Room 949"},
{"id":775,"name":"Kacy","lat":-0.789275,"lon":113.921327,"puntuation":4.1,"address":"PO Box 19354"},
{"id":776,"name":"Verene","lat":38.0878845,"lon":23.9761139,"puntuation":3.9,"address":"17th Floor"},
{"id":777,"name":"Carson","lat":49.7759894,"lon":13.6924662,"puntuation":3.8,"address":"Room 1837"},
{"id":778,"name":"Shelton","lat":21.514163,"lon":111.013556,"puntuation":2.7,"address":"16th Floor"},
{"id":779,"name":"Lacie","lat":57.8644157,"lon":13.4263048,"puntuation":4.8,"address":"PO Box 8303"},
{"id":780,"name":"Basil","lat":-7.4869186,"lon":108.4691492,"puntuation":2.4,"address":"Suite 12"},
{"id":781,"name":"Pearle","lat":16.065782,"lon":120.666775,"puntuation":2.1,"address":"Room 1079"},
{"id":782,"name":"Kaia","lat":-23.107801,"lon":26.8321332,"puntuation":4.9,"address":"3rd Floor"},
{"id":783,"name":"Roch","lat":-6.7757862,"lon":111.7465609,"puntuation":2.3,"address":"Suite 55"},
{"id":784,"name":"Cello","lat":33.307049,"lon":62.136421,"puntuation":4.3,"address":"Suite 43"},
{"id":785,"name":"Henrietta","lat":23.8906995,"lon":89.1099368,"puntuation":3.8,"address":"Suite 79"},
{"id":786,"name":"Darell","lat":14.6103278,"lon":121.0080574,"puntuation":1.8,"address":"Apt 1548"},
{"id":787,"name":"Valentijn","lat":16.7499304,"lon":-92.6291625,"puntuation":2.8,"address":"PO Box 95558"},
{"id":788,"name":"Cristen","lat":-21.4096214,"lon":25.5858711,"puntuation":2.4,"address":"Room 1495"},
{"id":789,"name":"Blake","lat":40.8833166,"lon":107.1419766,"puntuation":1.7,"address":"PO Box 56402"},
{"id":790,"name":"Cyndi","lat":-8.4335,"lon":115.5012,"puntuation":3.3,"address":"Suite 57"},
{"id":791,"name":"Aharon","lat":-19.9245018,"lon":-43.9352376,"puntuation":3.2,"address":"2nd Floor"},
{"id":792,"name":"Karry","lat":9.7639,"lon":14.1539,"puntuation":4.8,"address":"Room 1667"},
{"id":793,"name":"Katinka","lat":-7.3677628,"lon":110.1209019,"puntuation":1.2,"address":"Room 1399"},
{"id":794,"name":"Inessa","lat":39.912288,"lon":116.365867,"puntuation":2.2,"address":"14th Floor"},
{"id":795,"name":"Tamar","lat":62.9663709,"lon":27.6707397,"puntuation":2.1,"address":"Apt 83"},
{"id":796,"name":"Tanitansy","lat":63.0706703,"lon":21.6601286,"puntuation":4.1,"address":"PO Box 9015"},
{"id":797,"name":"Hilarius","lat":19.4458447,"lon":-99.1497664,"puntuation":4.2,"address":"12th Floor"},
{"id":798,"name":"Cam","lat":46.4536674,"lon":15.6777494,"puntuation":1.8,"address":"Suite 32"},
{"id":799,"name":"Bailie","lat":-31.4311903,"lon":-62.0729285,"puntuation":2.8,"address":"Room 1064"},
{"id":800,"name":"Tobe","lat":54.1451,"lon":45.1444,"puntuation":5.0,"address":"Apt 217"},
{"id":801,"name":"Ebenezer","lat":-3.2581112,"lon":-79.9553924,"puntuation":1.8,"address":"PO Box 58933"},
{"id":802,"name":"Lilllie","lat":-8.0941273,"lon":112.274168,"puntuation":2.5,"address":"13th Floor"},
{"id":803,"name":"Shelley","lat":52.783041,"lon":126.540917,"puntuation":2.7,"address":"Apt 896"},
{"id":804,"name":"Barney","lat":-9.659525,"lon":119.0750837,"puntuation":4.7,"address":"Room 1304"},
{"id":805,"name":"Donovan","lat":26.159433,"lon":100.993355,"puntuation":2.6,"address":"Room 1710"},
{"id":806,"name":"Alfreda","lat":26.087511,"lon":107.924631,"puntuation":2.7,"address":"Room 1982"},
{"id":807,"name":"Erin","lat":55.0615034,"lon":59.9082587,"puntuation":2.1,"address":"Apt 1275"},
{"id":808,"name":"Danya","lat":-32.968211,"lon":-60.6752261,"puntuation":2.2,"address":"Apt 1097"},
{"id":809,"name":"Vilma","lat":31.16899,"lon":121.424679,"puntuation":1.9,"address":"PO Box 78279"},
{"id":810,"name":"Jemmie","lat":38.013999,"lon":24.4198995,"puntuation":2.6,"address":"Room 100"},
{"id":811,"name":"Elfie","lat":2.7523555,"lon":98.5116903,"puntuation":4.4,"address":"Room 274"},
{"id":812,"name":"Clint","lat":19.6775122,"lon":-99.0329594,"puntuation":3.0,"address":"Apt 1167"},
{"id":813,"name":"Orel","lat":-7.7766561,"lon":112.1579249,"puntuation":1.6,"address":"Room 1219"},
{"id":814,"name":"Shanon","lat":18.3417854,"lon":-99.5171206,"puntuation":4.3,"address":"Suite 77"},
{"id":815,"name":"Jesselyn","lat":10.9423,"lon":124.6806,"puntuation":3.1,"address":"Room 1683"},
{"id":816,"name":"Gregoor","lat":-8.0450166,"lon":113.87632,"puntuation":4.8,"address":"Room 1100"},
{"id":817,"name":"Marni","lat":41.3461777,"lon":-7.982286,"puntuation":1.7,"address":"Apt 580"},
{"id":818,"name":"Sheila-kathryn","lat":49.880883,"lon":19.217373,"puntuation":2.7,"address":"Suite 88"},
{"id":819,"name":"Carolyn","lat":43.5072348,"lon":-83.9638426,"puntuation":3.9,"address":"PO Box 30017"},
{"id":820,"name":"Lotty","lat":29.181201,"lon":110.138102,"puntuation":4.4,"address":"Room 1606"},
{"id":821,"name":"Ariadne","lat":11.2934532,"lon":2.435696,"puntuation":3.4,"address":"3rd Floor"},
{"id":822,"name":"Ynez","lat":15.1042521,"lon":101.0768333,"puntuation":1.5,"address":"Suite 15"},
{"id":823,"name":"Ardenia","lat":66.000926,"lon":24.3895975,"puntuation":3.9,"address":"16th Floor"},
{"id":824,"name":"Cary","lat":34.9815148,"lon":-3.1528692,"puntuation":1.3,"address":"Suite 97"},
{"id":825,"name":"Valida","lat":28.945479,"lon":120.379714,"puntuation":4.7,"address":"Suite 32"},
{"id":826,"name":"Trude","lat":35.9136535,"lon":47.0266848,"puntuation":1.4,"address":"13th Floor"},
{"id":827,"name":"Morley","lat":45.2384571,"lon":-0.8106708,"puntuation":3.3,"address":"2nd Floor"},
{"id":828,"name":"Philbert","lat":3.6598028,"lon":-76.4794435,"puntuation":1.6,"address":"Apt 87"},
{"id":829,"name":"Brigid","lat":19.3803931,"lon":-99.1476908,"puntuation":4.2,"address":"Room 781"},
{"id":830,"name":"Caesar","lat":18.9345715,"lon":-70.4044232,"puntuation":2.5,"address":"Room 1141"},
{"id":831,"name":"Mozelle","lat":-38.9396947,"lon":-68.2376186,"puntuation":3.1,"address":"Suite 1"},
{"id":832,"name":"Candra","lat":19.1414862,"lon":105.6257432,"puntuation":1.4,"address":"Apt 1451"},
{"id":833,"name":"Martelle","lat":45.3853069,"lon":14.4851066,"puntuation":3.4,"address":"Apt 1515"},
{"id":834,"name":"Joeann","lat":7.8870586,"lon":98.3854869,"puntuation":1.1,"address":"PO Box 19531"},
{"id":835,"name":"Rocky","lat":36.7027082,"lon":67.7079491,"puntuation":3.7,"address":"Suite 83"},
{"id":836,"name":"Ileana","lat":60.0203894,"lon":41.0711197,"puntuation":3.2,"address":"Room 1647"},
{"id":837,"name":"Carlyle","lat":-20.2687728,"lon":-50.5316737,"puntuation":4.4,"address":"Room 1428"},
{"id":838,"name":"Sayre","lat":-2.5101996,"lon":-45.1120424,"puntuation":2.1,"address":"PO Box 1679"},
{"id":839,"name":"Korey","lat":20.1566488,"lon":-76.947022,"puntuation":1.2,"address":"6th Floor"},
{"id":840,"name":"Mirna","lat":38.979636,"lon":117.395313,"puntuation":1.5,"address":"Suite 78"},
{"id":841,"name":"Alvin","lat":-15.6835726,"lon":-72.2704277,"puntuation":3.2,"address":"Apt 1734"},
{"id":842,"name":"Denni","lat":22.254836,"lon":113.467503,"puntuation":1.2,"address":"11th Floor"},
{"id":843,"name":"Anallese","lat":40.63181,"lon":122.526443,"puntuation":4.5,"address":"PO Box 98425"},
{"id":844,"name":"Blair","lat":-7.3003622,"lon":111.9492682,"puntuation":4.3,"address":"3rd Floor"},
{"id":845,"name":"Jaquelin","lat":-10.249091,"lon":-48.3242858,"puntuation":1.4,"address":"Suite 30"},
{"id":846,"name":"Gill","lat":-3.7436735,"lon":-73.2516326,"puntuation":2.7,"address":"PO Box 62512"},
{"id":847,"name":"Dorene","lat":50.6797247,"lon":14.6466542,"puntuation":2.1,"address":"1st Floor"},
{"id":848,"name":"Karel","lat":42.0952531,"lon":-8.2507177,"puntuation":2.0,"address":"Suite 78"},
{"id":849,"name":"Talya","lat":39.964054,"lon":116.714967,"puntuation":2.8,"address":"Room 1157"},
{"id":850,"name":"Meade","lat":36.182571,"lon":116.768358,"puntuation":1.2,"address":"1st Floor"},
{"id":851,"name":"Ariadne","lat":7.75778,"lon":124.73361,"puntuation":3.4,"address":"Room 282"},
{"id":852,"name":"Elna","lat":29.795049,"lon":93.850039,"puntuation":3.8,"address":"Apt 1497"},
{"id":853,"name":"Garrik","lat":-6.8783,"lon":106.3166,"puntuation":2.8,"address":"5th Floor"},
{"id":854,"name":"Shane","lat":40.9629693,"lon":20.6377502,"puntuation":3.9,"address":"Suite 7"},
{"id":855,"name":"Erie","lat":-5.6861147,"lon":-35.2697802,"puntuation":4.2,"address":"Suite 67"},
{"id":856,"name":"Palm","lat":59.3974738,"lon":27.2797506,"puntuation":1.1,"address":"Suite 9"},
{"id":857,"name":"Ursa","lat":15.2884878,"lon":120.5714361,"puntuation":4.6,"address":"Suite 64"},
{"id":858,"name":"Thorpe","lat":13.09573,"lon":103.2022055,"puntuation":2.6,"address":"11th Floor"},
{"id":859,"name":"Danice","lat":-8.6601628,"lon":117.4615118,"puntuation":1.9,"address":"Room 960"},
{"id":860,"name":"Beltran","lat":-23.0510503,"lon":-47.838004,"puntuation":1.6,"address":"Suite 19"},
{"id":861,"name":"Benedicta","lat":52.958682,"lon":48.319948,"puntuation":3.1,"address":"8th Floor"},
{"id":862,"name":"Theobald","lat":-8.1844859,"lon":113.6680747,"puntuation":2.2,"address":"Room 1494"},
{"id":863,"name":"Germain","lat":23.684162,"lon":116.527977,"puntuation":4.0,"address":"Apt 1352"},
{"id":864,"name":"Donal","lat":-6.745694,"lon":111.0438053,"puntuation":4.2,"address":"Suite 80"},
{"id":865,"name":"Aubert","lat":39.3881052,"lon":49.2413743,"puntuation":4.1,"address":"PO Box 71297"},
{"id":866,"name":"Guinevere","lat":38.6030067,"lon":140.3923791,"puntuation":3.6,"address":"Apt 1543"},
{"id":867,"name":"Zack","lat":34.747834,"lon":113.022496,"puntuation":3.4,"address":"13th Floor"},
{"id":868,"name":"Tiphany","lat":20.7156807,"lon":-77.9938497,"puntuation":2.7,"address":"11th Floor"},
{"id":869,"name":"Heda","lat":36.4583521,"lon":140.1060931,"puntuation":4.1,"address":"Room 292"},
{"id":870,"name":"Jacquelin","lat":59.4874462,"lon":17.8147061,"puntuation":2.8,"address":"Suite 96"},
{"id":871,"name":"Aguistin","lat":51.30787,"lon":17.72016,"puntuation":4.6,"address":"PO Box 93672"},
{"id":872,"name":"Merry","lat":49.2484813,"lon":17.7516417,"puntuation":2.3,"address":"PO Box 75475"},
{"id":873,"name":"Gareth","lat":24.936417,"lon":98.482754,"puntuation":4.2,"address":"8th Floor"},
{"id":874,"name":"Vidovik","lat":-6.927607,"lon":107.663944,"puntuation":4.6,"address":"20th Floor"},
{"id":875,"name":"Tanney","lat":-26.360436,"lon":28.451357,"puntuation":1.2,"address":"Apt 1100"},
{"id":876,"name":"Cece","lat":1.130349,"lon":-77.550994,"puntuation":2.0,"address":"Apt 1851"},
{"id":877,"name":"Colly","lat":55.5747494,"lon":62.0725298,"puntuation":3.4,"address":"Apt 311"},
{"id":878,"name":"Winnie","lat":49.3357569,"lon":22.2868645,"puntuation":2.9,"address":"Room 381"},
{"id":879,"name":"Lillis","lat":36.1336188,"lon":139.2101113,"puntuation":1.7,"address":"Apt 1136"},
{"id":880,"name":"Kirbie","lat":-6.3629515,"lon":105.9156477,"puntuation":2.7,"address":"Suite 37"},
{"id":881,"name":"Kathie","lat":28.220406,"lon":121.038129,"puntuation":4.3,"address":"Apt 1328"},
{"id":882,"name":"Deborah","lat":52.6863286,"lon":5.7569797,"puntuation":1.3,"address":"Suite 41"},
{"id":883,"name":"Bondon","lat":9.1742107,"lon":-79.5687728,"puntuation":3.9,"address":"Apt 1168"},
{"id":884,"name":"Pierce","lat":46.05007,"lon":-73.43245,"puntuation":1.4,"address":"Room 638"},
{"id":885,"name":"Essy","lat":41.4833449,"lon":-8.2551219,"puntuation":3.7,"address":"8th Floor"},
{"id":886,"name":"Stanislaus","lat":36.6914464,"lon":24.3935655,"puntuation":1.9,"address":"PO Box 36846"},
{"id":887,"name":"Daisy","lat":48.4100734,"lon":-4.4706255,"puntuation":2.3,"address":"Suite 38"},
{"id":888,"name":"Dan","lat":-11.3535985,"lon":40.3522402,"puntuation":1.8,"address":"Room 892"},
{"id":889,"name":"Dew","lat":19.4871158,"lon":-99.286528,"puntuation":2.0,"address":"Room 525"},
{"id":890,"name":"Kimbell","lat":47.0200861,"lon":-68.1434963,"puntuation":2.5,"address":"Suite 40"},
{"id":891,"name":"Hersch","lat":-13.4017106,"lon":-44.2097085,"puntuation":3.0,"address":"7th Floor"},
{"id":892,"name":"Carie","lat":-8.0871,"lon":111.6426,"puntuation":1.1,"address":"10th Floor"},
{"id":893,"name":"Terrill","lat":43.4945737,"lon":5.8978018,"puntuation":1.9,"address":"11th Floor"},
{"id":894,"name":"Margret","lat":-22.6604341,"lon":-50.4187813,"puntuation":2.2,"address":"PO Box 93747"},
{"id":895,"name":"Muriel","lat":-17.9808139,"lon":-63.3697226,"puntuation":3.3,"address":"PO Box 23441"},
{"id":896,"name":"Thorvald","lat":-12.417342,"lon":-38.7158702,"puntuation":2.6,"address":"11th Floor"},
{"id":897,"name":"Alyse","lat":26.242301,"lon":105.943312,"puntuation":1.6,"address":"Apt 147"},
{"id":898,"name":"Marwin","lat":-20.4894632,"lon":-47.7834888,"puntuation":1.8,"address":"3rd Floor"},
{"id":899,"name":"Tonia","lat":5.554592,"lon":-73.865089,"puntuation":3.4,"address":"PO Box 74203"},
{"id":900,"name":"Vanya","lat":31.7566264,"lon":-106.4852997,"puntuation":3.7,"address":"PO Box 37909"},
{"id":901,"name":"Nettie","lat":-7.0179497,"lon":-52.3613378,"puntuation":4.6,"address":"Suite 63"},
{"id":902,"name":"Domenic","lat":24.781681,"lon":118.552365,"puntuation":4.7,"address":"10th Floor"},
{"id":903,"name":"Gizela","lat":-6.907,"lon":114.0174,"puntuation":4.7,"address":"Room 1101"},
{"id":904,"name":"Aridatha","lat":41.5728211,"lon":23.7282719,"puntuation":4.6,"address":"7th Floor"},
{"id":905,"name":"Cari","lat":32.388854,"lon":109.361864,"puntuation":2.4,"address":"Suite 15"},
{"id":906,"name":"Ransell","lat":45.3250638,"lon":15.6962323,"puntuation":1.9,"address":"6th Floor"},
{"id":907,"name":"Helli","lat":11.5742086,"lon":37.3613533,"puntuation":2.2,"address":"Suite 16"},
{"id":908,"name":"Bab","lat":53.9818262,"lon":22.0325128,"puntuation":3.7,"address":"14th Floor"},
{"id":909,"name":"Tami","lat":34.668335,"lon":136.3670325,"puntuation":4.5,"address":"2nd Floor"},
{"id":910,"name":"Beatriz","lat":22.974898,"lon":113.993115,"puntuation":2.6,"address":"PO Box 8141"},
{"id":911,"name":"Ban","lat":23.021478,"lon":113.121435,"puntuation":3.1,"address":"Apt 394"},
{"id":912,"name":"Cristabel","lat":34.341574,"lon":108.93977,"puntuation":3.6,"address":"Suite 89"},
{"id":913,"name":"Reuben","lat":37.444498,"lon":114.498761,"puntuation":3.0,"address":"PO Box 19822"},
{"id":914,"name":"Josephine","lat":-12.94844,"lon":-72.667999,"puntuation":2.1,"address":"Suite 98"},
{"id":915,"name":"Barri","lat":-8.3357786,"lon":-36.4235973,"puntuation":3.7,"address":"Apt 510"},
{"id":916,"name":"Cathleen","lat":56.178249,"lon":37.902732,"puntuation":4.9,"address":"Suite 84"},
{"id":917,"name":"Zenia","lat":42.2368,"lon":46.83073,"puntuation":4.0,"address":"16th Floor"},
{"id":918,"name":"Alyse","lat":64.7457113,"lon":20.9568227,"puntuation":1.9,"address":"Apt 1894"},
{"id":919,"name":"Querida","lat":26.608357,"lon":118.481377,"puntuation":4.0,"address":"19th Floor"},
{"id":920,"name":"Bordie","lat":-6.5864219,"lon":106.7441048,"puntuation":4.3,"address":"9th Floor"},
{"id":921,"name":"Kaela","lat":37.8512533,"lon":140.6090975,"puntuation":3.0,"address":"Room 1719"},
{"id":922,"name":"Bunnie","lat":29.2187967,"lon":19.2058436,"puntuation":1.3,"address":"10th Floor"},
{"id":923,"name":"Tarah","lat":51.2343307,"lon":58.4814355,"puntuation":3.5,"address":"Apt 1000"},
{"id":924,"name":"Fedora","lat":36.9262849,"lon":-76.0203323,"puntuation":2.7,"address":"Room 1472"},
{"id":925,"name":"Larry","lat":45.7055658,"lon":-73.6072341,"puntuation":2.2,"address":"Suite 70"},
{"id":926,"name":"Raynor","lat":11.9924294,"lon":105.4645408,"puntuation":4.3,"address":"Room 170"},
{"id":927,"name":"Tiler","lat":-34.4765431,"lon":-58.7226377,"puntuation":3.8,"address":"Apt 1253"},
{"id":928,"name":"Hurley","lat":-4.8149897,"lon":-38.1054495,"puntuation":2.2,"address":"Room 75"},
{"id":929,"name":"Baird","lat":18.1436128,"lon":-94.4452233,"puntuation":4.9,"address":"Suite 38"},
{"id":930,"name":"Matilde","lat":21.493713,"lon":110.404001,"puntuation":2.1,"address":"PO Box 1354"},
{"id":931,"name":"Hymie","lat":53.3004898,"lon":-6.2634596,"puntuation":1.3,"address":"PO Box 27112"},
{"id":932,"name":"Salvidor","lat":-8.0644078,"lon":113.7662578,"puntuation":1.6,"address":"15th Floor"},
{"id":933,"name":"Osmund","lat":37.163269,"lon":9.757347,"puntuation":2.3,"address":"Suite 57"},
{"id":934,"name":"Delila","lat":11.9647465,"lon":43.2884071,"puntuation":1.5,"address":"Suite 79"},
{"id":935,"name":"Christiane","lat":46.524052,"lon":41.5008684,"puntuation":2.7,"address":"15th Floor"},
{"id":936,"name":"Delmer","lat":51.3312362,"lon":42.9238906,"puntuation":1.3,"address":"PO Box 63401"},
{"id":937,"name":"Merilee","lat":-0.358417,"lon":100.219498,"puntuation":1.6,"address":"Room 1994"},
{"id":938,"name":"Kahlil","lat":45.922009,"lon":6.1266746,"puntuation":2.7,"address":"Suite 84"},
{"id":939,"name":"Alvan","lat":-33.8989712,"lon":151.2149792,"puntuation":1.2,"address":"Suite 27"},
{"id":940,"name":"Romain","lat":55.564846,"lon":65.083549,"puntuation":1.1,"address":"Suite 12"},
{"id":941,"name":"Reeba","lat":-9.4061251,"lon":-38.2163717,"puntuation":4.0,"address":"PO Box 5583"},
{"id":942,"name":"Rebekkah","lat":35.4441266,"lon":136.3420789,"puntuation":3.8,"address":"PO Box 95059"},
{"id":943,"name":"Lauryn","lat":14.700389,"lon":121.090098,"puntuation":2.0,"address":"Room 970"},
{"id":944,"name":"Amii","lat":39.8314629,"lon":116.3220944,"puntuation":4.9,"address":"3rd Floor"},
{"id":945,"name":"Marlena","lat":-22.9304477,"lon":-47.0897445,"puntuation":1.8,"address":"9th Floor"},
{"id":946,"name":"Nial","lat":-8.4880061,"lon":117.4703209,"puntuation":1.4,"address":"Room 1495"},
{"id":947,"name":"Zahara","lat":62.7184038,"lon":32.7414584,"puntuation":1.2,"address":"Suite 22"},
{"id":948,"name":"Heather","lat":-6.9034154,"lon":106.4206269,"puntuation":2.3,"address":"Suite 7"},
{"id":949,"name":"Rebekkah","lat":50.85237,"lon":19.9677201,"puntuation":2.0,"address":"Apt 795"},
{"id":950,"name":"Ebonee","lat":49.9936338,"lon":20.0199888,"puntuation":1.8,"address":"Room 1086"},
{"id":951,"name":"Alfons","lat":40.8123781,"lon":49.4656047,"puntuation":4.2,"address":"Suite 15"},
{"id":952,"name":"Anatola","lat":7.906903,"lon":9.660661,"puntuation":1.2,"address":"16th Floor"},
{"id":953,"name":"Giraud","lat":-8.3010912,"lon":112.1489829,"puntuation":3.1,"address":"11th Floor"},
{"id":954,"name":"Leroy","lat":49.8687831,"lon":16.9274876,"puntuation":1.9,"address":"Room 28"},
{"id":955,"name":"Humbert","lat":39.982718,"lon":117.078294,"puntuation":2.6,"address":"18th Floor"},
{"id":956,"name":"Klaus","lat":31.354368,"lon":114.982355,"puntuation":2.9,"address":"Room 670"},
{"id":957,"name":"Wright","lat":-6.3207152,"lon":-47.7834888,"puntuation":3.9,"address":"Room 948"},
{"id":958,"name":"Madelena","lat":13.4956,"lon":123.289,"puntuation":3.7,"address":"Suite 54"},
{"id":959,"name":"Bearnard","lat":-3.5273652,"lon":128.2849463,"puntuation":4.2,"address":"Suite 79"},
{"id":960,"name":"Kyrstin","lat":0.783255,"lon":102.069801,"puntuation":1.1,"address":"PO Box 15622"},
{"id":961,"name":"Ave","lat":-8.7035662,"lon":116.2245553,"puntuation":4.8,"address":"Room 1436"},
{"id":962,"name":"Karee","lat":35.580555,"lon":100.761196,"puntuation":4.4,"address":"Suite 62"},
{"id":963,"name":"Madlin","lat":34.4311398,"lon":8.7756556,"puntuation":1.9,"address":"Apt 1731"},
{"id":964,"name":"Robyn","lat":-7.4565208,"lon":108.0272646,"puntuation":2.7,"address":"Room 1388"},
{"id":965,"name":"Elsy","lat":-20.4438418,"lon":-44.7653198,"puntuation":1.8,"address":"Apt 104"},
{"id":966,"name":"Shaw","lat":26.608357,"lon":118.481377,"puntuation":3.2,"address":"PO Box 19857"},
{"id":967,"name":"Mayor","lat":-7.0431437,"lon":111.3679689,"puntuation":4.2,"address":"Room 769"},
{"id":968,"name":"Wendye","lat":49.1744199,"lon":16.6394119,"puntuation":2.6,"address":"Apt 784"},
{"id":969,"name":"Anastasie","lat":41.1150364,"lon":-8.2958281,"puntuation":4.5,"address":"Apt 646"},
{"id":970,"name":"Dorree","lat":16.5303424,"lon":-90.1894032,"puntuation":2.5,"address":"PO Box 28915"},
{"id":971,"name":"Valera","lat":35.6479869,"lon":36.6795425,"puntuation":3.3,"address":"11th Floor"},
{"id":972,"name":"Dorise","lat":27.632803,"lon":111.793796,"puntuation":2.9,"address":"20th Floor"},
{"id":973,"name":"Tadio","lat":-6.9579,"lon":113.1741,"puntuation":1.9,"address":"PO Box 98425"},
{"id":974,"name":"Hermina","lat":23.028301,"lon":115.84573,"puntuation":3.7,"address":"Apt 1550"},
{"id":975,"name":"Sophey","lat":37.3612982,"lon":-8.3789043,"puntuation":4.4,"address":"Suite 56"},
{"id":976,"name":"Lyn","lat":51.7555981,"lon":18.3095531,"puntuation":2.8,"address":"Suite 67"},
{"id":977,"name":"Freddie","lat":-6.2736138,"lon":106.6717451,"puntuation":1.6,"address":"Suite 11"},
{"id":978,"name":"Sybilla","lat":44.8178615,"lon":-0.2498116,"puntuation":4.6,"address":"16th Floor"},
{"id":979,"name":"Haley","lat":42.7989149,"lon":133.0298493,"puntuation":4.3,"address":"PO Box 23036"},
{"id":980,"name":"Jordan","lat":9.9356473,"lon":-84.0792946,"puntuation":1.1,"address":"Suite 87"},
{"id":981,"name":"Roosevelt","lat":50.270819,"lon":85.613152,"puntuation":3.8,"address":"9th Floor"},
{"id":982,"name":"Ragnar","lat":-10.2024984,"lon":123.5988052,"puntuation":2.2,"address":"Suite 52"},
{"id":983,"name":"Desdemona","lat":59.9522962,"lon":10.7668266,"puntuation":4.4,"address":"6th Floor"},
{"id":984,"name":"Paolina","lat":56.5496799,"lon":84.0751534,"puntuation":2.7,"address":"PO Box 18390"},
{"id":985,"name":"Kira","lat":9.6470386,"lon":125.602355,"puntuation":3.6,"address":"4th Floor"},
{"id":986,"name":"Frederik","lat":-8.4709546,"lon":118.8276355,"puntuation":4.2,"address":"Suite 25"},
{"id":987,"name":"Roselin","lat":14.5699334,"lon":121.0204582,"puntuation":3.5,"address":"Suite 21"},
{"id":988,"name":"Pyotr","lat":48.9014667,"lon":37.0181437,"puntuation":3.1,"address":"Apt 1209"},
{"id":989,"name":"Melina","lat":47.4214312,"lon":92.2225067,"puntuation":1.3,"address":"Apt 1594"},
{"id":990,"name":"Leta","lat":22.481274,"lon":113.217762,"puntuation":1.4,"address":"Room 573"},
{"id":991,"name":"Marla","lat":45.08338,"lon":-73.36585,"puntuation":4.6,"address":"Apt 1756"},
{"id":992,"name":"Mommy","lat":-9.435,"lon":119.1866,"puntuation":1.1,"address":"18th Floor"},
{"id":993,"name":"Aryn","lat":12.647214,"lon":102.0032957,"puntuation":3.7,"address":"Room 1574"},
{"id":994,"name":"Ashlan","lat":52.2424706,"lon":6.2281859,"puntuation":1.1,"address":"Apt 739"},