[{"id":1,"name":"Manolo","lat":26.751281,"lon":116.19359,"puntuation":3.2,"address":"764 Canary Drive"},
{"id":2,"name":"Vonny","lat":-17.7050221,"lon":-46.7478493,"puntuation":3.7,"address":"724 Trailsway Point"},
{"id":3,"name":"Petra","lat":25.5810414,"lon":89.6616352,"puntuation":3.4,"address":"66 Burrows Park"},
{"id":4,"name":"Zebadiah","lat":19.6031486,"lon":-99.0550357,"puntuation":2.1,"address":"644 Welch Way"},
{"id":5,"name":"Tobye","lat":19.266226,"lon":109.792761,"puntuation":4.4,"address":"19692 Express Park"},
{"id":6,"name":"Jarred","lat":-7.5229136,"lon":108.0509743,"puntuation":2.9,"address":"333 Leroy Park"},
{"id":7,"name":"Ninette","lat":34.5235452,"lon":43.7190392,"puntuation":1.0,"address":"99946 Mandrake Court"},
{"id":8,"name":"Alyosha","lat":-40.3313422,"lon":-72.9485366,"puntuation":1.0,"address":"2773 Dryden Terrace"},
{"id":9,"name":"Ernest","lat":31.021461,"lon":121.3128539,"puntuation":3.8,"address":"8728 Corscot Lane"},
{"id":10,"name":"Stepha","lat":-6.8333257,"lon":106.6971352,"puntuation":1.0,"address":"1804 Bartillon Street"},
{"id":11,"name":"Laetitia","lat":31.2171769,"lon":121.5316367,"puntuation":4.2,"address":"27559 Russell Way"},
{"id":12,"name":"Rozele","lat":46.150266,"lon":-67.6033952,"puntuation":3.5,"address":"7864 Montana Court"},
{"id":13,"name":"Jocelyn","lat":5.5543995,"lon":5.7932008,"puntuation":4.1,"address":"77 Pleasure Terrace"},
{"id":14,"name":"Diego","lat":58.5023638,"lon":13.1702373,"puntuation":4.1,"address":"487 Porter Circle"},
{"id":15,"name":"Issy","lat":33.5583385,"lon":36.3660597,"puntuation":3.1,"address":"85 Messerschmidt Alley"},
{"id":16,"name":"Rubie","lat":42.1261418,"lon":59.6665153,"puntuation":5.0,"address":"16790 Washington Plaza"},
{"id":17,"name":"Rhonda","lat":-8.602068,"lon":116.195655,"puntuation":4.1,"address":"8 Cherokee Terrace"},
{"id":18,"name":"Olly","lat":-7.5511508,"lon":111.6547689,"puntuation":4.6,"address":"979 Lakewood Avenue"},
{"id":19,"name":"Frannie","lat":52.0402452,"lon":33.9293828,"puntuation":3.0,"address":"2218 Toban Lane"},
{"id":20,"name":"Thomas","lat":45.8486646,"lon":-66.4812859,"puntuation":2.1,"address":"256 Tennessee Court"},
{"id":21,"name":"Katalin","lat":39.5691202,"lon":45.9004974,"puntuation":3.8,"address":"945 Banding Alley"},
{"id":22,"name":"Karel","lat":-31.6434099,"lon":29.5358464,"puntuation":4.4,"address":"38 Shelley Pass"},
{"id":23,"name":"Susanne","lat":40.376804,"lon":119.776977,"puntuation":1.5,"address":"8 Corry Plaza"},
{"id":24,"name":"Eve","lat":14.5508865,"lon":121.0075554,"puntuation":4.2,"address":"53542 Debra Alley"},
{"id":25,"name":"Cordy","lat":9.0144214,"lon":-79.5125662,"puntuation":1.0,"address":"039 Holmberg Hill"},
{"id":26,"name":"Doy","lat":43.32472,"lon":141.85861,"puntuation":4.8,"address":"259 Fair Oaks Road"},
{"id":27,"name":"Timothy","lat":22.4217587,"lon":89.0445636,"puntuation":4.6,"address":"10269 Service Junction"},
{"id":28,"name":"Sarah","lat":14.7044701,"lon":121.0519495,"puntuation":1.2,"address":"340 Lien Avenue"},
{"id":29,"name":"Willard","lat":6.6101493,"lon":0.4785495,"puntuation":1.7,"address":"27024 Northport Junction"},
{"id":30,"name":"Danyelle","lat":31.363043,"lon":72.98757,"puntuation":2.0,"address":"71629 Cherokee Park"},
{"id":31,"name":"Ellissa","lat":27.335916,"lon":113.500997,"puntuation":4.1,"address":"9766 Lighthouse Bay Way"},
{"id":32,"name":"Cal","lat":49.3157944,"lon":0.5399323,"puntuation":1.9,"address":"2148 Boyd Alley"},
{"id":33,"name":"Inez","lat":28.003,"lon":86.303,"puntuation":1.1,"address":"24456 Manufacturers Crossing"},
{"id":34,"name":"Anders","lat":39.812073,"lon":116.528023,"puntuation":2.9,"address":"9292 North Circle"},
{"id":35,"name":"Jimmie","lat":61.5549021,"lon":-6.8050501,"puntuation":3.0,"address":"8374 Melby Place"},
{"id":36,"name":"Curran","lat":56.3815664,"lon":13.9920633,"puntuation":2.9,"address":"84 Shoshone Lane"},
{"id":37,"name":"Ronda","lat":40.69,"lon":-73.81,"puntuation":5.0,"address":"815 Linden Hill"},
{"id":38,"name":"Creigh","lat":-8.0604,"lon":111.5793,"puntuation":2.8,"address":"21217 Swallow Pass"},
{"id":39,"name":"Raphael","lat":56.7115456,"lon":16.3569786,"puntuation":4.0,"address":"00 New Castle Drive"},
{"id":40,"name":"Gail","lat":-6.1891552,"lon":106.8357854,"puntuation":2.5,"address":"300 Express Avenue"},
{"id":41,"name":"Aldric","lat":44.3559175,"lon":41.5113076,"puntuation":2.2,"address":"64 Mandrake Center"},
{"id":42,"name":"Lindsay","lat":-6.9013005,"lon":111.9611919,"puntuation":4.9,"address":"2478 Browning Avenue"},
{"id":43,"name":"Justine","lat":53.6944002,"lon":17.5569252,"puntuation":2.4,"address":"26 Vera Pass"},
{"id":44,"name":"Marylinda","lat":30.7361622,"lon":72.6661867,"puntuation":4.8,"address":"3 Melody Junction"},
{"id":45,"name":"Arturo","lat":27.096969,"lon":119.632262,"puntuation":2.1,"address":"7 Valley Edge Place"},
{"id":46,"name":"Roz","lat":-7.8808775,"lon":-40.0810267,"puntuation":4.1,"address":"46281 Cottonwood Terrace"},
{"id":47,"name":"Bertram","lat":-7.7955798,"lon":110.3694896,"puntuation":4.3,"address":"0511 Northridge Alley"},
{"id":48,"name":"Marjorie","lat":27.7076143,"lon":41.9196471,"puntuation":3.5,"address":"7 Burrows Point"},
{"id":49,"name":"Worth","lat":51.758626,"lon":19.3010614,"puntuation":1.4,"address":"4 Walton Place"},
{"id":50,"name":"Joey","lat":-6.8243672,"lon":110.7880536,"puntuation":4.7,"address":"46 Scott Trail"},
{"id":51,"name":"Kevin","lat":39.233118,"lon":26.2072301,"puntuation":2.8,"address":"3 6th Street"},
{"id":52,"name":"Michel","lat":40.8508894,"lon":20.7256564,"puntuation":2.4,"address":"71771 Eastlawn Avenue"},
{"id":53,"name":"Chiquia","lat":-7.6295345,"lon":108.1665855,"puntuation":2.0,"address":"61009 Sunbrook Crossing"},
{"id":54,"name":"Dorian","lat":-9.563558,"lon":119.2472527,"puntuation":1.7,"address":"7053 David Drive"},
{"id":55,"name":"Stephani","lat":30.274084,"lon":120.15507,"puntuation":1.1,"address":"52274 Sherman Place"},
{"id":56,"name":"Velma","lat":51.7157581,"lon":17.2266796,"puntuation":4.2,"address":"084 Carberry Pass"},
{"id":57,"name":"Matty","lat":45.5483729,"lon":-75.2916118,"puntuation":2.4,"address":"7 Briar Crest Place"},
{"id":58,"name":"Natalina","lat":40.97465,"lon":117.943348,"puntuation":4.3,"address":"8414 East Crossing"},
{"id":59,"name":"Schuyler","lat":6.3833462,"lon":-75.5858886,"puntuation":4.1,"address":"261 Maple Center"},
{"id":60,"name":"Ronnica","lat":29.509067,"lon":110.300741,"puntuation":1.5,"address":"1305 Sutteridge Circle"},
{"id":61,"name":"Norbie","lat":50.43302,"lon":21.28065,"puntuation":4.5,"address":"05011 Warner Court"},
{"id":62,"name":"Glyn","lat":29.0654415,"lon":120.2512222,"puntuation":2.6,"address":"64462 Charing Cross Center"},
{"id":63,"name":"Belia","lat":15.040667,"lon":-88.3020602,"puntuation":2.4,"address":"024 Bartillon Plaza"},
{"id":64,"name":"Alexandra","lat":34.15599,"lon":64.78566,"puntuation":3.0,"address":"7223 Westridge Pass"},
{"id":65,"name":"Kiele","lat":41.5157473,"lon":-8.313469,"puntuation":4.7,"address":"5 Daystar Way"},
{"id":66,"name":"Jeanelle","lat":31.825073,"lon":119.944048,"puntuation":1.2,"address":"78 Graedel Trail"},
{"id":67,"name":"Jewel","lat":13.6224855,"lon":100.8512816,"puntuation":2.7,"address":"009 Prentice Drive"},
{"id":68,"name":"Elset","lat":22.555259,"lon":113.884019,"puntuation":1.3,"address":"1 Kings Junction"},
{"id":69,"name":"Adey","lat":48.8315157,"lon":84.606767,"puntuation":2.6,"address":"7150 Summer Ridge Junction"},
{"id":70,"name":"Isidora","lat":-8.2276154,"lon":115.1236952,"puntuation":1.1,"address":"07888 Pawling Street"},
{"id":71,"name":"Ethelbert","lat":-2.2527615,"lon":115.7101789,"puntuation":3.2,"address":"14481 Spenser Junction"},
{"id":72,"name":"Dagny","lat":46.8318267,"lon":29.4620887,"puntuation":4.4,"address":"2 Macpherson Pass"},
{"id":73,"name":"Townie","lat":48.581467,"lon":135.1523126,"puntuation":2.0,"address":"83 Merry Alley"},
{"id":74,"name":"Niels","lat":51.4938767,"lon":22.8528812,"puntuation":3.6,"address":"18175 Towne Point"},
{"id":75,"name":"Nappy","lat":-6.4153234,"lon":108.3890321,"puntuation":4.8,"address":"5296 Walton Drive"},
{"id":76,"name":"Galvan","lat":18.090238,"lon":-77.1091697,"puntuation":4.5,"address":"4 Corscot Plaza"},
{"id":77,"name":"Bel","lat":0.8275786,"lon":-77.2635038,"puntuation":4.3,"address":"1 Prentice Pass"},
{"id":78,"name":"Mayne","lat":-15.8003597,"lon":-70.3435088,"puntuation":3.8,"address":"91413 Barby Place"},
{"id":79,"name":"Teddy","lat":31.5909061,"lon":120.4927974,"puntuation":1.9,"address":"9 Nevada Avenue"},
{"id":80,"name":"Jacintha","lat":-6.7726186,"lon":110.8791343,"puntuation":1.2,"address":"9383 Fairfield Center"},
{"id":81,"name":"Iolanthe","lat":14.7596318,"lon":121.0589081,"puntuation":4.7,"address":"5 Mallard Hill"},
{"id":82,"name":"Davin","lat":-11.0216067,"lon":-77.6407258,"puntuation":2.1,"address":"174 4th Junction"},
{"id":83,"name":"Lanny","lat":29.4110744,"lon":71.6420004,"puntuation":3.9,"address":"47587 Lawn Terrace"},
{"id":84,"name":"Alley","lat":51.1480274,"lon":71.4256221,"puntuation":1.4,"address":"3295 Milwaukee Trail"},
{"id":85,"name":"Puff","lat":5.8520355,"lon":-55.2038278,"puntuation":1.9,"address":"04 Pleasure Parkway"},
{"id":86,"name":"Lon","lat":23.369136,"lon":102.214609,"puntuation":4.2,"address":"0498 Grasskamp Court"},
{"id":87,"name":"Titus","lat":52.6435136,"lon":4.7270746,"puntuation":3.8,"address":"0 Arkansas Plaza"},
{"id":88,"name":"Orella","lat":-8.759734,"lon":121.8306397,"puntuation":2.9,"address":"22 Pawling Lane"},
{"id":89,"name":"Jeni","lat":53.14214,"lon":17.60181,"puntuation":1.5,"address":"92 Acker Plaza"},
{"id":90,"name":"Dulcie","lat":50.7911439,"lon":15.0266516,"puntuation":3.7,"address":"4346 Waubesa Parkway"},
{"id":91,"name":"Billie","lat":35.4420431,"lon":136.6271698,"puntuation":1.8,"address":"335 Hanson Trail"},
{"id":92,"name":"Lorine","lat":49.26811,"lon":-100.99669,"puntuation":1.6,"address":"92563 Namekagon Court"},
{"id":93,"name":"Rourke","lat":14.8951679,"lon":-24.4945636,"puntuation":1.8,"address":"30041 Hudson Center"},
{"id":94,"name":"Modesty","lat":-20.0495323,"lon":57.584421,"puntuation":3.3,"address":"62 Johnson Center"},
{"id":95,"name":"Addy","lat":69.4976485,"lon":88.3994723,"puntuation":3.9,"address":"53 Cherokee Point"},
{"id":96,"name":"Frazer","lat":62.416327,"lon":29.9016349,"puntuation":1.1,"address":"098 Towne Point"},
{"id":97,"name":"Frank","lat":48.7212066,"lon":2.1222327,"puntuation":3.9,"address":"95855 Laurel Court"},
{"id":98,"name":"Udell","lat":-45.5712254,"lon":-72.068265,"puntuation":1.3,"address":"03229 Paget Drive"},
{"id":99,"name":"Ysabel","lat":39.305219,"lon":-8.6288405,"puntuation":1.3,"address":"81403 Shoshone Terrace"},
{"id":100,"name":"Marna","lat":7.2333331,"lon":124.25,"puntuation":2.6,"address":"3 Glacier Hill Street"},
{"id":101,"name":"Cece","lat":14.49052,"lon":44.13108,"puntuation":2.6,"address":"59932 Badeau Terrace"},
{"id":102,"name":"Vale","lat":-12.2848978,"lon":33.1745097,"puntuation":1.8,"address":"86 Schiller Crossing"},
{"id":103,"name":"Wainwright","lat":-9.6996,"lon":119.436,"puntuation":2.1,"address":"4 Katie Pass"},
{"id":104,"name":"Reggy","lat":34.95563,"lon":36.1983,"puntuation":3.5,"address":"5541 Sutteridge Terrace"},
{"id":105,"name":"Osgood","lat":26.560231,"lon":100.176498,"puntuation":3.0,"address":"1 Graceland Street"},
{"id":106,"name":"Koo","lat":63.6106858,"lon":26.9828477,"puntuation":4.0,"address":"1829 Express Alley"},
{"id":107,"name":"Roberto","lat":24.4752847,"lon":101.3431058,"puntuation":2.2,"address":"9192 Fisk Place"},
{"id":108,"name":"Fenelia","lat":36.123561,"lon":138.1062209,"puntuation":1.3,"address":"9 Cordelia Crossing"},
{"id":109,"name":"Hailey","lat":10.3570803,"lon":124.9696526,"puntuation":4.4,"address":"43704 Loeprich Road"},
{"id":110,"name":"Tani","lat":18.1686828,"lon":120.7050032,"puntuation":2.1,"address":"92935 Elka Road"},
{"id":111,"name":"Rodrique","lat":49.5474598,"lon":16.2620907,"puntuation":1.5,"address":"21 Shelley Crossing"},
{"id":112,"name":"Lannie","lat":60.7651227,"lon":26.7869193,"puntuation":2.0,"address":"9 Almo Road"},
{"id":113,"name":"Merralee","lat":47.1263592,"lon":28.8905763,"puntuation":3.3,"address":"83269 Loftsgordon Place"},
{"id":114,"name":"Henri","lat":38.1370922,"lon":-7.3093756,"puntuation":2.0,"address":"4463 Kings Trail"},
{"id":115,"name":"Daniella","lat":55.9588361,"lon":37.6489954,"puntuation":3.0,"address":"30958 Swallow Trail"},
{"id":116,"name":"Minta","lat":-8.5694,"lon":116.1325,"puntuation":1.7,"address":"148 Fair Oaks Center"},
{"id":117,"name":"Xenos","lat":24.660711,"lon":118.460176,"puntuation":4.4,"address":"34 Scofield Point"},
{"id":118,"name":"Trudi","lat":-34.5685748,"lon":-58.870055,"puntuation":4.8,"address":"1 Randy Trail"},
{"id":119,"name":"Demetre","lat":53.2515219,"lon":19.6135793,"puntuation":3.7,"address":"84991 Independence Street"},
{"id":120,"name":"Deva","lat":35.41211,"lon":-5.06836,"puntuation":4.7,"address":"477 Colorado Parkway"},
{"id":121,"name":"Roman","lat":22.31821,"lon":114.169943,"puntuation":3.2,"address":"2 Summerview Lane"},
{"id":122,"name":"Donnie","lat":28.705864,"lon":109.276796,"puntuation":4.3,"address":"0004 Warbler Court"},
{"id":123,"name":"Evita","lat":31.5159823,"lon":-9.0743876,"puntuation":2.6,"address":"867 Continental Avenue"},
{"id":124,"name":"Pippa","lat":10.9015165,"lon":-64.0857232,"puntuation":1.3,"address":"6 Thompson Terrace"},
{"id":125,"name":"Gianni","lat":15.259569,"lon":-61.3749796,"puntuation":1.3,"address":"9931 Talmadge Center"},
{"id":126,"name":"Berni","lat":-7.4207981,"lon":111.6243377,"puntuation":4.4,"address":"142 Corry Avenue"},
{"id":127,"name":"Astrid","lat":32.047243,"lon":44.3709408,"puntuation":3.2,"address":"0388 Canary Pass"},
{"id":128,"name":"Barnabas","lat":-8.4456045,"lon":114.1142079,"puntuation":1.7,"address":"30 Southridge Junction"},
{"id":129,"name":"Kalina","lat":-8.3960371,"lon":115.5325797,"puntuation":1.7,"address":"80 Sutherland Pass"},
{"id":130,"name":"Hammad","lat":-6.921773,"lon":107.61049,"puntuation":4.9,"address":"55 6th Circle"},
{"id":131,"name":"Gavin","lat":55.8824,"lon":37.489685,"puntuation":2.9,"address":"5328 Pennsylvania Plaza"},
{"id":132,"name":"Eileen","lat":14.578621,"lon":121.0702405,"puntuation":3.0,"address":"18 Magdeline Hill"},
{"id":133,"name":"Hyacinthia","lat":49.2759132,"lon":16.4368691,"puntuation":3.8,"address":"06 Beilfuss Hill"},
{"id":134,"name":"Justine","lat":19.88374,"lon":109.745545,"puntuation":3.8,"address":"58945 Arkansas Trail"},
{"id":135,"name":"Barrie","lat":27.928835,"lon":101.280205,"puntuation":3.5,"address":"24173 Gulseth Point"},
{"id":136,"name":"Cori","lat":-9.9876076,"lon":39.6982485,"puntuation":1.3,"address":"443 Vidon Terrace"},
{"id":137,"name":"Leora","lat":41.0062832,"lon":-8.4822972,"puntuation":2.1,"address":"43 Dapin Place"},
{"id":138,"name":"Lauren","lat":27.300683,"lon":119.727073,"puntuation":3.1,"address":"9 Rieder Hill"},
{"id":139,"name":"Terri","lat":44.0461726,"lon":16.8557453,"puntuation":3.4,"address":"75 Northport Court"},
{"id":140,"name":"Carmela","lat":34.0136456,"lon":69.4307821,"puntuation":4.0,"address":"93162 Prentice Avenue"},
{"id":141,"name":"Kirbee","lat":18.4180126,"lon":-66.0671709,"puntuation":3.1,"address":"216 Lawn Plaza"},
{"id":142,"name":"Vicki","lat":55.807167,"lon":37.500595,"puntuation":2.8,"address":"8 South Junction"},
{"id":143,"name":"Johann","lat":-20.4670046,"lon":-55.7872944,"puntuation":4.1,"address":"03 Granby Circle"},
{"id":144,"name":"Jud","lat":11.7323018,"lon":6.792905,"puntuation":2.9,"address":"3 Homewood Pass"},
{"id":145,"name":"Mitchael","lat":50.2867981,"lon":16.0442852,"puntuation":3.1,"address":"2 Maryland Alley"},
{"id":146,"name":"Dayna","lat":48.9855573,"lon":17.3898527,"puntuation":1.7,"address":"16 Waywood Crossing"},
{"id":147,"name":"Pietra","lat":56.6810923,"lon":12.8148182,"puntuation":3.5,"address":"60 Fairfield Parkway"},
{"id":148,"name":"Heloise","lat":45.5257774,"lon":-73.3436918,"puntuation":3.6,"address":"1 Bluestem Crossing"},
{"id":149,"name":"Kane","lat":57.7230291,"lon":11.9323841,"puntuation":1.8,"address":"95507 Sheridan Place"},
{"id":150,"name":"Maxine","lat":37.114157,"lon":79.922211,"puntuation":3.5,"address":"65 Utah Point"},
{"id":151,"name":"Conney","lat":36.0699425,"lon":136.2452307,"puntuation":2.9,"address":"95 Drewry Street"},
{"id":152,"name":"Hattie","lat":43.6505222,"lon":-79.3990401,"puntuation":1.2,"address":"183 Hintze Terrace"},
{"id":153,"name":"Mellisent","lat":-36.8929232,"lon":174.8607024,"puntuation":3.4,"address":"22595 Miller Lane"},
{"id":154,"name":"Brittani","lat":26.394403,"lon":111.314117,"puntuation":4.1,"address":"902 Moose Trail"},
{"id":155,"name":"Ashlie","lat":-14.658228,"lon":49.6452092,"puntuation":4.4,"address":"2 Ridgeview Place"},
{"id":156,"name":"Joanie","lat":-7.811056,"lon":108.438797,"puntuation":2.1,"address":"2028 Grayhawk Road"},
{"id":157,"name":"Hanna","lat":25.864049,"lon":119.540362,"puntuation":2.7,"address":"4380 Sheridan Road"},
{"id":158,"name":"Andie","lat":39.7007906,"lon":140.9596925,"puntuation":2.7,"address":"2 Maple Wood Parkway"},
{"id":159,"name":"Elane","lat":6.30435,"lon":-70.202659,"puntuation":4.3,"address":"93 Chive Way"},
{"id":160,"name":"Eli","lat":42.2253803,"lon":-83.3415334,"puntuation":3.2,"address":"00 Killdeer Place"},
{"id":161,"name":"Celine","lat":53.9384912,"lon":36.6848996,"puntuation":4.0,"address":"68431 School Alley"},
{"id":162,"name":"Theadora","lat":50.05797,"lon":22.183619,"puntuation":1.5,"address":"0 Hauk Way"},
{"id":163,"name":"Dusty","lat":35.8242238,"lon":127.1479532,"puntuation":1.7,"address":"60947 Delaware Avenue"},
{"id":164,"name":"Melessa","lat":35.575417,"lon":114.519311,"puntuation":1.9,"address":"72 Cascade Drive"},
{"id":165,"name":"Ely","lat":40.927831,"lon":120.632941,"puntuation":1.8,"address":"7630 Farwell Road"},
{"id":166,"name":"Kermit","lat":43.1283145,"lon":5.9294606,"puntuation":4.3,"address":"9 Jenna Court"},
{"id":167,"name":"Leigh","lat":-34.6531982,"lon":-58.5988688,"puntuation":2.3,"address":"6 Lakeland Circle"},
{"id":168,"name":"Betti","lat":43.4945737,"lon":5.8978018,"puntuation":1.7,"address":"83 Bayside Pass"},
{"id":169,"name":"Mose","lat":54.632283,"lon":-8.5946591,"puntuation":4.8,"address":"816 Eliot Alley"},
{"id":170,"name":"Milli","lat":27.603696,"lon":119.17189,"puntuation":4.8,"address":"870 Saint Paul Circle"},
{"id":171,"name":"Kinny","lat":30.113962,"lon":118.169798,"puntuation":1.7,"address":"47513 Milwaukee Plaza"},
{"id":172,"name":"Jenine","lat":-7.6543174,"lon":109.2920742,"puntuation":2.3,"address":"5 Almo Circle"},
{"id":173,"name":"Carey","lat":23.2675871,"lon":-106.3830904,"puntuation":3.8,"address":"408 Dixon Alley"},
{"id":174,"name":"Aggy","lat":39.9226132,"lon":116.4606871,"puntuation":1.5,"address":"7721 Packers Pass"},
{"id":175,"name":"Katti","lat":15.2931866,"lon":-90.1147496,"puntuation":1.4,"address":"6637 Shopko Avenue"},
{"id":176,"name":"Birgit","lat":54.141067,"lon":25.0156941,"puntuation":3.7,"address":"81 Prairie Rose Road"},
{"id":177,"name":"Crissy","lat":32.86268,"lon":110.40864,"puntuation":1.4,"address":"74245 Carberry Terrace"},
{"id":178,"name":"Wynne","lat":32.171553,"lon":35.097462,"puntuation":2.6,"address":"10 Hoffman Road"},
{"id":179,"name":"Agnella","lat":14.5665991,"lon":121.0022623,"puntuation":3.0,"address":"71 Kensington Road"},
{"id":180,"name":"Franky","lat":42.5137414,"lon":19.1954375,"puntuation":2.3,"address":"9218 Northport Avenue"},
{"id":181,"name":"Jeno","lat":-1.0225124,"lon":-79.4604035,"puntuation":4.7,"address":"83 Iowa Road"},
{"id":182,"name":"Biron","lat":-12.2324162,"lon":44.4806961,"puntuation":3.1,"address":"5096 Lawn Pass"},
{"id":183,"name":"Tabbie","lat":5.4197312,"lon":100.3170452,"puntuation":1.8,"address":"9 Dorton Hill"},
{"id":184,"name":"Anestassia","lat":26.909678,"lon":109.207757,"puntuation":3.5,"address":"0014 Eagle Crest Way"},
{"id":185,"name":"Pauly","lat":6.5390358,"lon":21.9910008,"puntuation":3.9,"address":"7863 Lawn Park"},
{"id":186,"name":"Charmion","lat":49.0844448,"lon":140.2534384,"puntuation":2.7,"address":"262 Hovde Place"},
{"id":187,"name":"Eran","lat":14.7601863,"lon":-87.606295,"puntuation":1.8,"address":"7 Wayridge Alley"},
{"id":188,"name":"Olva","lat":49.8180882,"lon":22.4761571,"puntuation":3.4,"address":"2363 Declaration Circle"},
{"id":189,"name":"Milli","lat":35.0298547,"lon":71.3542319,"puntuation":4.8,"address":"80 Gina Park"},
{"id":190,"name":"Gilles","lat":45.7376939,"lon":19.0070982,"puntuation":2.2,"address":"393 Portage Crossing"},
{"id":191,"name":"Granger","lat":15.7700153,"lon":121.5561657,"puntuation":1.4,"address":"0 Susan Place"},
{"id":192,"name":"Ursulina","lat":45.5294991,"lon":4.6192695,"puntuation":4.6,"address":"50068 Bowman Plaza"},
{"id":193,"name":"Nanette","lat":47.6479788,"lon":36.164764,"puntuation":2.7,"address":"7412 Barnett Street"},
{"id":194,"name":"Alexia","lat":45.79817,"lon":109.31826,"puntuation":4.2,"address":"05 Glacier Hill Park"},
{"id":195,"name":"Zelda","lat":-6.9927364,"lon":107.8731968,"puntuation":2.9,"address":"90252 Orin Way"},
{"id":196,"name":"Roselin","lat":24.767489,"lon":98.699009,"puntuation":3.4,"address":"14 Claremont Trail"},
{"id":197,"name":"Cloe","lat":36.0336597,"lon":140.2064183,"puntuation":4.1,"address":"756 Clyde Gallagher Drive"},
{"id":198,"name":"Tabbie","lat":38.8466225,"lon":139.8744722,"puntuation":3.4,"address":"74 Dennis Circle"},
{"id":199,"name":"Bianca","lat":-8.8795811,"lon":121.656829,"puntuation":3.7,"address":"26198 Prairie Rose Junction"},
{"id":200,"name":"Eleonora","lat":32.085484,"lon":112.124371,"puntuation":1.8,"address":"6 Beilfuss Center"},
{"id":201,"name":"Brnaby","lat":3.2093353,"lon":101.6716295,"puntuation":1.6,"address":"47 Monument Road"},
{"id":202,"name":"Beulah","lat":-5.5680317,"lon":132.3446399,"puntuation":2.7,"address":"626 Marquette Place"},
{"id":203,"name":"Opalina","lat":44.786568,"lon":20.4489216,"puntuation":4.2,"address":"9 Saint Paul Plaza"},
{"id":204,"name":"Katey","lat":-7.20429,"lon":113.53198,"puntuation":1.2,"address":"8 Sycamore Place"},
{"id":205,"name":"Roberto","lat":59.82941,"lon":30.1775921,"puntuation":1.2,"address":"601 Summer Ridge Lane"},
{"id":206,"name":"Rooney","lat":40.9860764,"lon":-8.530048,"puntuation":4.8,"address":"4 Pearson Park"},
{"id":207,"name":"Loy","lat":-9.62074,"lon":119.56671,"puntuation":4.2,"address":"4 Iowa Drive"},
{"id":208,"name":"Darwin","lat":45.9472601,"lon":-0.9636732,"puntuation":1.8,"address":"738 Elmside Court"},
{"id":209,"name":"Anderea","lat":41.733296,"lon":125.5668499,"puntuation":4.3,"address":"70600 Fairfield Avenue"},
{"id":210,"name":"Zeke","lat":-6.6026644,"lon":110.8095565,"puntuation":4.7,"address":"9 Clarendon Pass"},
{"id":211,"name":"Corbin","lat":-10.2413,"lon":123.699,"puntuation":1.6,"address":"56 Boyd Street"},
{"id":212,"name":"Carmina","lat":52.7251027,"lon":17.6532993,"puntuation":2.3,"address":"3900 Forest Run Trail"},
{"id":213,"name":"Hewitt","lat":-33.745727,"lon":-61.961036,"puntuation":4.7,"address":"628 Browning Avenue"},
{"id":214,"name":"Riley","lat":65.855827,"lon":22.4952072,"puntuation":4.5,"address":"8438 Manufacturers Crossing"},
{"id":215,"name":"Livvy","lat":49.9164727,"lon":18.1627822,"puntuation":4.4,"address":"54197 Esker Crossing"},
{"id":216,"name":"Marj","lat":52.5577627,"lon":5.8915635,"puntuation":2.9,"address":"0 Maple Hill"},
{"id":217,"name":"Aldous","lat":8.5123871,"lon":123.2843256,"puntuation":3.9,"address":"9169 Bobwhite Junction"},
{"id":218,"name":"Yovonnda","lat":29.2132568,"lon":52.6867529,"puntuation":3.5,"address":"1 Buhler Trail"},
{"id":219,"name":"Nonna","lat":45.697904,"lon":0.964671,"puntuation":4.8,"address":"7926 Banding Center"},
{"id":220,"name":"Renaud","lat":41.37222,"lon":69.38167,"puntuation":3.2,"address":"99 Farwell Junction"},
{"id":221,"name":"Winslow","lat":54.0474092,"lon":38.404411,"puntuation":3.3,"address":"0769 Hoard Lane"},
{"id":222,"name":"Orion","lat":49.1835908,"lon":24.7462961,"puntuation":2.5,"address":"44 Anniversary Alley"},
{"id":223,"name":"Kelsey","lat":-17.8119748,"lon":-50.5981252,"puntuation":4.3,"address":"735 Sherman Junction"},
{"id":224,"name":"Tomasine","lat":32.491488,"lon":80.096419,"puntuation":3.7,"address":"0676 Scoville Way"},
{"id":225,"name":"Chet","lat":12.5797,"lon":123.6688,"puntuation":2.1,"address":"0 Chinook Center"},
{"id":226,"name":"Lacey","lat":49.8401299,"lon":13.3555893,"puntuation":4.2,"address":"620 Pine View Road"},
{"id":227,"name":"Barnebas","lat":55.2397021,"lon":84.4237855,"puntuation":1.2,"address":"88841 Bobwhite Center"},
{"id":228,"name":"Valeda","lat":-31.6252512,"lon":-64.4385856,"puntuation":4.4,"address":"088 Prairieview Road"},
{"id":229,"name":"Eddi","lat":53.3791711,"lon":50.3248312,"puntuation":4.5,"address":"33425 Ohio Lane"},
{"id":230,"name":"Judy","lat":49.8753,"lon":36.2827926,"puntuation":1.0,"address":"4683 Shoshone Plaza"},
{"id":231,"name":"Bernhard","lat":51.8891035,"lon":5.9269366,"puntuation":4.6,"address":"79 Shelley Avenue"},
{"id":232,"name":"Guilbert","lat":32.2760111,"lon":72.9216603,"puntuation":1.5,"address":"5225 Barby Park"},
{"id":233,"name":"Solomon","lat":57.1785332,"lon":41.9400627,"puntuation":1.4,"address":"74 Maywood Hill"},
{"id":234,"name":"Belita","lat":29.503085,"lon":108.984759,"puntuation":1.3,"address":"70867 Delaware Place"},
{"id":235,"name":"Corena","lat":30.073805,"lon":89.108299,"puntuation":3.2,"address":"354 Doe Crossing Plaza"},
{"id":236,"name":"Marjorie","lat":35.872664,"lon":120.04619,"puntuation":3.7,"address":"2 Jay Court"},
{"id":237,"name":"Waiter","lat":-6.7297651,"lon":110.6779776,"puntuation":4.1,"address":"284 Crest Line Court"},
{"id":238,"name":"Vassily","lat":36.639033,"lon":114.462061,"puntuation":1.4,"address":"215 Melvin Point"},
{"id":239,"name":"Joceline","lat":4.9224556,"lon":13.2923232,"puntuation":3.6,"address":"25 Scofield Road"},
{"id":240,"name":"Mab","lat":-7.1665502,"lon":111.9969626,"puntuation":1.3,"address":"3939 Golden Leaf Court"},
{"id":241,"name":"Caralie","lat":56.7115456,"lon":16.3569786,"puntuation":4.5,"address":"29940 Cottonwood Road"},
{"id":242,"name":"Ruthann","lat":-6.4835644,"lon":-38.4795129,"puntuation":3.2,"address":"26969 Eggendart Drive"},
{"id":243,"name":"Benetta","lat":38.05106,"lon":114.463347,"puntuation":1.4,"address":"3 Northwestern Place"},
{"id":244,"name":"Janean","lat":34.9540542,"lon":135.7515062,"puntuation":4.1,"address":"39 Messerschmidt Alley"},
{"id":245,"name":"Antonina","lat":9.1249562,"lon":124.7445365,"puntuation":2.0,"address":"40 Hayes Place"},
{"id":246,"name":"Gwyneth","lat":-23.4602881,"lon":-45.0479872,"puntuation":1.0,"address":"87 Darwin Point"},
{"id":247,"name":"Camella","lat":24.8415601,"lon":99.0818001,"puntuation":4.6,"address":"1673 Montana Avenue"},
{"id":248,"name":"Albie","lat":52.6551,"lon":85.09858,"puntuation":3.1,"address":"8892 Hauk Crossing"},
{"id":249,"name":"Carmen","lat":54.1440921,"lon":26.2103909,"puntuation":4.1,"address":"642 Manitowish Place"},
{"id":250,"name":"Kimberlyn","lat":22.7370366,"lon":106.1536828,"puntuation":4.6,"address":"9 Cottonwood Street"},
{"id":251,"name":"Bruce","lat":39.914373,"lon":116.454205,"puntuation":3.2,"address":"08880 Elgar Point"},
{"id":252,"name":"Ursala","lat":15.5518829,"lon":120.7822013,"puntuation":1.8,"address":"391 American Ash Plaza"},
{"id":253,"name":"Townie","lat":-24.8009137,"lon":-65.426487,"puntuation":3.6,"address":"264 Redwing Terrace"},
{"id":254,"name":"Marjie","lat":43.4945737,"lon":5.8978018,"puntuation":4.6,"address":"11 Hagan Way"},
{"id":255,"name":"Maggee","lat":11.9876781,"lon":102.3960722,"puntuation":2.0,"address":"160 Del Sol Street"},
{"id":256,"name":"Christal","lat":-7.4903037,"lon":108.0865424,"puntuation":3.0,"address":"715 Rusk Plaza"},
{"id":257,"name":"Hunter","lat":12.1299094,"lon":7.6724456,"puntuation":4.4,"address":"09994 Manitowish Alley"},
{"id":258,"name":"Ruben","lat":-9.0202023,"lon":-78.6143377,"puntuation":2.0,"address":"5140 Village Street"},
{"id":259,"name":"Ansell","lat":53.6362335,"lon":72.3382061,"puntuation":1.1,"address":"6 Russell Trail"},
{"id":260,"name":"Paolina","lat":51.290778,"lon":85.6677519,"puntuation":2.3,"address":"4 Jackson Avenue"},
{"id":261,"name":"Padraic","lat":-7.9675395,"lon":112.7032945,"puntuation":1.5,"address":"9227 Nancy Place"},
{"id":262,"name":"Olwen","lat":-31.43337,"lon":-64.2142976,"puntuation":2.4,"address":"7 Bonner Place"},
{"id":263,"name":"Lavinie","lat":-7.114172,"lon":107.446012,"puntuation":2.4,"address":"17826 Eliot Plaza"},
{"id":264,"name":"Corbie","lat":35.878762,"lon":14.439284,"puntuation":3.6,"address":"4 Oneill Court"},
{"id":265,"name":"Dall","lat":19.7600399,"lon":102.1832854,"puntuation":4.7,"address":"77 Farwell Street"},
{"id":266,"name":"Milissent","lat":26.682871,"lon":100.109307,"puntuation":1.3,"address":"03 Grim Road"},
{"id":267,"name":"Vera","lat":4.3045959,"lon":-74.8031414,"puntuation":2.2,"address":"71176 Butterfield Street"},
{"id":268,"name":"Alyssa","lat":-8.2840556,"lon":111.910516,"puntuation":4.0,"address":"2 Heffernan Street"},
{"id":269,"name":"Randi","lat":55.985,"lon":22.91889,"puntuation":1.4,"address":"601 Vidon Alley"},
{"id":270,"name":"Parry","lat":-22.9262769,"lon":-53.0888943,"puntuation":1.6,"address":"638 Debra Junction"},
{"id":271,"name":"Benedikt","lat":15.9584937,"lon":120.2781338,"puntuation":3.0,"address":"17936 Bobwhite Drive"},
{"id":272,"name":"Gibbie","lat":10.4320215,"lon":-61.4493842,"puntuation":4.5,"address":"6263 Kensington Place"},
{"id":273,"name":"Rahal","lat":-13.5350286,"lon":-71.9067881,"puntuation":2.2,"address":"72 Atwood Terrace"},
{"id":274,"name":"Werner","lat":26.096382,"lon":107.454787,"puntuation":3.7,"address":"65 Wayridge Terrace"},
{"id":275,"name":"Corbett","lat":10.305562,"lon":123.897862,"puntuation":4.3,"address":"247 Hanover Parkway"},
{"id":276,"name":"Daven","lat":-0.6000092,"lon":100.8564355,"puntuation":2.0,"address":"991 Valley Edge Pass"},
{"id":277,"name":"Patrizius","lat":56.2674828,"lon":54.9252541,"puntuation":1.2,"address":"624 Forest Dale Plaza"},
{"id":278,"name":"Hardy","lat":-6.9620686,"lon":108.4854717,"puntuation":4.0,"address":"18 Homewood Drive"},
{"id":279,"name":"Jania","lat":45.0610659,"lon":18.4690346,"puntuation":3.8,"address":"1 Union Road"},
{"id":280,"name":"Candide","lat":45.5000316,"lon":9.1690428,"puntuation":3.9,"address":"6 Declaration Pass"},
{"id":281,"name":"Virgil","lat":0.8927499,"lon":33.5028005,"puntuation":3.7,"address":"5 Service Center"},
{"id":282,"name":"Nelly","lat":40.4918264,"lon":-7.5954135,"puntuation":2.4,"address":"83267 Lukken Avenue"},
{"id":283,"name":"Carson","lat":49.7147663,"lon":19.4759489,"puntuation":3.1,"address":"36050 Clyde Gallagher Court"},
{"id":284,"name":"Tuesday","lat":17.9309007,"lon":103.1279039,"puntuation":2.1,"address":"0 Troy Way"},
{"id":285,"name":"Kevon","lat":59.925824,"lon":10.6614716,"puntuation":2.2,"address":"973 Havey Plaza"},
{"id":286,"name":"Debora","lat":12.926603,"lon":100.949131,"puntuation":4.9,"address":"1981 Warrior Park"},
{"id":287,"name":"Gaston","lat":31.6095648,"lon":64.4082082,"puntuation":3.0,"address":"5 Debra Alley"},
{"id":288,"name":"Reuven","lat":9.4344715,"lon":-13.0904353,"puntuation":4.9,"address":"04 Lawn Avenue"},
{"id":289,"name":"Dana","lat":40.7240772,"lon":23.0043777,"puntuation":3.1,"address":"70 Roth Way"},
{"id":290,"name":"Carolynn","lat":-10.0745443,"lon":-77.1449212,"puntuation":4.8,"address":"37200 Arizona Place"},
{"id":291,"name":"Fawne","lat":22.1623468,"lon":105.6002024,"puntuation":1.0,"address":"53 Aberg Point"},
{"id":292,"name":"Hilary","lat":32.8568937,"lon":36.6255869,"puntuation":4.2,"address":"4633 Mallory Point"},
{"id":293,"name":"Irene","lat":26.8626548,"lon":85.5560635,"puntuation":4.7,"address":"41519 Westport Center"},
{"id":294,"name":"Hilliard","lat":1.5484759,"lon":103.7983752,"puntuation":3.4,"address":"1 Farwell Road"},
{"id":295,"name":"Fredric","lat":16.80778,"lon":48.10917,"puntuation":4.5,"address":"0 Sullivan Junction"},
{"id":296,"name":"Malanie","lat":52.5124538,"lon":4.6573346,"puntuation":1.3,"address":"1 Merry Court"},
{"id":297,"name":"Isidora","lat":15.4977734,"lon":100.2151578,"puntuation":1.4,"address":"5247 Fuller Crossing"},
{"id":298,"name":"Quinlan","lat":8.9951264,"lon":124.8833084,"puntuation":3.5,"address":"94 Valley Edge Park"},
{"id":299,"name":"Isaak","lat":14.290674,"lon":-91.912218,"puntuation":4.9,"address":"95 Surrey Crossing"},
{"id":300,"name":"Cristian","lat":43.3497076,"lon":26.626104,"puntuation":4.5,"address":"1 Shoshone Park"},
{"id":301,"name":"Nora","lat":31.4008095,"lon":30.4171887,"puntuation":3.4,"address":"49 Pond Hill"},
{"id":302,"name":"Chet","lat":19.3803931,"lon":-99.1476908,"puntuation":3.3,"address":"928 Hoffman Circle"},
{"id":303,"name":"Gasper","lat":26.0576497,"lon":-80.3101684,"puntuation":1.5,"address":"3 Cherokee Drive"},
{"id":304,"name":"Deana","lat":38.6030067,"lon":140.3923791,"puntuation":3.0,"address":"1 Delaware Parkway"},
{"id":305,"name":"Rutger","lat":13.420533,"lon":123.41496,"puntuation":4.1,"address":"00909 Melby Trail"},
{"id":306,"name":"Ulrike","lat":52.27994,"lon":36.22461,"puntuation":2.1,"address":"267 Menomonie Plaza"},
{"id":307,"name":"Roman","lat":36.978941,"lon":120.711672,"puntuation":2.5,"address":"45 Superior Street"},
{"id":308,"name":"Camala","lat":46.3043619,"lon":38.9758429,"puntuation":2.5,"address":"82 Stone Corner Circle"},
{"id":309,"name":"Shelby","lat":50.0827667,"lon":19.3528069,"puntuation":3.3,"address":"6427 Barby Lane"},
{"id":310,"name":"Avram","lat":-34.5458354,"lon":-58.562848,"puntuation":4.1,"address":"9 Hooker Pass"},
{"id":311,"name":"Nicky","lat":59.853262,"lon":17.6356163,"puntuation":2.5,"address":"1 Merrick Court"},
{"id":312,"name":"Kort","lat":38.7777943,"lon":-9.2518104,"puntuation":3.5,"address":"7 Sutherland Trail"},
{"id":313,"name":"Othelia","lat":28.572029,"lon":109.482078,"puntuation":4.6,"address":"650 Norway Maple Road"},
{"id":314,"name":"Constancy","lat":30.920219,"lon":103.620536,"puntuation":3.2,"address":"844 Petterle Drive"},
{"id":315,"name":"Sargent","lat":56.343612,"lon":26.8013629,"puntuation":2.3,"address":"907 Hazelcrest Lane"},
{"id":316,"name":"Moore","lat":5.6810774,"lon":95.1171505,"puntuation":3.6,"address":"8 Muir Hill"},
{"id":317,"name":"Jervis","lat":6.30435,"lon":-70.202659,"puntuation":1.1,"address":"55050 Pepper Wood Parkway"},
{"id":318,"name":"Wiley","lat":38.0740965,"lon":20.7968395,"puntuation":3.1,"address":"02639 High Crossing Trail"},
{"id":319,"name":"Orel","lat":24.874132,"lon":118.675675,"puntuation":4.9,"address":"54 Northwestern Alley"},
{"id":320,"name":"Elias","lat":10.267698,"lon":123.942247,"puntuation":3.1,"address":"86877 Anzinger Plaza"},
{"id":321,"name":"Fin","lat":49.7582153,"lon":21.3418674,"puntuation":2.4,"address":"359 Golden Leaf Plaza"},
{"id":322,"name":"Mozelle","lat":10.8780876,"lon":122.981075,"puntuation":3.4,"address":"7115 Garrison Park"},
{"id":323,"name":"Hailey","lat":8.4937903,"lon":124.635164,"puntuation":4.1,"address":"808 Springs Way"},
{"id":324,"name":"Petunia","lat":54.98806,"lon":35.31083,"puntuation":3.5,"address":"7 Lillian Center"},
{"id":325,"name":"Merrily","lat":18.791255,"lon":109.410699,"puntuation":1.6,"address":"449 Corben Lane"},
{"id":326,"name":"Herb","lat":29.276391,"lon":109.709717,"puntuation":3.5,"address":"1082 Dwight Road"},
{"id":327,"name":"Doll","lat":34.9540542,"lon":135.7515062,"puntuation":3.7,"address":"15730 Truax Center"},
{"id":328,"name":"Shirline","lat":43.7441795,"lon":2.511999,"puntuation":2.0,"address":"6 Mockingbird Drive"},
{"id":329,"name":"Mommy","lat":55.6065,"lon":159.64266,"puntuation":2.7,"address":"2 Hooker Circle"},
{"id":330,"name":"Obadiah","lat":35.580555,"lon":100.761196,"puntuation":1.5,"address":"6 Bunker Hill Way"},
{"id":331,"name":"Normy","lat":46.5210948,"lon":32.5201269,"puntuation":4.5,"address":"83550 Bluestem Point"},
{"id":332,"name":"Archibaldo","lat":65.2670135,"lon":21.7880154,"puntuation":2.1,"address":"42009 Daystar Trail"},
{"id":333,"name":"Oliviero","lat":13.7398825,"lon":100.5085202,"puntuation":2.8,"address":"04 Jana Crossing"},
{"id":334,"name":"Aurie","lat":41.0423985,"lon":21.3607894,"puntuation":4.9,"address":"94749 Lakeland Place"},
{"id":335,"name":"Dougie","lat":-7.740099,"lon":-40.2884386,"puntuation":4.5,"address":"99 Loeprich Street"},
{"id":336,"name":"Frederic","lat":47.1844184,"lon":35.1072745,"puntuation":4.1,"address":"70 Onsgard Way"},
{"id":337,"name":"Joellen","lat":54.3051891,"lon":-8.1722002,"puntuation":2.7,"address":"305 Debs Alley"},
{"id":338,"name":"Micah","lat":-23.2980974,"lon":-50.0726882,"puntuation":4.9,"address":"7087 Duke Road"},
{"id":339,"name":"Ad","lat":37.2422863,"lon":-121.7309452,"puntuation":3.9,"address":"49 Cody Alley"},
{"id":340,"name":"Alwin","lat":48.8048649,"lon":2.1203554,"puntuation":2.0,"address":"89 Mccormick Plaza"},
{"id":341,"name":"Petronella","lat":-6.8982,"lon":113.1705,"puntuation":3.2,"address":"251 Sachtjen Alley"},
{"id":342,"name":"Nico","lat":-2.2306406,"lon":-80.9001863,"puntuation":3.2,"address":"87 Straubel Road"},
{"id":343,"name":"Zoe","lat":9.239504,"lon":-75.6767349,"puntuation":3.3,"address":"2 Hauk Trail"},
{"id":344,"name":"Belicia","lat":35.6803,"lon":51.0193,"puntuation":1.1,"address":"19 Loomis Circle"},
{"id":345,"name":"Ron","lat":29.230933,"lon":89.841983,"puntuation":1.6,"address":"668 Loomis Trail"},
{"id":346,"name":"Baillie","lat":43.0449888,"lon":45.7296087,"puntuation":1.2,"address":"76072 Coolidge Lane"},
{"id":347,"name":"Beauregard","lat":27.096969,"lon":119.632262,"puntuation":2.6,"address":"230 Vera Center"},
{"id":348,"name":"Sherline","lat":4.6096768,"lon":101.1064003,"puntuation":1.6,"address":"40 Vernon Street"},
{"id":349,"name":"Glennis","lat":7.1657856,"lon":9.2841023,"puntuation":1.5,"address":"901 Del Sol Point"},
{"id":350,"name":"Dillie","lat":54.6041651,"lon":24.0304672,"puntuation":2.6,"address":"0267 Main Circle"},
{"id":351,"name":"Melantha","lat":56.2862076,"lon":43.0264348,"puntuation":3.9,"address":"0469 Eagle Crest Center"},
{"id":352,"name":"Sapphire","lat":8.16667,"lon":124.21667,"puntuation":3.6,"address":"36 Anniversary Place"},
{"id":353,"name":"Nate","lat":50.3485458,"lon":39.6505372,"puntuation":1.0,"address":"4 Kensington Road"},
{"id":354,"name":"Shelly","lat":-7.5629468,"lon":111.4559084,"puntuation":3.5,"address":"18 Lotheville Park"},
{"id":355,"name":"Ruthanne","lat":6.551367,"lon":-74.787294,"puntuation":3.0,"address":"0 Fairview Road"},
{"id":356,"name":"Carolynn","lat":5.255906,"lon":-75.1538939,"puntuation":4.7,"address":"82670 Homewood Avenue"},
{"id":357,"name":"Bunnie","lat":33.8989467,"lon":35.4733996,"puntuation":3.6,"address":"6130 Grasskamp Parkway"},
{"id":358,"name":"Lorri","lat":21.2067429,"lon":105.4273093,"puntuation":4.2,"address":"45 Anthes Pass"},
{"id":359,"name":"Adriena","lat":28.791192,"lon":111.59717,"puntuation":2.8,"address":"48441 Mallory Point"},
{"id":360,"name":"Alta","lat":31.8652881,"lon":-6.7580981,"puntuation":3.0,"address":"2371 Lawn Hill"},
{"id":361,"name":"Inesita","lat":41.3895075,"lon":60.3414529,"puntuation":1.6,"address":"2987 8th Terrace"},
{"id":362,"name":"Orlando","lat":54.7180477,"lon":18.4086339,"puntuation":1.5,"address":"72717 Shoshone Road"},
{"id":363,"name":"Donetta","lat":-14.19396,"lon":-73.54213,"puntuation":3.9,"address":"721 Eliot Trail"},
{"id":364,"name":"Oby","lat":14.061619,"lon":46.914966,"puntuation":4.1,"address":"42998 Chinook Junction"},
{"id":365,"name":"Rayner","lat":32.584328,"lon":111.948474,"puntuation":1.8,"address":"283 Melrose Point"},
{"id":366,"name":"Reginald","lat":40.4810579,"lon":50.1454455,"puntuation":3.9,"address":"930 Novick Point"},
{"id":367,"name":"Ansley","lat":19.8488549,"lon":-71.6514216,"puntuation":2.1,"address":"930 Independence Circle"},
{"id":368,"name":"Matthieu","lat":27.252847,"lon":116.632891,"puntuation":1.1,"address":"09657 Hanover Trail"},
{"id":369,"name":"Wallis","lat":36.389401,"lon":120.44716,"puntuation":4.0,"address":"8384 Lotheville Trail"},
{"id":370,"name":"Ashlen","lat":-8.7223957,"lon":115.1767095,"puntuation":2.6,"address":"81 Canary Avenue"},
{"id":371,"name":"Corbie","lat":41.5217223,"lon":-8.4574423,"puntuation":3.3,"address":"4251 Macpherson Court"},
{"id":372,"name":"Appolonia","lat":-22.65053,"lon":-60.129002,"puntuation":3.6,"address":"7 Veith Pass"},
{"id":373,"name":"Constantino","lat":34.5403537,"lon":-4.8015285,"puntuation":3.8,"address":"0926 Bunker Hill Alley"},
{"id":374,"name":"Rachelle","lat":22.928305,"lon":113.207187,"puntuation":1.9,"address":"6487 Ludington Point"},
{"id":375,"name":"Briano","lat":-8.5403989,"lon":115.2027279,"puntuation":3.7,"address":"6366 Manitowish Plaza"},
{"id":376,"name":"Abbey","lat":34.8742638,"lon":71.1537637,"puntuation":1.8,"address":"1774 Fisk Court"},
{"id":377,"name":"Markos","lat":27.415632,"lon":118.347831,"puntuation":2.9,"address":"2017 Old Shore Center"},
{"id":378,"name":"Brewster","lat":-19.0553711,"lon":-169.9178709,"puntuation":2.4,"address":"8252 Sachtjen Plaza"},
{"id":379,"name":"Dugald","lat":-14.8258317,"lon":-64.9000247,"puntuation":1.9,"address":"231 Arizona Lane"},
{"id":380,"name":"Obediah","lat":31.026394,"lon":103.757315,"puntuation":3.5,"address":"9941 Clemons Center"},
{"id":381,"name":"Roseanne","lat":-8.0273556,"lon":113.7513827,"puntuation":3.2,"address":"7 Mitchell Street"},
{"id":382,"name":"Marlene","lat":13.0996105,"lon":12.5113296,"puntuation":4.0,"address":"5 Raven Road"},
{"id":383,"name":"Robinet","lat":34.75,"lon":10.78333,"puntuation":1.6,"address":"24 Mallard Alley"},
{"id":384,"name":"Thomas","lat":-17.3058881,"lon":31.5655424,"puntuation":2.1,"address":"985 Lawn Parkway"},
{"id":385,"name":"Edik","lat":59.5403823,"lon":30.8896701,"puntuation":1.8,"address":"136 Ilene Drive"},
{"id":386,"name":"Harmony","lat":59.3257766,"lon":18.0470069,"puntuation":2.0,"address":"5 Daystar Parkway"},
{"id":387,"name":"Gussi","lat":41.4655177,"lon":-8.577596,"puntuation":2.2,"address":"82354 Nancy Road"},
{"id":388,"name":"Henrietta","lat":37.16516,"lon":122.486657,"puntuation":4.9,"address":"81 Morning Trail"},
{"id":389,"name":"Lazarus","lat":25.3946143,"lon":97.3840729,"puntuation":4.7,"address":"7 Pine View Way"},
{"id":390,"name":"Maurise","lat":-1.4740609,"lon":103.5147735,"puntuation":2.1,"address":"8510 Farmco Hill"},
{"id":391,"name":"Ladonna","lat":29.385634,"lon":-98.5254159,"puntuation":2.5,"address":"86389 Northland Crossing"},
{"id":392,"name":"Case","lat":-10.1082359,"lon":123.7727229,"puntuation":4.6,"address":"204 Nobel Parkway"},
{"id":393,"name":"Foster","lat":-16.3607933,"lon":-71.5438952,"puntuation":4.2,"address":"62 Holy Cross Trail"},
{"id":394,"name":"Dolores","lat":29.985295,"lon":122.207215,"puntuation":4.4,"address":"8 Buhler Place"},
{"id":395,"name":"Bibby","lat":-6.7146375,"lon":107.4765594,"puntuation":4.3,"address":"28 Heffernan Lane"},
{"id":396,"name":"Eddy","lat":14.7043324,"lon":107.6984879,"puntuation":3.5,"address":"645 Ohio Lane"},
{"id":397,"name":"Iris","lat":59.2992508,"lon":18.0807417,"puntuation":4.0,"address":"2 Browning Court"},
{"id":398,"name":"Collen","lat":40.8806112,"lon":26.045885,"puntuation":4.3,"address":"05108 Fair Oaks Lane"},
{"id":399,"name":"Mia","lat":46.5448561,"lon":15.0941863,"puntuation":4.8,"address":"34 Sundown Point"},
{"id":400,"name":"Annabela","lat":7.1170609,"lon":-73.1526623,"puntuation":3.3,"address":"8270 Butternut Avenue"},
{"id":401,"name":"Brita","lat":30.651078,"lon":120.183168,"puntuation":1.5,"address":"62 Anhalt Way"},
{"id":402,"name":"Rickert","lat":-29.5795648,"lon":-51.1689963,"puntuation":3.7,"address":"8037 Northview Hill"},
{"id":403,"name":"Meg","lat":31.297414,"lon":121.450653,"puntuation":4.4,"address":"13 Prairie Rose Junction"},
{"id":404,"name":"Hyatt","lat":8.2760566,"lon":99.999936,"puntuation":2.7,"address":"840 Fairfield Terrace"},
{"id":405,"name":"Mada","lat":16.0125041,"lon":100.5971361,"puntuation":1.1,"address":"055 Florence Avenue"},
{"id":406,"name":"Pernell","lat":27.756647,"lon":118.035309,"puntuation":2.7,"address":"3640 Dunning Road"},
{"id":407,"name":"Cherie","lat":54.11215,"lon":-9.151825,"puntuation":2.3,"address":"7 Jay Alley"},
{"id":408,"name":"Elisha","lat":44.7735327,"lon":65.5544515,"puntuation":3.5,"address":"84 Crescent Oaks Alley"},
{"id":409,"name":"Justine","lat":39.029567,"lon":117.661082,"puntuation":1.8,"address":"72 Almo Drive"},
{"id":410,"name":"Mollee","lat":24.31049,"lon":116.116695,"puntuation":1.7,"address":"13334 Blackbird Pass"},
{"id":411,"name":"Josy","lat":43.1023643,"lon":40.618282,"puntuation":3.7,"address":"256 Jay Terrace"},
{"id":412,"name":"Wat","lat":19.696407,"lon":109.218734,"puntuation":2.0,"address":"95456 Charing Cross Center"},
{"id":413,"name":"Dawna","lat":50.2334147,"lon":14.4107891,"puntuation":1.4,"address":"7 Londonderry Lane"},
{"id":414,"name":"Ferrell","lat":34.994502,"lon":118.3126338,"puntuation":1.9,"address":"3460 Union Way"},
{"id":415,"name":"Curt","lat":35.543089,"lon":106.550593,"puntuation":3.1,"address":"91 Hoepker Street"},
{"id":416,"name":"Lexine","lat":39.9666494,"lon":116.4041472,"puntuation":5.0,"address":"398 Elmside Court"},
{"id":417,"name":"Ailyn","lat":52.5687063,"lon":17.2581487,"puntuation":3.7,"address":"6151 Holmberg Avenue"},
{"id":418,"name":"Ermanno","lat":17.8200009,"lon":120.4544261,"puntuation":2.4,"address":"8401 Bartelt Place"},
{"id":419,"name":"Tom","lat":48.9330384,"lon":2.0412764,"puntuation":2.8,"address":"967 Helena Point"},
{"id":420,"name":"Borg","lat":41.276688,"lon":80.238959,"puntuation":3.6,"address":"547 Cherokee Terrace"},
{"id":421,"name":"Fianna","lat":48.9001898,"lon":24.8519696,"puntuation":4.6,"address":"672 Bayside Plaza"},
{"id":422,"name":"Marlane","lat":-28.1999491,"lon":-51.5303101,"puntuation":1.3,"address":"07491 Artisan Plaza"},
{"id":423,"name":"Elisabetta","lat":47.837001,"lon":28.4339797,"puntuation":3.2,"address":"8821 Kedzie Court"},
{"id":424,"name":"Jo ann","lat":32.840217,"lon":117.229368,"puntuation":4.0,"address":"7 Marquette Center"},
{"id":425,"name":"Timothee","lat":36.7225782,"lon":25.2825598,"puntuation":2.7,"address":"7836 Basil Place"},
{"id":426,"name":"Glynnis","lat":31.642397,"lon":118.184993,"puntuation":2.1,"address":"05 Morrow Hill"},
{"id":427,"name":"Franklin","lat":-7.633333,"lon":108.366667,"puntuation":4.0,"address":"06302 Kinsman Plaza"},
{"id":428,"name":"Blondie","lat":35.4674683,"lon":-97.4996835,"puntuation":2.8,"address":"06 South Point"},
{"id":429,"name":"Jaymie","lat":6.0318676,"lon":125.1290351,"puntuation":3.7,"address":"659 Fairfield Trail"},
{"id":430,"name":"Randee","lat":49.6428895,"lon":100.1771896,"puntuation":3.6,"address":"72 Waubesa Street"},
{"id":431,"name":"Ashely","lat":52.1867388,"lon":16.7971141,"puntuation":3.5,"address":"31 La Follette Drive"},
{"id":432,"name":"Vickie","lat":-0.0917016,"lon":34.7679568,"puntuation":5.0,"address":"03886 Randy Circle"},
{"id":433,"name":"Vasily","lat":-6.6026644,"lon":110.8095565,"puntuation":2.3,"address":"979 8th Trail"},
{"id":434,"name":"Norry","lat":-7.783297,"lon":110.363649,"puntuation":2.7,"address":"44 Red Cloud Center"},
{"id":435,"name":"Tonya","lat":-8.0614295,"lon":112.3546395,"puntuation":3.8,"address":"812 Homewood Place"},
{"id":436,"name":"Leela","lat":-7.6309189,"lon":110.1899844,"puntuation":2.3,"address":"14290 Waubesa Point"},
{"id":437,"name":"Archie","lat":32.060255,"lon":118.796877,"puntuation":2.7,"address":"39693 Luster Terrace"},
{"id":438,"name":"Timothea","lat":32.78,"lon":-96.8,"puntuation":2.8,"address":"3546 Melody Lane"},
{"id":439,"name":"Yvon","lat":43.1283145,"lon":5.9294606,"puntuation":4.5,"address":"40346 West Hill"},
{"id":440,"name":"Devondra","lat":14.2811192,"lon":-88.2424674,"puntuation":3.1,"address":"0266 Delladonna Circle"},
{"id":441,"name":"Stephi","lat":-7.2914614,"lon":112.6109257,"puntuation":3.3,"address":"96 Rowland Hill"},
{"id":442,"name":"Mead","lat":-22.3990179,"lon":18.9739954,"puntuation":2.3,"address":"4 Russell Street"},
{"id":443,"name":"Idette","lat":5.5304798,"lon":95.3286078,"puntuation":3.5,"address":"2991 Forster Lane"},
{"id":444,"name":"Loralee","lat":-32.6480698,"lon":-61.2103496,"puntuation":1.1,"address":"0 Anhalt Road"},
{"id":445,"name":"Karylin","lat":45.5080397,"lon":-73.564543,"puntuation":4.4,"address":"1 5th Terrace"},
{"id":446,"name":"Tait","lat":52.4856992,"lon":13.3488258,"puntuation":3.8,"address":"4645 Dwight Lane"},
{"id":447,"name":"Alasteir","lat":39.7434917,"lon":-84.0854432,"puntuation":2.6,"address":"74956 Dawn Point"},
{"id":448,"name":"Becka","lat":-14.23592,"lon":-72.629868,"puntuation":1.5,"address":"977 Hovde Pass"},
{"id":449,"name":"Claudius","lat":34.1596834,"lon":72.2333024,"puntuation":1.9,"address":"74265 Eggendart Lane"},
{"id":450,"name":"Quintilla","lat":57.423063,"lon":25.900378,"puntuation":3.6,"address":"9 Londonderry Alley"},
{"id":451,"name":"Yvor","lat":31.434625,"lon":120.004045,"puntuation":2.2,"address":"7 Kennedy Lane"},
{"id":452,"name":"Eartha","lat":47.50722,"lon":28.27694,"puntuation":1.8,"address":"02336 Fair Oaks Court"},
{"id":453,"name":"Hoyt","lat":19.3376878,"lon":-99.0591821,"puntuation":3.0,"address":"75 Michigan Crossing"},
{"id":454,"name":"Rachelle","lat":28.262375,"lon":109.698015,"puntuation":1.2,"address":"14438 Claremont Drive"},
{"id":455,"name":"Valentina","lat":59.3112521,"lon":14.496875,"puntuation":3.3,"address":"1 Eggendart Crossing"},
{"id":456,"name":"Huntington","lat":49.9466816,"lon":18.8244645,"puntuation":1.8,"address":"6 Karstens Court"},
{"id":457,"name":"Rickie","lat":-34.6093426,"lon":-58.5069115,"puntuation":1.8,"address":"20 Pierstorff Lane"},
{"id":458,"name":"Doti","lat":39.6920939,"lon":-8.4272356,"puntuation":1.1,"address":"2 Troy Avenue"},
{"id":459,"name":"Bernard","lat":14.1281138,"lon":-87.2543702,"puntuation":2.7,"address":"9652 Amoth Alley"},
{"id":460,"name":"Arleta","lat":34.6939733,"lon":-86.6107106,"puntuation":3.1,"address":"86 Corben Court"},
{"id":461,"name":"Huntlee","lat":59.4294432,"lon":24.5475697,"puntuation":1.2,"address":"00 Village Green Trail"},
{"id":462,"name":"Barry","lat":-8.0796655,"lon":113.3049491,"puntuation":1.1,"address":"78471 Graceland Place"},
{"id":463,"name":"Letitia","lat":15.14442,"lon":120.94077,"puntuation":3.2,"address":"81 Scofield Place"},
{"id":464,"name":"Glenna","lat":-7.4914737,"lon":107.3671431,"puntuation":3.7,"address":"49088 Bayside Park"},
{"id":465,"name":"Anallise","lat":-19.7963816,"lon":34.8844867,"puntuation":3.6,"address":"78 Dakota Plaza"},
{"id":466,"name":"Lesley","lat":13.1267875,"lon":-87.0361917,"puntuation":2.9,"address":"117 Oakridge Crossing"},
{"id":467,"name":"Amelina","lat":25.8007724,"lon":-100.4277766,"puntuation":2.8,"address":"9 Golf Avenue"},
{"id":468,"name":"Joycelin","lat":-7.2929068,"lon":107.2666396,"puntuation":2.1,"address":"9521 Amoth Place"},
{"id":469,"name":"Rochette","lat":-8.2216521,"lon":113.804931,"puntuation":1.8,"address":"33985 Eastlawn Road"},
{"id":470,"name":"Helena","lat":6.6169319,"lon":-75.7720328,"puntuation":1.1,"address":"04110 Morrow Parkway"},
{"id":471,"name":"Trumann","lat":43.5958543,"lon":5.1190026,"puntuation":3.4,"address":"548 Truax Place"},
{"id":472,"name":"Ange","lat":14.6052661,"lon":121.1206771,"puntuation":2.0,"address":"607 Express Park"},
{"id":473,"name":"Harmon","lat":16.5347882,"lon":97.6032892,"puntuation":1.3,"address":"6 Grasskamp Crossing"},
{"id":474,"name":"Jayme","lat":30.6569282,"lon":104.0779484,"puntuation":3.8,"address":"41 Sunbrook Place"},
{"id":475,"name":"Mabel","lat":34.9978522,"lon":36.1925483,"puntuation":1.1,"address":"21 Morning Crossing"},
{"id":476,"name":"Hansiain","lat":20.9493584,"lon":105.8444419,"puntuation":1.8,"address":"101 Di Loreto Street"},
{"id":477,"name":"Wayne","lat":45.9559485,"lon":14.3016556,"puntuation":2.3,"address":"12622 Derek Road"},
{"id":478,"name":"Cristy","lat":9.8759581,"lon":-84.0375168,"puntuation":4.7,"address":"1 Manley Point"},
{"id":479,"name":"Skipp","lat":-37.0340769,"lon":-73.1404838,"puntuation":3.1,"address":"99 Sutherland Lane"},
{"id":480,"name":"Emlyn","lat":58.5356199,"lon":31.2251615,"puntuation":4.7,"address":"5 Roth Center"},
{"id":481,"name":"Amil","lat":33.9548846,"lon":-118.0273914,"puntuation":3.6,"address":"03 Bluejay Drive"},
{"id":482,"name":"Anna-diane","lat":45.090227,"lon":16.0189989,"puntuation":2.6,"address":"485 Lyons Center"},
{"id":483,"name":"Willette","lat":25.3141558,"lon":49.6299077,"puntuation":2.7,"address":"69825 6th Park"},
{"id":484,"name":"Rudiger","lat":30.900941,"lon":115.610077,"puntuation":1.4,"address":"73984 Riverside Drive"},
{"id":485,"name":"Gillan","lat":-17.7178133,"lon":-49.1221414,"puntuation":2.4,"address":"18 Forest Dale Avenue"},
{"id":486,"name":"Ginnie","lat":-22.4313914,"lon":-43.4289497,"puntuation":1.8,"address":"663 Hanover Point"},
{"id":487,"name":"Austina","lat":22.517585,"lon":113.39277,"puntuation":4.0,"address":"53 Sunnyside Terrace"},
{"id":488,"name":"Aguistin","lat":55.8240814,"lon":65.5756726,"puntuation":1.4,"address":"510 Stang Park"},
{"id":489,"name":"Oran","lat":41.985186,"lon":122.836723,"puntuation":4.1,"address":"8 Hudson Court"},
{"id":490,"name":"Dorella","lat":51.6522585,"lon":17.1688525,"puntuation":2.0,"address":"9 Birchwood Avenue"},
{"id":491,"name":"Tobias","lat":52.2509369,"lon":-7.1297243,"puntuation":3.9,"address":"0596 Claremont Road"},
{"id":492,"name":"James","lat":41.9867326,"lon":-8.3742728,"puntuation":2.5,"address":"9 Esker Court"},
{"id":493,"name":"Anne-corinne","lat":22.555259,"lon":113.884019,"puntuation":2.7,"address":"8 Merchant Avenue"},
{"id":494,"name":"Ronnie","lat":32.407849,"lon":119.4213786,"puntuation":2.8,"address":"4 Basil Terrace"},
{"id":495,"name":"Misha","lat":29.784315,"lon":115.910958,"puntuation":4.9,"address":"05 Kennedy Pass"},
{"id":496,"name":"Eolande","lat":55.8625501,"lon":13.1435643,"puntuation":1.2,"address":"707 Pennsylvania Avenue"},
{"id":497,"name":"Corabel","lat":37.022024,"lon":104.423539,"puntuation":2.6,"address":"02702 Scofield Court"},
{"id":498,"name":"Quincy","lat":50.4897179,"lon":20.449178,"puntuation":4.2,"address":"016 Eggendart Avenue"},
{"id":499,"name":"Dorelle","lat":49.6968574,"lon":19.9506717,"puntuation":2.2,"address":"16720 Scofield Road"},
{"id":500,"name":"Ludovico","lat":-21.2664483,"lon":-63.4508107,"puntuation":3.6,"address":"72 Anderson Court"},
{"id":501,"name":"Uri","lat":52.8303055,"lon":62.5102237,"puntuation":1.8,"address":"42 Vidon Circle"},
{"id":502,"name":"Titos","lat":57.3299614,"lon":61.9066841,"puntuation":2.2,"address":"87633 Boyd Way"},
{"id":503,"name":"Connie","lat":14.5458392,"lon":121.0044883,"puntuation":3.6,"address":"0386 Macpherson Trail"},
{"id":504,"name":"Aldo","lat":50.6978262,"lon":36.1738669,"puntuation":4.5,"address":"66089 Chive Park"},
{"id":505,"name":"Dugald","lat":41.09028,"lon":128.29333,"puntuation":3.5,"address":"87 Maple Park"},
{"id":506,"name":"Candace","lat":-8.298138,"lon":111.4812472,"puntuation":2.1,"address":"74 Dwight Hill"},
{"id":507,"name":"Timothee","lat":44.35542,"lon":84.17916,"puntuation":2.7,"address":"72323 Mosinee Street"},
{"id":508,"name":"Ruthann","lat":-30.9392897,"lon":-61.5429067,"puntuation":4.2,"address":"4820 Dennis Junction"},
{"id":509,"name":"Kalle","lat":11.8495208,"lon":-86.1980589,"puntuation":3.8,"address":"202 Iowa Lane"},
{"id":510,"name":"Tan","lat":-29.2360837,"lon":-51.869606,"puntuation":1.6,"address":"4 Buhler Junction"},
{"id":511,"name":"Lesley","lat":40.38944,"lon":125.04667,"puntuation":2.2,"address":"4 Bay Way"},
{"id":512,"name":"Temp","lat":-8.2333409,"lon":124.4475522,"puntuation":2.7,"address":"4101 Portage Terrace"},
{"id":513,"name":"Vail","lat":45.8940717,"lon":-74.157934,"puntuation":4.2,"address":"99276 Dottie Trail"},
{"id":514,"name":"Sharia","lat":-7.7629501,"lon":112.7271303,"puntuation":2.9,"address":"75 Farragut Parkway"},
{"id":515,"name":"Maura","lat":-7.1364308,"lon":110.4098775,"puntuation":4.2,"address":"65 Summerview Place"},
{"id":516,"name":"Stuart","lat":43.0429124,"lon":1.9038837,"puntuation":1.8,"address":"08159 Charing Cross Parkway"},
{"id":517,"name":"Teodoor","lat":27.6673175,"lon":114.4109921,"puntuation":4.0,"address":"3 South Way"},
{"id":518,"name":"Sutherlan","lat":22.872655,"lon":113.268583,"puntuation":1.0,"address":"268 Fulton Terrace"},
{"id":519,"name":"Francyne","lat":52.5645365,"lon":30.8769586,"puntuation":3.3,"address":"627 Hansons Parkway"},
{"id":520,"name":"Tommie","lat":-6.1226719,"lon":106.8902366,"puntuation":1.1,"address":"31 Manitowish Alley"},
{"id":521,"name":"Marillin","lat":43.5757545,"lon":21.331051,"puntuation":1.1,"address":"8 Northport Terrace"},
{"id":522,"name":"Harriette","lat":10.108752,"lon":123.2710674,"puntuation":3.4,"address":"7670 Mifflin Lane"},
{"id":523,"name":"Erinn","lat":16.2656641,"lon":120.4139777,"puntuation":3.7,"address":"8 Marquette Point"},
{"id":524,"name":"Ajay","lat":48.942644,"lon":116.72495,"puntuation":4.9,"address":"39 Carberry Center"},
{"id":525,"name":"Caril","lat":49.2549921,"lon":17.2899103,"puntuation":2.3,"address":"6553 West Center"},
{"id":526,"name":"Taddeusz","lat":37.520481,"lon":115.251124,"puntuation":2.4,"address":"24 Bashford Pass"},
{"id":527,"name":"Brooks","lat":55.7677139,"lon":38.132545,"puntuation":1.5,"address":"870 Blackbird Alley"},
{"id":528,"name":"Dedie","lat":43.5141037,"lon":16.1076867,"puntuation":4.4,"address":"2012 Hagan Plaza"},
{"id":529,"name":"Hector","lat":-6.97632,"lon":109.471802,"puntuation":3.4,"address":"7 Vernon Lane"},
{"id":530,"name":"Leonerd","lat":50.0429768,"lon":46.8886722,"puntuation":2.4,"address":"9293 Scoville Trail"},
{"id":531,"name":"Dwayne","lat":22.851846,"lon":110.86585,"puntuation":1.6,"address":"28 North Alley"},
{"id":532,"name":"Barbie","lat":-6.984842,"lon":-79.621117,"puntuation":2.3,"address":"68 Claremont Place"},
{"id":533,"name":"Stavro","lat":39.9791423,"lon":117.0643296,"puntuation":4.1,"address":"41231 Lillian Street"},
{"id":534,"name":"Brittaney","lat":35.86166,"lon":104.195397,"puntuation":3.3,"address":"12350 Upham Circle"},
{"id":535,"name":"Marijn","lat":40.9937134,"lon":-8.2760021,"puntuation":4.8,"address":"86 Elka Center"},
{"id":536,"name":"Frederic","lat":27.6644011,"lon":85.3187914,"puntuation":3.0,"address":"786 Upham Road"},
{"id":537,"name":"Sibyl","lat":35.8835933,"lon":140.5250401,"puntuation":1.4,"address":"904 Randy Road"},
{"id":538,"name":"Alisander","lat":-8.1058258,"lon":156.8349986,"puntuation":1.1,"address":"65 Maple Court"},
{"id":539,"name":"Albina","lat":50.7885238,"lon":37.8995347,"puntuation":1.6,"address":"636 Carberry Plaza"},
{"id":540,"name":"Charita","lat":-5.1443118,"lon":-38.0850339,"puntuation":5.0,"address":"76 Service Junction"},
{"id":541,"name":"Andonis","lat":6.1244023,"lon":100.3674801,"puntuation":4.5,"address":"71 Darwin Park"},
{"id":542,"name":"Vivia","lat":49.4931107,"lon":36.8206064,"puntuation":1.7,"address":"9756 Mesta Way"},
{"id":543,"name":"Brandea","lat":10.4825247,"lon":105.4771084,"puntuation":4.7,"address":"64 Blaine Street"},
{"id":544,"name":"Crysta","lat":44.166512,"lon":79.999974,"puntuation":2.6,"address":"744 Judy Parkway"},
{"id":545,"name":"Gris","lat":-28.7477963,"lon":-49.4745059,"puntuation":2.9,"address":"41275 Vernon Road"},
{"id":546,"name":"Constantina","lat":41.3009263,"lon":-95.8881542,"puntuation":1.5,"address":"33427 Acker Lane"},
{"id":547,"name":"Norine","lat":-21.2105166,"lon":-47.625836,"puntuation":1.7,"address":"747 Prairieview Road"},
{"id":548,"name":"Stephani","lat":50.6930818,"lon":3.1845673,"puntuation":3.9,"address":"5025 Stang Drive"},
{"id":549,"name":"Rourke","lat":36.07222,"lon":14.23583,"puntuation":4.0,"address":"79 Bashford Circle"},
{"id":550,"name":"Gay","lat":49.900535,"lon":23.9517484,"puntuation":1.3,"address":"176 Cambridge Drive"},
{"id":551,"name":"Philly","lat":19.3267846,"lon":-98.9145313,"puntuation":3.0,"address":"2467 Service Park"},
{"id":552,"name":"Star","lat":-5.1443118,"lon":-38.0850339,"puntuation":1.2,"address":"2 Clyde Gallagher Park"},
{"id":553,"name":"Gunner","lat":14.5801157,"lon":101.003522,"puntuation":4.0,"address":"55085 Declaration Place"},
{"id":554,"name":"Barty","lat":48.9086571,"lon":2.4532855,"puntuation":1.9,"address":"6 Westend Crossing"},
{"id":555,"name":"Dodie","lat":30.893837,"lon":121.092179,"puntuation":1.5,"address":"80 Harbort Park"},
{"id":556,"name":"Vida","lat":5.1886762,"lon":97.1344608,"puntuation":2.2,"address":"6 Florence Way"},
{"id":557,"name":"Becka","lat":54.7674474,"lon":58.2897934,"puntuation":2.7,"address":"8062 Eastwood Street"},
{"id":558,"name":"Isaak","lat":36.2389448,"lon":46.2779705,"puntuation":4.9,"address":"3 New Castle Parkway"},
{"id":559,"name":"Kahaleel","lat":-7.7519029,"lon":110.7077766,"puntuation":3.0,"address":"8827 Hoffman Alley"},
{"id":560,"name":"Winnie","lat":-6.7076379,"lon":111.3709499,"puntuation":4.7,"address":"0662 Dwight Crossing"},
{"id":561,"name":"Winnifred","lat":52.735825,"lon":20.7121262,"puntuation":2.9,"address":"7 Transport Junction"},
{"id":562,"name":"Adams","lat":-8.2717886,"lon":123.1119371,"puntuation":4.4,"address":"52556 Carioca Street"},
{"id":563,"name":"Kirbie","lat":-8.8567,"lon":121.012,"puntuation":4.6,"address":"6756 Ludington Hill"},
{"id":564,"name":"Denver","lat":-6.8744345,"lon":111.5736596,"puntuation":2.5,"address":"50 Farragut Trail"},
{"id":565,"name":"Malinda","lat":-7.0179759,"lon":109.8633501,"puntuation":4.2,"address":"05 Stephen Pass"},
{"id":566,"name":"Steward","lat":5.9411628,"lon":-56.9914585,"puntuation":1.5,"address":"841 Farwell Place"},
{"id":567,"name":"Belvia","lat":-8.0568365,"lon":111.8002195,"puntuation":4.0,"address":"90 Crescent Oaks Junction"},
{"id":568,"name":"Kaspar","lat":11.2666664,"lon":123.7333298,"puntuation":1.4,"address":"85345 Muir Place"},
{"id":569,"name":"Andy","lat":-1.509435,"lon":101.060699,"puntuation":3.2,"address":"2713 Hansons Road"},
{"id":570,"name":"Ivette","lat":-23.5325624,"lon":-46.9772966,"puntuation":1.4,"address":"97 Crownhardt Alley"},
{"id":571,"name":"Ellen","lat":-6.9689802,"lon":112.4261662,"puntuation":2.0,"address":"63 Drewry Circle"},
{"id":572,"name":"Noam","lat":34.423878,"lon":110.947552,"puntuation":4.5,"address":"12 Loftsgordon Street"},
{"id":573,"name":"Wait","lat":56.9396428,"lon":37.3590646,"puntuation":4.0,"address":"435 Acker Park"},
{"id":574,"name":"Liza","lat":7.95,"lon":4.983333,"puntuation":2.1,"address":"918 Hovde Alley"},
{"id":575,"name":"Maddy","lat":49.1449758,"lon":13.2297698,"puntuation":3.5,"address":"84 Grim Drive"},
{"id":576,"name":"Selestina","lat":61.3660499,"lon":22.0084795,"puntuation":3.0,"address":"8 Superior Crossing"},
{"id":577,"name":"Tracy","lat":-8.8474131,"lon":34.834821,"puntuation":4.0,"address":"4641 Haas Circle"},
{"id":578,"name":"Delora","lat":28.55386,"lon":112.35518,"puntuation":4.2,"address":"665 Maple Wood Terrace"},
{"id":579,"name":"Nikolai","lat":-8.1968847,"lon":112.5304693,"puntuation":2.7,"address":"03 Dixon Drive"},
{"id":580,"name":"Aliza","lat":30.5211502,"lon":112.8915932,"puntuation":2.0,"address":"898 Dixon Street"},
{"id":581,"name":"Otto","lat":24.983953,"lon":101.527027,"puntuation":3.3,"address":"91693 Lindbergh Place"},
{"id":582,"name":"Ancell","lat":40.9050121,"lon":-8.437181,"puntuation":2.3,"address":"5874 Pearson Terrace"},
{"id":583,"name":"Emmalynn","lat":30.475663,"lon":-87.193563,"puntuation":2.6,"address":"81 Bartillon Street"},
{"id":584,"name":"Gillan","lat":49.7371648,"lon":19.9186389,"puntuation":4.1,"address":"820 Shasta Circle"},
{"id":585,"name":"Celine","lat":54.8625893,"lon":69.2398607,"puntuation":1.9,"address":"5 Cody Road"},
{"id":586,"name":"Eolande","lat":56.5005833,"lon":39.6794042,"puntuation":4.9,"address":"4 Delaware Court"},
{"id":587,"name":"Andie","lat":-28.733291,"lon":29.35628,"puntuation":4.2,"address":"81 Petterle Place"},
{"id":588,"name":"Bathsheba","lat":-7.2597623,"lon":108.2822389,"puntuation":4.9,"address":"69281 Moland Center"},
{"id":589,"name":"Nickolai","lat":59.6037789,"lon":16.5289486,"puntuation":1.5,"address":"4 Cordelia Trail"},
{"id":590,"name":"Webster","lat":42.3662435,"lon":-83.3270994,"puntuation":1.4,"address":"612 Kenwood Hill"},
{"id":591,"name":"Rozelle","lat":17.9670882,"lon":104.0444828,"puntuation":4.4,"address":"9434 Sutteridge Drive"},
{"id":592,"name":"Abrahan","lat":9.9508447,"lon":123.9658538,"puntuation":2.1,"address":"611 Dennis Lane"},
{"id":593,"name":"Emiline","lat":25.05732,"lon":110.450325,"puntuation":1.5,"address":"29 Hazelcrest Road"},
{"id":594,"name":"Leroy","lat":-8.237963,"lon":112.5513677,"puntuation":4.3,"address":"94152 Oneill Street"},
{"id":595,"name":"Vannie","lat":7.9929954,"lon":-10.9524441,"puntuation":1.3,"address":"5 Farmco Crossing"},
{"id":596,"name":"Sigmund","lat":42.0256691,"lon":19.547883,"puntuation":4.5,"address":"53618 Nelson Terrace"},
{"id":597,"name":"Zonda","lat":34.4344694,"lon":133.2279653,"puntuation":2.5,"address":"36 Hazelcrest Road"},
{"id":598,"name":"Kerr","lat":-8.47089,"lon":117.4996816,"puntuation":4.5,"address":"20897 8th Road"},
{"id":599,"name":"Cole","lat":13.216667,"lon":105.266667,"puntuation":2.1,"address":"27965 Ohio Terrace"},
{"id":600,"name":"Basilio","lat":-10.7281603,"lon":-40.3496894,"puntuation":2.3,"address":"6 Mcguire Pass"},
{"id":601,"name":"Clint","lat":-12.3325,"lon":43.7775,"puntuation":1.6,"address":"9764 Aberg Court"},
{"id":602,"name":"Marcia","lat":67.82743,"lon":-115.09649,"puntuation":2.0,"address":"6981 Arapahoe Lane"},
{"id":603,"name":"Damien","lat":40.088917,"lon":122.089283,"puntuation":3.4,"address":"69 Drewry Place"},
{"id":604,"name":"Wynnie","lat":49.8557953,"lon":20.8093376,"puntuation":2.9,"address":"58009 Crescent Oaks Alley"},
{"id":605,"name":"Felita","lat":39.08335,"lon":77.56662,"puntuation":2.8,"address":"29 Annamark Lane"},
{"id":606,"name":"Kirk","lat":56.1389673,"lon":13.4016403,"puntuation":2.9,"address":"5297 Daystar Crossing"},
{"id":607,"name":"Janetta","lat":-8.1611036,"lon":113.6770012,"puntuation":1.2,"address":"21101 Florence Avenue"},
{"id":608,"name":"Antony","lat":10.347021,"lon":15.2370339,"puntuation":4.0,"address":"51 Melrose Lane"},
{"id":609,"name":"Jemmy","lat":24.44218,"lon":114.938684,"puntuation":3.8,"address":"0 Maple Wood Lane"},
{"id":610,"name":"Fowler","lat":7.45,"lon":-11.9,"puntuation":2.3,"address":"772 Westridge Junction"},
{"id":611,"name":"Lemmie","lat":39.505925,"lon":106.726099,"puntuation":3.8,"address":"7 Eggendart Lane"},
{"id":612,"name":"Adelheid","lat":9.128588,"lon":124.672209,"puntuation":1.3,"address":"2 Dawn Way"},
{"id":613,"name":"Minda","lat":14.8378259,"lon":-91.5202968,"puntuation":3.9,"address":"62353 Comanche Junction"},
{"id":614,"name":"Dorella","lat":35.375873,"lon":139.1671308,"puntuation":2.9,"address":"8 East Circle"},
{"id":615,"name":"Addie","lat":40.3319506,"lon":-3.7686545,"puntuation":2.2,"address":"62 Merry Drive"},
{"id":616,"name":"Sybilla","lat":-6.8353325,"lon":108.5151507,"puntuation":3.3,"address":"5203 Longview Parkway"},
{"id":617,"name":"Jacquelin","lat":61.9676727,"lon":26.3974095,"puntuation":3.0,"address":"13754 Park Meadow Avenue"},
{"id":618,"name":"Sharl","lat":-28.73688,"lon":31.89571,"puntuation":2.2,"address":"954 Sugar Drive"},
{"id":619,"name":"Son","lat":50.7842909,"lon":44.712888,"puntuation":2.4,"address":"30995 Heffernan Circle"},
{"id":620,"name":"Carie","lat":15.552727,"lon":48.516388,"puntuation":2.8,"address":"18060 Eagle Crest Lane"},
{"id":621,"name":"Sunny","lat":-7.2541395,"lon":112.7703313,"puntuation":2.5,"address":"75027 Maple Wood Way"},
{"id":622,"name":"Roanne","lat":-8.4071,"lon":123.0649,"puntuation":2.6,"address":"31989 Bluejay Crossing"},
{"id":623,"name":"Buddie","lat":-7.106273,"lon":31.234619,"puntuation":2.7,"address":"4798 Crowley Parkway"},
{"id":624,"name":"Bartel","lat":13.5468199,"lon":-15.9839424,"puntuation":2.6,"address":"4 Bonner Center"},
{"id":625,"name":"Boyd","lat":49.7821352,"lon":23.6611306,"puntuation":2.1,"address":"1345 Canary Pass"},
{"id":626,"name":"Jerrie","lat":45.4942402,"lon":18.0674023,"puntuation":1.6,"address":"09 Menomonie Drive"},
{"id":627,"name":"Veriee","lat":59.913104,"lon":10.7238941,"puntuation":4.1,"address":"951 Starling Trail"},
{"id":628,"name":"Allard","lat":39.128291,"lon":117.251586,"puntuation":3.8,"address":"952 Warrior Parkway"},
{"id":629,"name":"Anson","lat":25.8517475,"lon":43.5222313,"puntuation":1.7,"address":"06 Prairieview Alley"},
{"id":630,"name":"Lora","lat":32.5746598,"lon":-117.0697958,"puntuation":2.2,"address":"69186 Autumn Leaf Center"},
{"id":631,"name":"Blane","lat":-8.4044008,"lon":116.5491893,"puntuation":3.1,"address":"298 Larry Place"},
{"id":632,"name":"Spenser","lat":31.298974,"lon":120.585289,"puntuation":2.0,"address":"9 Declaration Plaza"},
{"id":633,"name":"Juliane","lat":41.91142,"lon":112.97964,"puntuation":1.8,"address":"32 Troy Way"},
{"id":634,"name":"Celestyn","lat":42.3242187,"lon":59.1818543,"puntuation":3.3,"address":"10237 Upham Terrace"},
{"id":635,"name":"Dav","lat":30.166551,"lon":103.911314,"puntuation":1.4,"address":"0 Bashford Alley"},
{"id":636,"name":"Alisha","lat":22.354385,"lon":110.947043,"puntuation":1.4,"address":"0 Sycamore Drive"},
{"id":637,"name":"Carmel","lat":52.2348348,"lon":104.2973676,"puntuation":2.3,"address":"05961 Elmside Park"},
{"id":638,"name":"Angelica","lat":47.6949791,"lon":28.9654659,"puntuation":3.4,"address":"5894 Dayton Pass"},
{"id":639,"name":"Julio","lat":58.263232,"lon":54.9326774,"puntuation":1.5,"address":"1861 Dottie Street"},
{"id":640,"name":"Kelly","lat":22.3348365,"lon":91.8365195,"puntuation":4.8,"address":"0 Welch Way"},
{"id":641,"name":"Oralia","lat":33.029633,"lon":-96.682893,"puntuation":4.1,"address":"465 Oak Trail"},
{"id":642,"name":"Mata","lat":10.5423489,"lon":122.9635773,"puntuation":1.7,"address":"7483 Sycamore Way"},
{"id":643,"name":"Briggs","lat":14.5807588,"lon":100.8338593,"puntuation":3.4,"address":"5746 Morrow Lane"},
{"id":644,"name":"Alfy","lat":16.0206637,"lon":104.3381361,"puntuation":2.7,"address":"2 Mcguire Terrace"},
{"id":645,"name":"Almeria","lat":14.5933217,"lon":-90.496159,"puntuation":3.6,"address":"80 Susan Circle"},
{"id":646,"name":"Lyle","lat":12.1725083,"lon":7.7729115,"puntuation":2.0,"address":"285 Delladonna Road"},
{"id":647,"name":"Damiano","lat":47.2550409,"lon":-1.5401497,"puntuation":2.5,"address":"3940 Swallow Terrace"},
{"id":648,"name":"Wakefield","lat":41.509666,"lon":-7.9858152,"puntuation":1.4,"address":"8 Little Fleur Crossing"},
{"id":649,"name":"Gaye","lat":-16.4622905,"lon":-54.6210664,"puntuation":2.0,"address":"47 Kropf Hill"},
{"id":650,"name":"Ring","lat":-8.714498,"lon":115.169522,"puntuation":3.2,"address":"27 Buell Lane"},
{"id":651,"name":"Gillan","lat":58.8049634,"lon":17.1339232,"puntuation":3.2,"address":"32 Maywood Plaza"},
{"id":652,"name":"Walther","lat":49.7049411,"lon":16.8895083,"puntuation":3.3,"address":"907 Crowley Point"},
{"id":653,"name":"Tammy","lat":-8.4766365,"lon":119.8805782,"puntuation":2.0,"address":"414 Melrose Hill"},
{"id":654,"name":"Abby","lat":48.120484,"lon":-1.695391,"puntuation":2.8,"address":"4 Annamark Place"},
{"id":655,"name":"Roselia","lat":-14.6554285,"lon":28.0888578,"puntuation":1.2,"address":"77186 Anzinger Way"},
{"id":656,"name":"Laird","lat":-7.7218793,"lon":113.4785837,"puntuation":2.5,"address":"168 Cambridge Crossing"},
{"id":657,"name":"Giulia","lat":34.0899029,"lon":131.3980655,"puntuation":1.9,"address":"274 Merry Parkway"},
{"id":658,"name":"Cass","lat":39.19537,"lon":117.218044,"puntuation":3.5,"address":"416 Westridge Plaza"},
{"id":659,"name":"Katharyn","lat":45.78,"lon":-108.5,"puntuation":4.4,"address":"9732 Fallview Park"},
{"id":660,"name":"Bernardina","lat":48.655181,"lon":25.7096503,"puntuation":2.0,"address":"8 Clyde Gallagher Pass"},
{"id":661,"name":"Brade","lat":59.2527176,"lon":17.8864717,"puntuation":1.4,"address":"0837 Artisan Pass"},
{"id":662,"name":"Ramsay","lat":26.312444,"lon":99.850365,"puntuation":2.7,"address":"833 Lawn Place"},
{"id":663,"name":"Deidre","lat":49.2165148,"lon":-122.6562872,"puntuation":3.8,"address":"0466 Ryan Circle"},
{"id":664,"name":"Burk","lat":32.8172446,"lon":-96.7712123,"puntuation":2.3,"address":"92792 Hansons Parkway"},
{"id":665,"name":"Saw","lat":49.8401383,"lon":20.0045112,"puntuation":3.3,"address":"94 Banding Court"},
{"id":666,"name":"Sebastian","lat":31.690215,"lon":113.382458,"puntuation":1.9,"address":"4071 Mosinee Junction"},
{"id":667,"name":"Allayne","lat":-21.224741,"lon":-50.863384,"puntuation":2.7,"address":"7 Heath Crossing"},
{"id":668,"name":"Drew","lat":19.1780491,"lon":-96.1288426,"puntuation":2.9,"address":"31 Heffernan Park"},
{"id":669,"name":"Jerrylee","lat":48.9897895,"lon":2.2868727,"puntuation":1.5,"address":"30809 Sullivan Crossing"},
{"id":670,"name":"Ali","lat":25.386379,"lon":114.922922,"puntuation":1.7,"address":"4 Melvin Street"},
{"id":671,"name":"Griffin","lat":-27.5948698,"lon":-48.5482195,"puntuation":2.3,"address":"51401 Sundown Place"},
{"id":672,"name":"Leticia","lat":49.0871049,"lon":0.5957159,"puntuation":4.7,"address":"13 Sutherland Junction"},
{"id":673,"name":"Nixie","lat":50.3047644,"lon":15.1696238,"puntuation":3.9,"address":"053 Ridge Oak Way"},
{"id":674,"name":"Sallee","lat":0.1840524,"lon":100.1255164,"puntuation":2.6,"address":"04212 Red Cloud Point"},
{"id":675,"name":"Ed","lat":34.5107638,"lon":69.1173623,"puntuation":1.8,"address":"39 Ridge Oak Place"},
{"id":676,"name":"Gun","lat":36.070149,"lon":101.931253,"puntuation":2.3,"address":"646 Kinsman Drive"},
{"id":677,"name":"Liliane","lat":42.7376689,"lon":-84.5169757,"puntuation":2.6,"address":"998 Waywood Street"},
{"id":678,"name":"Mable","lat":24.6613135,"lon":102.3589828,"puntuation":1.0,"address":"80895 Norway Maple Point"},
{"id":679,"name":"Kirbie","lat":-7.3090733,"lon":108.1859765,"puntuation":2.8,"address":"648 Heffernan Avenue"},
{"id":680,"name":"Veronique","lat":50.0509609,"lon":72.9660737,"puntuation":3.1,"address":"44 Iowa Point"},
{"id":681,"name":"Byrom","lat":22.0080725,"lon":113.3785933,"puntuation":2.9,"address":"8 Lukken Terrace"},
{"id":682,"name":"Marion","lat":37.4475393,"lon":25.3912281,"puntuation":4.2,"address":"5 North Court"},
{"id":683,"name":"Domenic","lat":25.6775595,"lon":-100.2596935,"puntuation":3.5,"address":"07 Vahlen Way"},
{"id":684,"name":"Becka","lat":-7.3897541,"lon":108.8640607,"puntuation":1.3,"address":"8688 Sunbrook Point"},
{"id":685,"name":"Les","lat":45.3913779,"lon":40.1763516,"puntuation":3.5,"address":"16952 Johnson Drive"},
{"id":686,"name":"Lynnell","lat":42.59689,"lon":47.71824,"puntuation":1.5,"address":"1 Brickson Park Hill"},
{"id":687,"name":"Roi","lat":44.8055893,"lon":-0.630617,"puntuation":4.7,"address":"00 Loftsgordon Terrace"},
{"id":688,"name":"Karlyn","lat":41.701706,"lon":48.2809323,"puntuation":4.4,"address":"51 Lake View Road"},
{"id":689,"name":"Myron","lat":50.0201,"lon":20.1093853,"puntuation":2.6,"address":"45 Mccormick Junction"},
{"id":690,"name":"Henryetta","lat":4.9026627,"lon":97.7878579,"puntuation":2.6,"address":"605 Birchwood Road"},
{"id":691,"name":"Carlene","lat":53.9910079,"lon":38.5367317,"puntuation":2.1,"address":"7450 Continental Terrace"},
{"id":692,"name":"Idelle","lat":55.354135,"lon":40.297852,"puntuation":4.5,"address":"364 Mosinee Center"},
{"id":693,"name":"Johanna","lat":34.5403537,"lon":-4.8015285,"puntuation":1.7,"address":"8916 Hoepker Court"},
{"id":694,"name":"Corny","lat":53.5380522,"lon":17.2364118,"puntuation":3.2,"address":"043 Ridge Oak Crossing"},
{"id":695,"name":"Stanwood","lat":52.501244,"lon":-0.766168,"puntuation":1.6,"address":"0752 Clove Point"},
{"id":696,"name":"Ede","lat":-8.1611036,"lon":113.6770012,"puntuation":4.0,"address":"31670 Jenna Pass"},
{"id":697,"name":"Caitrin","lat":14.6014909,"lon":103.0933171,"puntuation":1.5,"address":"18402 Quincy Alley"},
{"id":698,"name":"Paquito","lat":-12.5909084,"lon":-69.1963141,"puntuation":2.5,"address":"45 Service Point"},
{"id":699,"name":"Rosita","lat":25.9567729,"lon":88.3831008,"puntuation":3.0,"address":"4 Maple Parkway"},
{"id":700,"name":"Desmond","lat":51.63343,"lon":-111.90181,"puntuation":3.5,"address":"3280 Johnson Avenue"},
{"id":701,"name":"Emilio","lat":48.7974097,"lon":32.4076765,"puntuation":4.4,"address":"1 Lake View Alley"},
{"id":702,"name":"Ferne","lat":-6.2200719,"lon":105.843708,"puntuation":4.7,"address":"8474 Kensington Center"},
{"id":703,"name":"Urban","lat":40.3258678,"lon":23.9813901,"puntuation":4.4,"address":"94 Memorial Street"},
{"id":704,"name":"Ettie","lat":38.35,"lon":-81.63,"puntuation":4.8,"address":"133 Doe Crossing Pass"},
{"id":705,"name":"Dur","lat":-2.7389977,"lon":-78.8458135,"puntuation":4.0,"address":"552 Chive Drive"},
{"id":706,"name":"Urbano","lat":39.263105,"lon":117.580995,"puntuation":4.9,"address":"42923 Pine View Crossing"},
{"id":707,"name":"Kevin","lat":14.9242794,"lon":-91.5431764,"puntuation":4.0,"address":"28 Clyde Gallagher Center"},
{"id":708,"name":"Sally","lat":38.7731612,"lon":140.297972,"puntuation":4.7,"address":"982 Maple Wood Hill"},
{"id":709,"name":"Nicolai","lat":26.5419464,"lon":86.7567219,"puntuation":1.2,"address":"601 Calypso Alley"},
{"id":710,"name":"Jacques","lat":53.8458953,"lon":19.6034448,"puntuation":1.7,"address":"759 Dryden Place"},
{"id":711,"name":"Emmerich","lat":24.804061,"lon":118.609289,"puntuation":4.7,"address":"6426 Trailsway Way"},
{"id":712,"name":"Jemimah","lat":49.5477597,"lon":5.8532859,"puntuation":2.7,"address":"35 Stephen Court"},
{"id":713,"name":"Dore","lat":60.1391526,"lon":-45.2419658,"puntuation":4.5,"address":"53 Moland Trail"},
{"id":714,"name":"Sarina","lat":40.7408774,"lon":24.5772111,"puntuation":2.0,"address":"78 Roth Trail"},
{"id":715,"name":"Wilone","lat":23.788392,"lon":114.74638,"puntuation":4.6,"address":"986 Packers Court"},
{"id":716,"name":"Stanwood","lat":46.1696293,"lon":14.6907259,"puntuation":4.8,"address":"2 Briar Crest Road"},
{"id":717,"name":"Modesta","lat":15.0026852,"lon":108.7838572,"puntuation":1.7,"address":"11847 Schurz Alley"},
{"id":718,"name":"Immanuel","lat":2.9479721,"lon":-68.0477509,"puntuation":3.1,"address":"36 Farmco Center"},
{"id":719,"name":"Nels","lat":-1.259553,"lon":104.100502,"puntuation":1.7,"address":"9761 Dakota Drive"},
{"id":720,"name":"Odille","lat":11.2328036,"lon":122.5666402,"puntuation":1.9,"address":"4 Sage Crossing"},
{"id":721,"name":"Rozanna","lat":32.7526842,"lon":-97.3264658,"puntuation":3.7,"address":"83 Raven Point"},
{"id":722,"name":"Lori","lat":-34.6091049,"lon":-58.7005845,"puntuation":3.1,"address":"5564 Maywood Center"},
{"id":723,"name":"Corrine","lat":-6.1493907,"lon":143.6474817,"puntuation":1.2,"address":"2 Pawling Junction"},
{"id":724,"name":"Ann","lat":41.837693,"lon":123.981229,"puntuation":3.7,"address":"31 Scoville Center"},
{"id":725,"name":"Saunderson","lat":50.216501,"lon":21.6671416,"puntuation":5.0,"address":"4 Judy Way"},
{"id":726,"name":"Monica","lat":50.2414199,"lon":25.7622611,"puntuation":4.9,"address":"6760 Gale Lane"},
{"id":727,"name":"Rafaela","lat":14.6388542,"lon":121.0041022,"puntuation":3.3,"address":"5 Stuart Parkway"},
{"id":728,"name":"Georg","lat":41.3216465,"lon":-8.4628586,"puntuation":2.1,"address":"1 Prairie Rose Street"},
{"id":729,"name":"Leann","lat":8.636758,"lon":-11.4722494,"puntuation":5.0,"address":"667 Chive Hill"},
{"id":730,"name":"Rebeca","lat":11.5705176,"lon":107.5268471,"puntuation":3.5,"address":"8682 Dakota Crossing"},
{"id":731,"name":"Vannie","lat":13.2944016,"lon":-4.8987523,"puntuation":1.2,"address":"73438 Bultman Parkway"},
{"id":732,"name":"Rabi","lat":17.775429,"lon":120.683745,"puntuation":1.8,"address":"025 Debs Lane"},
{"id":733,"name":"Robbie","lat":28.213424,"lon":116.429948,"puntuation":4.0,"address":"58 Evergreen Trail"},
{"id":734,"name":"Suzanne","lat":32.023273,"lon":108.400024,"puntuation":2.0,"address":"2906 Commercial Terrace"},
{"id":735,"name":"Eydie","lat":41.8984166,"lon":20.905252,"puntuation":4.8,"address":"80760 Wayridge Hill"},
{"id":736,"name":"Bobby","lat":8.2192683,"lon":5.5066242,"puntuation":3.3,"address":"8608 Hoard Way"},
{"id":737,"name":"Corliss","lat":31.04808,"lon":121.749495,"puntuation":3.5,"address":"5363 Mosinee Way"},
{"id":738,"name":"Tildi","lat":-14.3562,"lon":-75.6769489,"puntuation":1.7,"address":"5507 Elmside Avenue"},
{"id":739,"name":"Joyan","lat":13.5668258,"lon":-2.4109908,"puntuation":2.7,"address":"938 Steensland Trail"},
{"id":740,"name":"Kaile","lat":-8.5388252,"lon":115.402367,"puntuation":3.3,"address":"1346 Sutherland Pass"},
{"id":741,"name":"Lurette","lat":16.158922,"lon":100.603798,"puntuation":1.2,"address":"5628 Hallows Center"},
{"id":742,"name":"Lesli","lat":15.1751306,"lon":99.7509296,"puntuation":4.2,"address":"971 Sachtjen Terrace"},
{"id":743,"name":"Consuelo","lat":22.588115,"lon":-83.2425711,"puntuation":3.6,"address":"0950 Vidon Pass"},
{"id":744,"name":"Brittan","lat":-6.4222,"lon":106.0889,"puntuation":2.4,"address":"5424 Sommers Park"},
{"id":745,"name":"Alvan","lat":11.6494676,"lon":122.4318981,"puntuation":2.5,"address":"3 Shoshone Way"},
{"id":746,"name":"Woodman","lat":11.4720137,"lon":49.8739267,"puntuation":3.3,"address":"4307 Barby Junction"},
{"id":747,"name":"Glyn","lat":29.8572576,"lon":59.9739243,"puntuation":4.7,"address":"5 Valley Edge Road"},
{"id":748,"name":"Fred","lat":27.5277132,"lon":57.8651371,"puntuation":2.4,"address":"3610 Westridge Avenue"},
{"id":749,"name":"Carmencita","lat":-17.4047609,"lon":-63.7311505,"puntuation":4.4,"address":"56225 Dunning Park"},
{"id":750,"name":"Willi","lat":-45.8405005,"lon":-67.4686475,"puntuation":2.9,"address":"2 Montana Way"},
{"id":751,"name":"Stephan","lat":8.50874,"lon":-73.4488,"puntuation":1.5,"address":"51 Green Ridge Point"},
{"id":752,"name":"Kathe","lat":51.3309754,"lon":19.3744004,"puntuation":2.4,"address":"8 Prairieview Trail"},
{"id":753,"name":"Ario","lat":14.6355044,"lon":121.016279,"puntuation":3.8,"address":"004 Calypso Plaza"},
{"id":754,"name":"Matthew","lat":24.808198,"lon":118.03177,"puntuation":1.5,"address":"1062 Main Hill"},
{"id":755,"name":"Corrinne","lat":44.9286321,"lon":16.9119159,"puntuation":5.0,"address":"68 Ilene Parkway"},
{"id":756,"name":"Jade","lat":54.8,"lon":24.45,"puntuation":1.3,"address":"9 Becker Avenue"},
{"id":757,"name":"Forester","lat":49.5773435,"lon":22.3696964,"puntuation":4.7,"address":"1 Monument Way"},
{"id":758,"name":"Oberon","lat":23.405908,"lon":104.649387,"puntuation":1.7,"address":"77 Haas Street"},
{"id":759,"name":"Marybelle","lat":7.45,"lon":2.85,"puntuation":4.6,"address":"69145 Lakeland Trail"},
{"id":760,"name":"Lexi","lat":10.1219025,"lon":123.5393143,"puntuation":4.0,"address":"55889 Cascade Parkway"},
{"id":761,"name":"Alanson","lat":-26.5524312,"lon":29.0750837,"puntuation":4.2,"address":"17239 Green Center"},
{"id":762,"name":"Patricia","lat":39.4591,"lon":-8.6671695,"puntuation":3.3,"address":"9791 Schiller Court"},
{"id":763,"name":"Stephanus","lat":14.5144041,"lon":121.0406718,"puntuation":1.7,"address":"1 Golf Parkway"},
{"id":764,"name":"Rriocard","lat":48.2751888,"lon":40.1995439,"puntuation":3.0,"address":"6628 Manufacturers Park"},
{"id":765,"name":"Harrie","lat":31.685311,"lon":119.787645,"puntuation":3.3,"address":"67 Roxbury Court"},
{"id":766,"name":"Cornelius","lat":37.8412319,"lon":140.5135888,"puntuation":4.5,"address":"156 Basil Junction"},
{"id":767,"name":"Harriet","lat":54.5815949,"lon":54.5367341,"puntuation":2.9,"address":"02415 Judy Circle"},
{"id":768,"name":"Cariotta","lat":44.6734042,"lon":40.3074973,"puntuation":4.7,"address":"53014 Westerfield Pass"},
{"id":769,"name":"Elyn","lat":34.0643502,"lon":-117.2847875,"puntuation":4.9,"address":"45210 Meadow Vale Road"},
{"id":770,"name":"Leoine","lat":38.4618994,"lon":-9.1029917,"puntuation":2.3,"address":"681 Heath Plaza"},
{"id":771,"name":"Ray","lat":5.021476,"lon":-73.990955,"puntuation":3.1,"address":"39 Towne Crossing"},
{"id":772,"name":"Ramona","lat":34.5521789,"lon":136.5175749,"puntuation":4.5,"address":"3141 Continental Way"},
{"id":773,"name":"Luce","lat":-7.823074,"lon":110.1576731,"puntuation":1.4,"address":"20781 Shasta Plaza"},
{"id":774,"name":"Corinna","lat":39.2923338,"lon":-9.1684401,"puntuation":2.9,"address":"62282 Dryden Lane"},
{"id":775,"name":"Bethina","lat":63.4435884,"lon":120.3197132,"puntuation":3.4,"address":"4 Spohn Terrace"},
{"id":776,"name":"Lindie","lat":38.6002411,"lon":141.2405508,"puntuation":3.7,"address":"45475 Sloan Hill"},
{"id":777,"name":"Ham","lat":-20.6405825,"lon":-65.2070534,"puntuation":2.2,"address":"33 Westerfield Lane"},
{"id":778,"name":"Sheelah","lat":-28.1804757,"lon":30.1531568,"puntuation":4.6,"address":"505 Fallview Center"},
{"id":779,"name":"Mose","lat":20.3005979,"lon":-76.2421185,"puntuation":2.6,"address":"27646 Linden Plaza"},
{"id":780,"name":"Arvie","lat":41.654661,"lon":126.154678,"puntuation":1.6,"address":"714 Glacier Hill Road"},
{"id":781,"name":"Cornall","lat":34.64921,"lon":70.5914,"puntuation":1.0,"address":"93495 Darwin Drive"},
{"id":782,"name":"Oona","lat":46.5756337,"lon":16.1741662,"puntuation":2.8,"address":"9 Tony Trail"},
{"id":783,"name":"Leon","lat":-8.4428564,"lon":112.6973355,"puntuation":1.9,"address":"7740 Lerdahl Place"},
{"id":784,"name":"Maire","lat":13.0034658,"lon":8.9079782,"puntuation":1.1,"address":"966 Trailsway Plaza"},
{"id":785,"name":"Susannah","lat":7.833333,"lon":-11.666667,"puntuation":3.1,"address":"60 Hudson Parkway"},
{"id":786,"name":"Ermanno","lat":-33.93274,"lon":151.188577,"puntuation":1.0,"address":"00213 Crownhardt Park"},
{"id":787,"name":"Barnabas","lat":33.7868136,"lon":-112.28609,"puntuation":2.6,"address":"0941 Barby Hill"},
{"id":788,"name":"Farr","lat":38.942367,"lon":117.059325,"puntuation":5.0,"address":"12180 Commercial Avenue"},
{"id":789,"name":"Nessi","lat":-10.592804,"lon":121.8292161,"puntuation":2.4,"address":"45251 Kinsman Drive"},
{"id":790,"name":"Catarina","lat":22.948016,"lon":113.366904,"puntuation":3.9,"address":"327 David Place"},
{"id":791,"name":"Esme","lat":52.476835,"lon":17.0263373,"puntuation":2.9,"address":"13 Continental Street"},
{"id":792,"name":"Katharyn","lat":51.8321777,"lon":85.7788422,"puntuation":4.8,"address":"4299 Wayridge Point"},
{"id":793,"name":"Lucinda","lat":8.3520574,"lon":124.6503061,"puntuation":4.9,"address":"8253 Hauk Plaza"},
{"id":794,"name":"Simonette","lat":45.0075322,"lon":19.8227166,"puntuation":1.1,"address":"3 Almo Crossing"},
{"id":795,"name":"Laina","lat":-5.8949347,"lon":-35.4343604,"puntuation":3.1,"address":"729 Nelson Way"},
{"id":796,"name":"Rawley","lat":32.990664,"lon":112.528308,"puntuation":4.0,"address":"4 Springview Parkway"},
{"id":797,"name":"Nolly","lat":50.9330498,"lon":23.3519912,"puntuation":3.2,"address":"57488 Morningstar Parkway"},
{"id":798,"name":"Archer","lat":-14.0359111,"lon":-71.5709117,"puntuation":1.3,"address":"1680 Lighthouse Bay Place"},
{"id":799,"name":"Cory","lat":4.2571092,"lon":15.7879371,"puntuation":1.4,"address":"93 Swallow Crossing"},
{"id":800,"name":"Ricki","lat":17.9073835,"lon":-77.0965442,"puntuation":1.8,"address":"27 Helena Avenue"},
{"id":801,"name":"Jori","lat":41.9203468,"lon":-87.6433139,"puntuation":1.6,"address":"78 Lien Plaza"},
{"id":802,"name":"Shae","lat":-6.4594857,"lon":105.9141793,"puntuation":1.4,"address":"20 Upham Drive"},
{"id":803,"name":"Yank","lat":20.5359964,"lon":-103.4325178,"puntuation":2.8,"address":"3 Arrowood Crossing"},
{"id":804,"name":"Monty","lat":55.830186,"lon":37.4457899,"puntuation":3.9,"address":"4340 Ilene Parkway"},
{"id":805,"name":"Raimondo","lat":52.0895358,"lon":4.3956096,"puntuation":1.2,"address":"8473 Emmet Lane"},
{"id":806,"name":"Gualterio","lat":31.04808,"lon":121.749495,"puntuation":4.4,"address":"9 Rieder Court"},
{"id":807,"name":"Vanna","lat":10.4704517,"lon":-66.7992646,"puntuation":3.6,"address":"1739 Lakewood Gardens Way"},
{"id":808,"name":"Marchall","lat":49.5186415,"lon":17.9462874,"puntuation":2.0,"address":"898 Tennyson Way"},
{"id":809,"name":"Enoch","lat":31.9100651,"lon":35.949099,"puntuation":3.1,"address":"2594 Caliangt Street"},
{"id":810,"name":"Joanna","lat":41.1071733,"lon":-80.5993854,"puntuation":1.7,"address":"223 Raven Trail"},
{"id":811,"name":"Ciro","lat":-13.6445104,"lon":32.6447001,"puntuation":1.1,"address":"9 Hintze Circle"},
{"id":812,"name":"Devonna","lat":53.8446885,"lon":28.9892932,"puntuation":1.8,"address":"8 Columbus Court"},
{"id":813,"name":"Orelia","lat":38.0375021,"lon":125.7079231,"puntuation":2.8,"address":"170 Fallview Pass"},
{"id":814,"name":"Timoteo","lat":37.783205,"lon":107.407358,"puntuation":2.3,"address":"85445 Carioca Park"},
{"id":815,"name":"Thoma","lat":40.3643523,"lon":70.8001028,"puntuation":1.0,"address":"23 East Place"},
{"id":816,"name":"Cammy","lat":14.6052661,"lon":121.1206771,"puntuation":5.0,"address":"44 Canary Point"},
{"id":817,"name":"Joscelin","lat":31.0549151,"lon":31.380243,"puntuation":3.7,"address":"11 Trailsway Trail"},
{"id":818,"name":"Leroy","lat":53.3490502,"lon":56.0574649,"puntuation":3.8,"address":"78461 Warner Circle"},
{"id":819,"name":"Etta","lat":-10.0999445,"lon":123.8132141,"puntuation":3.8,"address":"938 Victoria Crossing"},
{"id":820,"name":"Pavlov","lat":-9.8502,"lon":124.5163,"puntuation":3.5,"address":"27413 Spohn Court"},
{"id":821,"name":"Masha","lat":-6.08672,"lon":105.95596,"puntuation":2.1,"address":"40 Eagle Crest Lane"},
{"id":822,"name":"Wells","lat":52.3927372,"lon":9.8476686,"puntuation":2.8,"address":"7 Mosinee Plaza"},
{"id":823,"name":"Natale","lat":37.235499,"lon":-93.2478638,"puntuation":4.6,"address":"10951 Parkside Park"},
{"id":824,"name":"Sigismondo","lat":10.9820744,"lon":124.9525053,"puntuation":1.6,"address":"6 Karstens Park"},
{"id":825,"name":"Guss","lat":-7.3312,"lon":107.9703,"puntuation":1.5,"address":"954 Stephen Avenue"},
{"id":826,"name":"Lissie","lat":42.5447407,"lon":70.3420209,"puntuation":3.8,"address":"2639 Donald Pass"},
{"id":827,"name":"Erma","lat":17.29788,"lon":43.38718,"puntuation":3.2,"address":"0 Coleman Center"},
{"id":828,"name":"Dniren","lat":10.9322366,"lon":121.9864492,"puntuation":4.4,"address":"67 Corscot Court"},
{"id":829,"name":"Nora","lat":4.9564022,"lon":6.6344177,"puntuation":4.7,"address":"193 Heath Terrace"},
{"id":830,"name":"Melva","lat":36.7445146,"lon":26.9591755,"puntuation":4.0,"address":"8877 Sycamore Circle"},
{"id":831,"name":"Maurice","lat":-6.4127,"lon":105.8625,"puntuation":2.9,"address":"747 Nevada Alley"},
{"id":832,"name":"Cal","lat":43.9576632,"lon":43.6312634,"puntuation":2.6,"address":"488 Loomis Crossing"},
{"id":833,"name":"Georgeanne","lat":51.64027,"lon":22.9003199,"puntuation":1.2,"address":"3605 Aberg Parkway"},
{"id":834,"name":"Travus","lat":36.569805,"lon":4.448361,"puntuation":2.4,"address":"222 Longview Alley"},
{"id":835,"name":"Cornela","lat":-11.83294,"lon":-75.42997,"puntuation":2.2,"address":"5059 Maple Wood Circle"},
{"id":836,"name":"Rhona","lat":44.906512,"lon":127.60654,"puntuation":3.2,"address":"278 Milwaukee Point"},
{"id":837,"name":"Miguelita","lat":45.3250638,"lon":15.6962323,"puntuation":1.2,"address":"4 Mallory Circle"},
{"id":838,"name":"Lida","lat":54.5941065,"lon":17.8604786,"puntuation":2.4,"address":"3394 Fuller Point"},
{"id":839,"name":"Meryl","lat":32.032726,"lon":35.288375,"puntuation":1.9,"address":"916 Waywood Drive"},
{"id":840,"name":"Dilan","lat":58.3776252,"lon":26.7290062,"puntuation":4.9,"address":"20 Dryden Road"},
{"id":841,"name":"Harmon","lat":3.1155165,"lon":35.6040785,"puntuation":1.0,"address":"51124 Ridgeway Street"},
{"id":842,"name":"Isidora","lat":42.707822,"lon":47.5641242,"puntuation":3.7,"address":"4 Amoth Place"},
{"id":843,"name":"Dorita","lat":-12.95689,"lon":-74.023193,"puntuation":2.3,"address":"2024 Stoughton Hill"},
{"id":844,"name":"Dianemarie","lat":53.1183502,"lon":48.8618445,"puntuation":4.2,"address":"76 Sugar Center"},
{"id":845,"name":"Amalia","lat":-8.5738445,"lon":116.1093533,"puntuation":2.7,"address":"4761 Ohio Trail"},
{"id":846,"name":"Saul","lat":-37.5059062,"lon":-72.6737875,"puntuation":3.7,"address":"360 Elka Avenue"},
{"id":847,"name":"Beck","lat":59.4487214,"lon":17.8043161,"puntuation":1.6,"address":"7 Summit Terrace"},
{"id":848,"name":"Eleen","lat":42.25785,"lon":118.886931,"puntuation":3.8,"address":"7 Del Sol Park"},
{"id":849,"name":"Jammal","lat":22.4937132,"lon":91.5015009,"puntuation":2.6,"address":"061 Burrows Drive"},
{"id":850,"name":"Ronna","lat":22.3577742,"lon":103.2493721,"puntuation":3.6,"address":"2 Summer Ridge Alley"},
{"id":851,"name":"Sarena","lat":51.8123584,"lon":20.065421,"puntuation":2.3,"address":"142 Birchwood Drive"},
{"id":852,"name":"Muhammad","lat":23.021478,"lon":113.121435,"puntuation":2.0,"address":"6078 Darwin Trail"},
{"id":853,"name":"Lyndell","lat":47.2186081,"lon":34.6661709,"puntuation":3.7,"address":"29533 Novick Road"},
{"id":854,"name":"Web","lat":-28.3031653,"lon":-49.3450112,"puntuation":3.8,"address":"45445 Browning Trail"},
{"id":855,"name":"Ernaline","lat":1.3118981,"lon":32.463708,"puntuation":3.0,"address":"12 Grover Road"},
{"id":856,"name":"Tiff","lat":10.0342937,"lon":126.0415372,"puntuation":4.2,"address":"2954 Waxwing Plaza"},
{"id":857,"name":"Ambrosius","lat":-7.150975,"lon":110.1402594,"puntuation":3.7,"address":"9854 Shelley Avenue"},
{"id":858,"name":"Sib","lat":46.6063814,"lon":15.7861748,"puntuation":2.5,"address":"93 Di Loreto Park"},
{"id":859,"name":"Leonid","lat":45.1905186,"lon":0.7423124,"puntuation":3.3,"address":"63956 Miller Drive"},
{"id":860,"name":"Horace","lat":6.2245859,"lon":101.8109253,"puntuation":2.3,"address":"86792 Pond Point"},
{"id":861,"name":"Ludovika","lat":-21.6493783,"lon":-41.745717,"puntuation":2.5,"address":"696 Fuller Drive"},
{"id":862,"name":"Kathy","lat":45.8359543,"lon":5.0634248,"puntuation":1.5,"address":"5 Jana Trail"},
{"id":863,"name":"Davy","lat":32.291013,"lon":109.07515,"puntuation":2.8,"address":"0281 Fulton Terrace"},
{"id":864,"name":"Nikolas","lat":40.6238902,"lon":-75.3936808,"puntuation":2.8,"address":"03359 Harbort Plaza"},
{"id":865,"name":"Hyacinthie","lat":5.8874488,"lon":10.0191857,"puntuation":1.2,"address":"77129 Heath Point"},
{"id":866,"name":"David","lat":27.513829,"lon":108.223612,"puntuation":4.8,"address":"42217 Bay Circle"},
{"id":867,"name":"Jules","lat":34.5107638,"lon":69.1173623,"puntuation":4.7,"address":"2 Jackson Avenue"},
{"id":868,"name":"Franciska","lat":-32.8916404,"lon":-60.7039167,"puntuation":2.5,"address":"86337 Magdeline Way"},
{"id":869,"name":"Sherline","lat":59.2013654,"lon":17.7689811,"puntuation":1.1,"address":"3351 Oak Parkway"},
{"id":870,"name":"Teodoor","lat":42.1119268,"lon":44.9672863,"puntuation":1.4,"address":"55 Sunfield Terrace"},
{"id":871,"name":"Roslyn","lat":-8.137,"lon":113.697829,"puntuation":2.1,"address":"86 Bowman Street"},
{"id":872,"name":"Vania","lat":49.988694,"lon":6.0001426,"puntuation":2.6,"address":"8 Morningstar Alley"},
{"id":873,"name":"Faustina","lat":32.53292,"lon":110.983684,"puntuation":4.5,"address":"01 Corscot Way"},
{"id":874,"name":"Dania","lat":4.7922388,"lon":8.5295341,"puntuation":4.3,"address":"6 Stone Corner Alley"},
{"id":875,"name":"Todd","lat":42.229169,"lon":-8.7026991,"puntuation":2.5,"address":"68061 Continental Point"},
{"id":876,"name":"Esta","lat":45.3483509,"lon":-80.0175734,"puntuation":1.4,"address":"5 Mesta Point"},
{"id":877,"name":"Spike","lat":5.827963,"lon":121.160161,"puntuation":2.6,"address":"6806 Debs Lane"},
{"id":878,"name":"Farlay","lat":55.6720347,"lon":12.5911341,"puntuation":2.0,"address":"614 Loomis Junction"},
{"id":879,"name":"Bogart","lat":-6.914339,"lon":107.5788509,"puntuation":3.7,"address":"2 Garrison Center"},
{"id":880,"name":"Hersh","lat":-25.7464549,"lon":-53.0615734,"puntuation":1.8,"address":"059 Quincy Park"},
{"id":881,"name":"Bernetta","lat":44.2136985,"lon":3.9996505,"puntuation":3.7,"address":"7 Quincy Plaza"},
{"id":882,"name":"Carma","lat":43.7728532,"lon":26.5290794,"puntuation":1.4,"address":"2 Huxley Junction"},
{"id":883,"name":"Michaelina","lat":49.7692372,"lon":43.6416286,"puntuation":2.4,"address":"4673 Petterle Pass"},
{"id":884,"name":"Hallie","lat":37.8336508,"lon":140.557325,"puntuation":1.1,"address":"725 Cherokee Road"},
{"id":885,"name":"Nikos","lat":-7.1570833,"lon":110.2862003,"puntuation":4.3,"address":"8 Myrtle Road"},
{"id":886,"name":"Pier","lat":-18.8494836,"lon":-44.4748018,"puntuation":4.0,"address":"39 Fremont Junction"},
{"id":887,"name":"Kurtis","lat":52.0322082,"lon":29.222313,"puntuation":4.6,"address":"5 Butterfield Road"},
{"id":888,"name":"Antone","lat":-26.8985232,"lon":27.4732571,"puntuation":1.8,"address":"786 Iowa Way"},
{"id":889,"name":"Chicky","lat":28.188157,"lon":121.030159,"puntuation":2.1,"address":"126 Prairieview Crossing"},
{"id":890,"name":"Tanney","lat":14.972892,"lon":8.8831506,"puntuation":1.5,"address":"35 Golf View Hill"},
{"id":891,"name":"Trey","lat":40.657978,"lon":109.840313,"puntuation":3.2,"address":"8986 La Follette Street"},
{"id":892,"name":"Bentley","lat":41.1055663,"lon":-8.508386,"puntuation":1.7,"address":"8 Maple Wood Plaza"},
{"id":893,"name":"Shayla","lat":41.3922962,"lon":-8.3323796,"puntuation":4.9,"address":"95953 8th Junction"},
{"id":894,"name":"Gaylene","lat":43.7251,"lon":-80.96723,"puntuation":1.8,"address":"247 Daystar Drive"},
{"id":895,"name":"Teodora","lat":39.822507,"lon":109.963338,"puntuation":4.2,"address":"377 Russell Trail"},
{"id":896,"name":"Kalle","lat":29.0661274,"lon":31.0993845,"puntuation":4.2,"address":"1244 Moulton Center"},
{"id":897,"name":"Colin","lat":-6.9888872,"lon":106.9535691,"puntuation":3.8,"address":"50 Farragut Road"},
{"id":898,"name":"Collin","lat":49.3883262,"lon":17.0710865,"puntuation":2.4,"address":"493 Victoria Point"},
{"id":899,"name":"Cornell","lat":-8.8341,"lon":120.9593,"puntuation":1.2,"address":"9 Orin Way"},
{"id":900,"name":"Llewellyn","lat":69.679788,"lon":18.9710079,"puntuation":4.2,"address":"6 Reindahl Center"},
{"id":901,"name":"Dyna","lat":42.7066497,"lon":23.3067353,"puntuation":1.9,"address":"2854 Farragut Alley"},
{"id":902,"name":"Hedwig","lat":47.0739574,"lon":28.6801952,"puntuation":2.6,"address":"0273 Eggendart Drive"},
{"id":903,"name":"Lanny","lat":-3.4944313,"lon":31.9899648,"puntuation":3.2,"address":"774 Lien Trail"},
{"id":904,"name":"Beatrisa","lat":32.110878,"lon":118.724049,"puntuation":3.7,"address":"49048 Spohn Place"},
{"id":905,"name":"Layton","lat":36.6512,"lon":117.120095,"puntuation":2.5,"address":"9 School Street"},
{"id":906,"name":"Yehudi","lat":34.563589,"lon":105.011894,"puntuation":2.5,"address":"1 Clyde Gallagher Road"},
{"id":907,"name":"Licha","lat":-7.5957387,"lon":108.2881709,"puntuation":1.5,"address":"3732 Mockingbird Plaza"},
{"id":908,"name":"Lockwood","lat":48.9098794,"lon":2.2829955,"puntuation":2.4,"address":"3 Nancy Drive"},
{"id":909,"name":"Deni","lat":47.2990712,"lon":-1.5086685,"puntuation":1.9,"address":"441 Grim Drive"},
{"id":910,"name":"Liv","lat":59.2524333,"lon":18.0761199,"puntuation":3.1,"address":"638 Eggendart Point"},
{"id":911,"name":"Thorin","lat":40.9743604,"lon":-8.4554561,"puntuation":3.8,"address":"5486 Hansons Hill"},
{"id":912,"name":"Abner","lat":59.4687696,"lon":24.9801867,"puntuation":4.5,"address":"87123 Mosinee Plaza"},
{"id":913,"name":"Audie","lat":24.808198,"lon":118.03177,"puntuation":3.0,"address":"8 Erie Circle"},
{"id":914,"name":"Kristoforo","lat":30.845968,"lon":104.408801,"puntuation":3.0,"address":"64 Arrowood Plaza"},
{"id":915,"name":"Kate","lat":49.9344975,"lon":13.390365,"puntuation":4.7,"address":"845 Lukken Terrace"},
{"id":916,"name":"Marie-jeanne","lat":5.033333,"lon":23.25,"puntuation":1.3,"address":"72 Montana Alley"},
{"id":917,"name":"Broderic","lat":53.6190091,"lon":-1.2780726,"puntuation":3.1,"address":"1 Kinsman Center"},
{"id":918,"name":"Edy","lat":29.603915,"lon":118.322663,"puntuation":2.7,"address":"299 Monterey Pass"},
{"id":919,"name":"Nils","lat":40.6681669,"lon":-73.9800645,"puntuation":1.9,"address":"623 Thierer Street"},
{"id":920,"name":"Katerina","lat":43.1839958,"lon":16.5992505,"puntuation":2.4,"address":"17 Myrtle Crossing"},
{"id":921,"name":"Stafani","lat":39.9226132,"lon":116.4606871,"puntuation":4.5,"address":"137 Armistice Center"},
{"id":922,"name":"Caril","lat":18.5138139,"lon":-72.2881907,"puntuation":4.3,"address":"3 Southridge Avenue"},
{"id":923,"name":"Honoria","lat":51.1672774,"lon":18.0050053,"puntuation":2.6,"address":"349 Hallows Lane"},
{"id":924,"name":"Blinnie","lat":24.884626,"lon":104.308675,"puntuation":4.4,"address":"7 Dottie Way"},
{"id":925,"name":"Corliss","lat":52.4219719,"lon":85.6978029,"puntuation":2.9,"address":"97965 Dapin Junction"},
{"id":926,"name":"Carlita","lat":23.0664459,"lon":113.1964636,"puntuation":4.2,"address":"6 Moose Circle"},
{"id":927,"name":"Mandie","lat":-15.6969314,"lon":-39.4450281,"puntuation":4.7,"address":"661 Monterey Lane"},
{"id":928,"name":"Arvin","lat":55.8431628,"lon":13.2986314,"puntuation":4.6,"address":"21084 Pleasure Lane"},
{"id":929,"name":"Ilise","lat":27.7845955,"lon":120.6706833,"puntuation":1.6,"address":"92453 Maryland Junction"},
{"id":930,"name":"Augustus","lat":-34.6020021,"lon":-58.5006278,"puntuation":1.3,"address":"844 Butterfield Pass"},
{"id":931,"name":"Odelle","lat":52.066952,"lon":5.2407431,"puntuation":3.7,"address":"2 Beilfuss Hill"},
{"id":932,"name":"Dani","lat":-21.680817,"lon":45.1658261,"puntuation":2.6,"address":"92680 Glacier Hill Junction"},
{"id":933,"name":"Lorry","lat":41.5464241,"lon":-8.2915385,"puntuation":1.8,"address":"7483 Doe Crossing Drive"},
{"id":934,"name":"Margarethe","lat":60.26808,"lon":29.7523,"puntuation":3.8,"address":"5745 Gateway Parkway"},
{"id":935,"name":"Cathlene","lat":58.7113992,"lon":50.1706415,"puntuation":4.7,"address":"8120 Haas Way"},
{"id":936,"name":"Helen","lat":43.6264177,"lon":7.0430136,"puntuation":2.6,"address":"55758 Loomis Parkway"},
{"id":937,"name":"Dall","lat":54.1456181,"lon":45.2504398,"puntuation":4.8,"address":"51078 Atwood Place"},
{"id":938,"name":"Fionnula","lat":49.116169,"lon":6.1807997,"puntuation":3.1,"address":"2115 Golden Leaf Way"},
{"id":939,"name":"Luci","lat":31.1561051,"lon":112.5399959,"puntuation":4.3,"address":"33535 Glendale Crossing"},
{"id":940,"name":"Willi","lat":-7.8121361,"lon":113.2424227,"puntuation":3.2,"address":"2 New Castle Circle"},
{"id":941,"name":"Beverley","lat":39.42309,"lon":20.0718612,"puntuation":2.5,"address":"4345 Truax Center"},
{"id":942,"name":"Paquito","lat":48.99534,"lon":-123.8161,"puntuation":1.0,"address":"75471 Havey Drive"},
{"id":943,"name":"Pammi","lat":56.6810923,"lon":12.8148182,"puntuation":3.6,"address":"594 Schurz Parkway"},
{"id":944,"name":"Effie","lat":41.2022247,"lon":-8.5597719,"puntuation":1.3,"address":"8 Northfield Parkway"},
{"id":945,"name":"Joelie","lat":-3.5106508,"lon":39.9093269,"puntuation":1.1,"address":"96 Messerschmidt Park"},
{"id":946,"name":"Star","lat":15.6848385,"lon":108.1665855,"puntuation":2.3,"address":"3469 Helena Way"},
{"id":947,"name":"Ab","lat":-8.0976125,"lon":112.700315,"puntuation":4.4,"address":"8 Fulton Court"},
{"id":948,"name":"Gerek","lat":37.4132997,"lon":23.125332,"puntuation":2.9,"address":"344 Merry Place"},
{"id":949,"name":"Nikkie","lat":-31.4180746,"lon":-64.2653484,"puntuation":4.9,"address":"47271 Briar Crest Point"},
{"id":950,"name":"Josias","lat":3.0100681,"lon":101.5326734,"puntuation":3.1,"address":"78759 Manley Parkway"},
{"id":951,"name":"Sheppard","lat":-11.5644646,"lon":-77.1743983,"puntuation":1.5,"address":"71973 Waubesa Court"},
{"id":952,"name":"Leann","lat":53.3666338,"lon":-6.3539424,"puntuation":2.3,"address":"6423 Glendale Trail"},
{"id":953,"name":"Thedrick","lat":37.198731,"lon":106.1580937,"puntuation":1.1,"address":"15 Kensington Road"},
{"id":954,"name":"Lee","lat":22.579117,"lon":113.081508,"puntuation":3.2,"address":"1062 Fisk Trail"},
{"id":955,"name":"Dorette","lat":52.0391192,"lon":39.7408362,"puntuation":4.4,"address":"5 Oak Drive"},
{"id":956,"name":"Sibyl","lat":47.6126,"lon":107.0219496,"puntuation":2.5,"address":"119 Warner Parkway"},
{"id":957,"name":"Warren","lat":54.3886617,"lon":-1.555363,"puntuation":2.0,"address":"09729 Mosinee Road"},
{"id":958,"name":"Agnes","lat":-9.6923735,"lon":120.3322404,"puntuation":4.3,"address":"3660 Superior Lane"},
{"id":959,"name":"Carney","lat":60.6191114,"lon":26.1999237,"puntuation":4.4,"address":"7066 Kropf Place"},
{"id":960,"name":"Rosene","lat":14.7121689,"lon":-88.0876336,"puntuation":1.2,"address":"05826 Mallard Place"},
{"id":961,"name":"Tally","lat":30.807667,"lon":108.408661,"puntuation":4.8,"address":"99279 Warner Point"},
{"id":962,"name":"Sam","lat":6.6635241,"lon":8.6050736,"puntuation":1.3,"address":"07338 Golf Course Parkway"},
{"id":963,"name":"Gerri","lat":33.644743,"lon":115.177188,"puntuation":4.0,"address":"073 Sommers Drive"},
{"id":964,"name":"Eve","lat":45.53257,"lon":107.04546,"puntuation":3.8,"address":"83 Jackson Drive"},
{"id":965,"name":"Mommy","lat":-7.6492089,"lon":111.4395128,"puntuation":2.2,"address":"4767 Meadow Vale Plaza"},
{"id":966,"name":"Vinita","lat":14.1715376,"lon":120.8620371,"puntuation":2.1,"address":"59 Brown Pass"},
{"id":967,"name":"Clement","lat":2.8235098,"lon":-60.6758331,"puntuation":4.2,"address":"7 Meadow Ridge Road"},
{"id":968,"name":"Estrella","lat":-25.8631114,"lon":-58.8821875,"puntuation":2.0,"address":"827 Clyde Gallagher Junction"},
{"id":969,"name":"Drake","lat":53.2580126,"lon":-113.5502218,"puntuation":4.2,"address":"7 Sachs Alley"},
{"id":970,"name":"Wrennie","lat":5.7204203,"lon":10.901604,"puntuation":2.8,"address":"5925 Nevada Plaza"},
{"id":971,"name":"Elwin","lat":28.845626,"lon":104.969882,"puntuation":2.5,"address":"00414 Upham Drive"},
{"id":972,"name":"Sarina","lat":-13.65232,"lon":-41.843571,"puntuation":3.2,"address":"268 Mendota Center"},
{"id":973,"name":"Gertie","lat":10.1206819,"lon":122.9809409,"puntuation":4.1,"address":"605 Knutson Drive"},
{"id":974,"name":"Hazlett","lat":34.1540161,"lon":36.7442377,"puntuation":2.8,"address":"77 Almo Court"},
{"id":975,"name":"Alasteir","lat":50.6657079,"lon":18.0732903,"puntuation":1.6,"address":"74628 Leroy Street"},
{"id":976,"name":"Lee","lat":32.240853,"lon":120.2326771,"puntuation":3.6,"address":"310 7th Pass"},
{"id":977,"name":"Christye","lat":51.3870782,"lon":28.8660119,"puntuation":3.4,"address":"52242 Prairieview Lane"},
{"id":978,"name":"Vassily","lat":52.1513886,"lon":4.4982869,"puntuation":1.9,"address":"26427 Southridge Avenue"},
{"id":979,"name":"Cammie","lat":-6.2002533,"lon":106.8221628,"puntuation":4.8,"address":"68559 Ridge Oak Trail"},
{"id":980,"name":"Buddie","lat":55.830186,"lon":37.4457899,"puntuation":2.1,"address":"6618 Sunnyside Circle"},
{"id":981,"name":"Noellyn","lat":10.2493969,"lon":106.3787583,"puntuation":3.9,"address":"6332 Londonderry Center"},
{"id":982,"name":"Bernice","lat":36.929749,"lon":98.480195,"puntuation":1.6,"address":"886 Center Hill"},
{"id":983,"name":"Rhiamon","lat":-7.690753,"lon":109.2861268,"puntuation":2.2,"address":"4316 Canary Terrace"},
{"id":984,"name":"Georgetta","lat":40.7809019,"lon":-74.138917,"puntuation":3.0,"address":"123 Kingsford Pass"},
{"id":985,"name":"Salome","lat":28.2586882,"lon":108.1171371,"puntuation":4.4,"address":"46977 Becker Avenue"},
{"id":986,"name":"Elbertina","lat":-8.5693667,"lon":119.9374977,"puntuation":1.7,"address":"75909 Pierstorff Avenue"},
{"id":987,"name":"Laryssa","lat":34.016449,"lon":64.5266446,"puntuation":4.2,"address":"11475 Stuart Park"},
{"id":988,"name":"Cara","lat":28.94074,"lon":113.447431,"puntuation":2.4,"address":"5619 Thackeray Center"},
{"id":989,"name":"Reinhard","lat":-12.1966859,"lon":44.3124186,"puntuation":4.3,"address":"859 Moulton Center"},
{"id":990,"name":"Willie","lat":22.826877,"lon":107.840624,"puntuation":2.8,"address":"06 Pawling Junction"},
{"id":991,"name":"Bartholemy","lat":54.3494655,"lon":38.2582586,"puntuation":4.6,"address":"6148 Anhalt Alley"},
{"id":992,"name":"Trefor","lat":33.551052,"lon":119.113185,"puntuation":4.2,"address":"7465 Pennsylvania Junction"},
{"id":993,"name":"Giavani","lat":-2.4431287,"lon":114.2152731,"puntuation":1.3,"address":"32966 Westport Lane"},
{"id":994,"name":"Valera","lat":45.052484,"lon":4.8398662,"puntuation":3.4,"address":"5724 Parkside Way"},
{"id":995,"name":"Pier","lat":41.393981,"lon":2.1633946,"puntuation":1.6,"address":"74989 Talisman Drive"},
{"id":996,"name":"Martin","lat":-4.3289209,"lon":-79.557446,"puntuation":3.2,"address":"39 Iowa Street"},
{"id":997,"name":"Yule","lat":25.867345,"lon":55.0242519,"puntuation":1.6,"address":"246 Darwin Point"},
{"id":998,"name":"Jerrilee","lat":-27.4561199,"lon":-53.9288773,"puntuation":2.5,"address":"5179 Hoffman Junction"},
{"id":999,"name":"Sayers","lat":38.4438949,"lon":70.8023327,"puntuation":2.6,"address":"2512 Grim Way"},
{"id":1000,"name":"Alic","lat":9.1505664,"lon":-11.3913379,"puntuation":2.8,"address":"18162 Thompson Alley"}]