[{"id":1,"name":"Deane","lat":-7.9286951,"lon":110.289179,"puntuation":4.4},
{"id":2,"name":"Dayle","lat":34.2698909,"lon":108.9469437,"puntuation":3.3},
{"id":3,"name":"Robinet","lat":-3.7751449,"lon":-65.3807101,"puntuation":3.6},
{"id":4,"name":"Jeana","lat":56.0160374,"lon":39.9476278,"puntuation":4.6},
{"id":5,"name":"Gregoor","lat":55.111901,"lon":83.8869856,"puntuation":1.6},
{"id":6,"name":"Bobbye","lat":33.6042793,"lon":69.2281531,"puntuation":2.5},
{"id":7,"name":"Dulcine","lat":33.1401715,"lon":119.7889248,"puntuation":2.3},
{"id":8,"name":"Byron","lat":-20.3483832,"lon":-41.6385979,"puntuation":2.5},
{"id":9,"name":"Colline","lat":27.937146,"lon":116.298866,"puntuation":2.9},
{"id":10,"name":"Octavius","lat":33.8849101,"lon":-117.9941812,"puntuation":1.0},
{"id":11,"name":"Janie","lat":-20.9829904,"lon":-40.9990597,"puntuation":1.7},
{"id":12,"name":"Adrian","lat":-7.5145399,"lon":112.7330892,"puntuation":3.9},
{"id":13,"name":"Doll","lat":53.0382065,"lon":21.9907815,"puntuation":1.3},
{"id":14,"name":"Cleve","lat":55.4420395,"lon":65.3208664,"puntuation":1.1},
{"id":15,"name":"Isidora","lat":-34.5872079,"lon":-58.494505,"puntuation":1.7},
{"id":16,"name":"Lanny","lat":19.3999682,"lon":-99.2047894,"puntuation":2.6},
{"id":17,"name":"Mandy","lat":-37.9861381,"lon":-57.6000001,"puntuation":3.8},
{"id":18,"name":"Libbie","lat":60.889349,"lon":24.5208664,"puntuation":3.9},
{"id":19,"name":"Kessiah","lat":57.6466053,"lon":32.6123944,"puntuation":3.5},
{"id":20,"name":"Danielle","lat":30.741991,"lon":121.341969,"puntuation":3.3},
{"id":21,"name":"Jody","lat":56.1465144,"lon":43.7911745,"puntuation":1.7},
{"id":22,"name":"Haze","lat":-6.1130137,"lon":106.1610343,"puntuation":1.4},
{"id":23,"name":"Orsa","lat":32.840217,"lon":117.229368,"puntuation":4.0},
{"id":24,"name":"Humphrey","lat":59.758523,"lon":17.7836929,"puntuation":2.1},
{"id":25,"name":"Kerry","lat":47.9560267,"lon":39.7419209,"puntuation":1.5},
{"id":26,"name":"Alaric","lat":44.8464736,"lon":33.6744583,"puntuation":3.3},
{"id":27,"name":"Ermina","lat":-16.5062723,"lon":-151.7495305,"puntuation":1.1},
{"id":28,"name":"Nara","lat":39.982718,"lon":117.078294,"puntuation":3.7},
{"id":29,"name":"Bax","lat":9.7846,"lon":124.1745,"puntuation":1.5},
{"id":30,"name":"Marijo","lat":48.375888,"lon":135.5602794,"puntuation":1.3},
{"id":31,"name":"Dayna","lat":1.2255938,"lon":-77.6611917,"puntuation":3.3},
{"id":32,"name":"Keith","lat":51.6521236,"lon":39.0891762,"puntuation":3.3},
{"id":33,"name":"Bernie","lat":36.284107,"lon":100.620031,"puntuation":2.3},
{"id":34,"name":"Delia","lat":5.8320421,"lon":-74.5833539,"puntuation":3.8},
{"id":35,"name":"Marcia","lat":37.1347927,"lon":-8.5351366,"puntuation":3.5},
{"id":36,"name":"Ernesto","lat":14.307125,"lon":-90.363048,"puntuation":3.2},
{"id":37,"name":"Barret","lat":55.3315791,"lon":38.8842656,"puntuation":2.6},
{"id":38,"name":"Lettie","lat":39.024258,"lon":88.166695,"puntuation":1.1},
{"id":39,"name":"Cori","lat":6.83493,"lon":158.2987,"puntuation":1.7},
{"id":40,"name":"Mercy","lat":-34.493672,"lon":-58.5854528,"puntuation":5.0},
{"id":41,"name":"Brittaney","lat":50.1143147,"lon":20.2689645,"puntuation":4.2},
{"id":42,"name":"Griz","lat":27.983279,"lon":112.339509,"puntuation":2.3},
{"id":43,"name":"Devlin","lat":40.508339,"lon":79.047291,"puntuation":2.1},
{"id":44,"name":"Sheffie","lat":-15.7725451,"lon":-69.6840125,"puntuation":1.4},
{"id":45,"name":"Ula","lat":9.5920992,"lon":123.4719247,"puntuation":3.4},
{"id":46,"name":"Monika","lat":16.6500928,"lon":121.2238236,"puntuation":4.1},
{"id":47,"name":"Anallise","lat":14.657758,"lon":120.9888316,"puntuation":2.7},
{"id":48,"name":"Raina","lat":-38.7239099,"lon":-62.278743,"puntuation":1.4},
{"id":49,"name":"Lesley","lat":45.0386871,"lon":3.103119,"puntuation":1.7},
{"id":50,"name":"Myca","lat":20.1713723,"lon":94.8702156,"puntuation":2.1},
{"id":51,"name":"Jonas","lat":40.1628977,"lon":-8.4270764,"puntuation":1.1},
{"id":52,"name":"Leonard","lat":0.3323852,"lon":-78.2162833,"puntuation":4.8},
{"id":53,"name":"Stephannie","lat":22.928305,"lon":113.207187,"puntuation":3.5},
{"id":54,"name":"Mareah","lat":-31.946337,"lon":-65.180261,"puntuation":4.5},
{"id":55,"name":"Alvie","lat":21.7757592,"lon":106.9594723,"puntuation":2.0},
{"id":56,"name":"Shurlock","lat":28.438851,"lon":120.564983,"puntuation":3.4},
{"id":57,"name":"Bran","lat":26.5241653,"lon":-77.0909809,"puntuation":1.1},
{"id":58,"name":"Kimbra","lat":37.548299,"lon":120.282101,"puntuation":4.8},
{"id":59,"name":"Zacharias","lat":47.233746,"lon":122.018799,"puntuation":2.2},
{"id":60,"name":"Jourdan","lat":-6.8174513,"lon":106.3683065,"puntuation":2.3},
{"id":61,"name":"Dionysus","lat":40.2023282,"lon":116.2398367,"puntuation":4.6},
{"id":62,"name":"Beitris","lat":53.0249087,"lon":23.0202458,"puntuation":3.9},
{"id":63,"name":"Redd","lat":3.2572094,"lon":-77.2864879,"puntuation":2.5},
{"id":64,"name":"Trix","lat":41.7186852,"lon":20.065066,"puntuation":3.9},
{"id":65,"name":"Raina","lat":28.430921,"lon":115.969683,"puntuation":4.3},
{"id":66,"name":"Nora","lat":39.639844,"lon":115.58934,"puntuation":3.3},
{"id":67,"name":"Noelle","lat":3.8458333,"lon":154.9416667,"puntuation":3.7},
{"id":68,"name":"Kevon","lat":8.4715413,"lon":124.6404944,"puntuation":1.4},
{"id":69,"name":"Anne","lat":-7.5450262,"lon":111.6556388,"puntuation":3.2},
{"id":70,"name":"Verena","lat":44.41113,"lon":84.30713,"puntuation":2.1},
{"id":71,"name":"Agna","lat":32.929568,"lon":119.860856,"puntuation":4.6},
{"id":72,"name":"Sloane","lat":-1.2088413,"lon":116.8776192,"puntuation":1.3},
{"id":73,"name":"Augustus","lat":8.582235,"lon":125.892784,"puntuation":1.6},
{"id":74,"name":"Wilmette","lat":43.1564817,"lon":-80.1651854,"puntuation":2.3},
{"id":75,"name":"Lorna","lat":-6.9623022,"lon":108.6383454,"puntuation":3.5},
{"id":76,"name":"Clint","lat":-2.886385,"lon":-78.7759559,"puntuation":2.3},
{"id":77,"name":"Nicol","lat":29.528923,"lon":104.990101,"puntuation":3.5},
{"id":78,"name":"Norry","lat":52.913784,"lon":-0.445788,"puntuation":3.4},
{"id":79,"name":"Inness","lat":14.697103,"lon":122.365336,"puntuation":3.9},
{"id":80,"name":"Guthrey","lat":4.84782,"lon":-71.8096941,"puntuation":2.8},
{"id":81,"name":"Ardis","lat":39.0536743,"lon":-9.0097102,"puntuation":2.0},
{"id":82,"name":"Dominga","lat":41.7464398,"lon":-8.3721165,"puntuation":1.5},
{"id":83,"name":"Monroe","lat":50.2294568,"lon":16.2923097,"puntuation":4.2},
{"id":84,"name":"Elana","lat":41.468342,"lon":115.437602,"puntuation":3.5},
{"id":85,"name":"Tabbitha","lat":45.056443,"lon":43.6468877,"puntuation":2.1},
{"id":86,"name":"Hill","lat":-6.7076379,"lon":111.3709499,"puntuation":2.8},
{"id":87,"name":"Jaime","lat":-1.259553,"lon":104.100502,"puntuation":2.8},
{"id":88,"name":"Darn","lat":5.746649,"lon":-75.977569,"puntuation":2.2},
{"id":89,"name":"Elston","lat":-11.6723638,"lon":-61.1984811,"puntuation":1.4},
{"id":90,"name":"Loella","lat":18.1145292,"lon":121.4023587,"puntuation":1.0},
{"id":91,"name":"Trix","lat":12.9813794,"lon":37.7622971,"puntuation":3.0},
{"id":92,"name":"Wye","lat":40.8285039,"lon":-73.8918897,"puntuation":2.9},
{"id":93,"name":"Orel","lat":8.4866224,"lon":-82.6645469,"puntuation":1.4},
{"id":94,"name":"Franciska","lat":54.4868002,"lon":18.2202834,"puntuation":3.4},
{"id":95,"name":"Henri","lat":49.2272998,"lon":2.8814002,"puntuation":4.9},
{"id":96,"name":"Pierre","lat":-27.990857,"lon":26.724185,"puntuation":2.1},
{"id":97,"name":"Marian","lat":40.4869744,"lon":-3.6116494,"puntuation":4.3},
{"id":98,"name":"Ephraim","lat":40.824367,"lon":119.837124,"puntuation":3.9},
{"id":99,"name":"Dean","lat":-7.2030729,"lon":112.0237903,"puntuation":3.3},
{"id":100,"name":"Burl","lat":22.99732,"lon":113.87497,"puntuation":2.4},
{"id":101,"name":"Mellicent","lat":-13.92399,"lon":-71.69326,"puntuation":5.0},
{"id":102,"name":"Concettina","lat":46.907884,"lon":6.3333882,"puntuation":2.0},
{"id":103,"name":"Stacee","lat":22.2566889,"lon":106.4731314,"puntuation":4.5},
{"id":104,"name":"Raphael","lat":34.2398892,"lon":135.2395881,"puntuation":1.5},
{"id":105,"name":"Ara","lat":-21.4649748,"lon":-49.2246518,"puntuation":1.5},
{"id":106,"name":"Felicle","lat":-7.7563468,"lon":111.3441212,"puntuation":4.9},
{"id":107,"name":"Hedi","lat":-8.7183,"lon":115.5233,"puntuation":1.9},
{"id":108,"name":"Anselm","lat":22.7458085,"lon":113.2935586,"puntuation":2.1},
{"id":109,"name":"Harlie","lat":27.587249,"lon":118.473619,"puntuation":1.6},
{"id":110,"name":"Carmelina","lat":49.7719889,"lon":18.4323316,"puntuation":1.5},
{"id":111,"name":"Evvy","lat":41.3349436,"lon":-6.9646803,"puntuation":2.2},
{"id":112,"name":"Lemar","lat":26.6155575,"lon":127.9536808,"puntuation":1.5},
{"id":113,"name":"Dillon","lat":48.8373554,"lon":2.2682399,"puntuation":4.2},
{"id":114,"name":"Dianemarie","lat":15.8127,"lon":120.4557,"puntuation":4.8},
{"id":115,"name":"Ranna","lat":-7.158502,"lon":109.263397,"puntuation":3.3},
{"id":116,"name":"Harmon","lat":30.356669,"lon":117.47637,"puntuation":1.2},
{"id":117,"name":"Kendricks","lat":4.4529473,"lon":126.7496264,"puntuation":1.6},
{"id":118,"name":"Wrennie","lat":27.5828698,"lon":85.5097226,"puntuation":1.8},
{"id":119,"name":"Rafi","lat":-33.63973,"lon":19.446007,"puntuation":2.8},
{"id":120,"name":"Caria","lat":53.3895926,"lon":-6.1097188,"puntuation":1.1},
{"id":121,"name":"Alisun","lat":27.6486636,"lon":84.4172666,"puntuation":3.0},
{"id":122,"name":"Ingar","lat":46.280897,"lon":15.0737321,"puntuation":2.5},
{"id":123,"name":"Delmer","lat":27.208609,"lon":109.836669,"puntuation":1.1},
{"id":124,"name":"Homerus","lat":22.342771,"lon":106.854376,"puntuation":1.0},
{"id":125,"name":"Ave","lat":34.9852597,"lon":133.4885513,"puntuation":4.6},
{"id":126,"name":"Felizio","lat":41.16861,"lon":21.4825,"puntuation":2.1},
{"id":127,"name":"Ollie","lat":-16.7073638,"lon":-47.5275422,"puntuation":3.6},
{"id":128,"name":"Dame","lat":43.5161759,"lon":68.5090258,"puntuation":1.8},
{"id":129,"name":"Bentlee","lat":-31.4531985,"lon":-64.1565402,"puntuation":4.5},
{"id":130,"name":"Dru","lat":12.6392316,"lon":-8.0028892,"puntuation":1.6},
{"id":131,"name":"Tilda","lat":-12.1613589,"lon":-76.2294444,"puntuation":4.4},
{"id":132,"name":"Terza","lat":-8.6899169,"lon":116.2393209,"puntuation":4.5},
{"id":133,"name":"Mandie","lat":50.9359639,"lon":-113.8998131,"puntuation":1.8},
{"id":134,"name":"Jodi","lat":15.444313,"lon":-61.444406,"puntuation":1.5},
{"id":135,"name":"Rufe","lat":4.0786306,"lon":9.358984,"puntuation":3.4},
{"id":136,"name":"Sergent","lat":45.5746977,"lon":13.7677916,"puntuation":3.5},
{"id":137,"name":"Edmon","lat":48.8547803,"lon":16.5671697,"puntuation":3.8},
{"id":138,"name":"Raffaello","lat":46.589309,"lon":125.103784,"puntuation":3.3},
{"id":139,"name":"Maddy","lat":-40.0642898,"lon":175.3488701,"puntuation":1.5},
{"id":140,"name":"Johnette","lat":-6.8754582,"lon":108.1308481,"puntuation":4.5},
{"id":141,"name":"Gusty","lat":-1.5697615,"lon":110.5215459,"puntuation":1.2},
{"id":142,"name":"Loni","lat":37.1623309,"lon":-8.3013935,"puntuation":3.9},
{"id":143,"name":"Rebekah","lat":13.7768017,"lon":100.5593109,"puntuation":4.3},
{"id":144,"name":"Zared","lat":-32.9867567,"lon":-60.644128,"puntuation":2.3},
{"id":145,"name":"Reece","lat":21.1962199,"lon":105.5708865,"puntuation":2.2},
{"id":146,"name":"Montague","lat":23.7173024,"lon":-99.185752,"puntuation":4.1},
{"id":147,"name":"Eduino","lat":49.8922979,"lon":19.621588,"puntuation":1.2},
{"id":148,"name":"Ab","lat":10.2343685,"lon":-64.591805,"puntuation":1.5},
{"id":149,"name":"Minnie","lat":-7.2739902,"lon":108.1250791,"puntuation":3.4},
{"id":150,"name":"Millard","lat":14.5665378,"lon":121.1092186,"puntuation":2.9},
{"id":151,"name":"Annmaria","lat":43.2587403,"lon":17.8880075,"puntuation":4.8},
{"id":152,"name":"Luce","lat":6.8907086,"lon":8.352656,"puntuation":3.9},
{"id":153,"name":"Vina","lat":5.5304798,"lon":95.3286078,"puntuation":3.4},
{"id":154,"name":"Marie-ann","lat":11.0657173,"lon":122.8454491,"puntuation":3.6},
{"id":155,"name":"Jim","lat":-22.8262707,"lon":-43.0152252,"puntuation":4.6},
{"id":156,"name":"Cris","lat":-4.233333,"lon":-81.05,"puntuation":2.7},
{"id":157,"name":"Van","lat":4.1191962,"lon":15.1346669,"puntuation":3.3},
{"id":158,"name":"Riobard","lat":13.2268,"lon":123.6148,"puntuation":4.1},
{"id":159,"name":"Kristin","lat":41.5728211,"lon":23.7282719,"puntuation":3.7},
{"id":160,"name":"Ludovika","lat":-8.7223957,"lon":115.1767095,"puntuation":3.2},
{"id":161,"name":"Lyndsay","lat":53.2214074,"lon":-114.9766785,"puntuation":1.3},
{"id":162,"name":"Arielle","lat":40.6180185,"lon":-8.7338528,"puntuation":4.5},
{"id":163,"name":"Darrell","lat":9.1224847,"lon":-79.2930312,"puntuation":4.7},
{"id":164,"name":"Ronnie","lat":34.728584,"lon":112.132488,"puntuation":3.6},
{"id":165,"name":"Nicholle","lat":41.5225612,"lon":45.0430369,"puntuation":2.0},
{"id":166,"name":"Hynda","lat":-13.2830688,"lon":-176.1783832,"puntuation":3.5},
{"id":167,"name":"Georgette","lat":-8.1953,"lon":113.6183,"puntuation":1.1},
{"id":168,"name":"Koo","lat":59.2542117,"lon":18.027354,"puntuation":1.6},
{"id":169,"name":"Dorie","lat":-7.035591,"lon":109.8975853,"puntuation":2.6},
{"id":170,"name":"Lesya","lat":-18.3558779,"lon":26.5019976,"puntuation":3.0},
{"id":171,"name":"Gasparo","lat":39.61335,"lon":-8.9519943,"puntuation":4.5},
{"id":172,"name":"Forbes","lat":46.280897,"lon":15.0737321,"puntuation":3.6},
{"id":173,"name":"Tully","lat":52.3974171,"lon":19.735653,"puntuation":3.6},
{"id":174,"name":"Hailey","lat":-6.9100633,"lon":107.7147697,"puntuation":2.3},
{"id":175,"name":"Giulia","lat":9.97788,"lon":-84.762933,"puntuation":3.2},
{"id":176,"name":"Dorris","lat":-36.5337379,"lon":-64.0106073,"puntuation":4.9},
{"id":177,"name":"Woodrow","lat":-7.2576752,"lon":112.7514577,"puntuation":1.5},
{"id":178,"name":"Ruy","lat":46.1055153,"lon":-64.8115713,"puntuation":2.7},
{"id":179,"name":"Bernice","lat":-9.353427,"lon":28.7402073,"puntuation":3.7},
{"id":180,"name":"Tracy","lat":59.1984305,"lon":18.1104499,"puntuation":1.8},
{"id":181,"name":"Cullie","lat":46.4144282,"lon":37.9579616,"puntuation":2.3},
{"id":182,"name":"Pavia","lat":40.4422219,"lon":49.7584523,"puntuation":1.5},
{"id":183,"name":"Kori","lat":-8.2333409,"lon":124.4475522,"puntuation":3.6},
{"id":184,"name":"Jewelle","lat":29.7491757,"lon":-95.3632107,"puntuation":3.2},
{"id":185,"name":"Burton","lat":43.1298714,"lon":45.5357156,"puntuation":1.0},
{"id":186,"name":"Aimee","lat":-8.2769363,"lon":-77.3008506,"puntuation":4.6},
{"id":187,"name":"Raffarty","lat":43.6158299,"lon":13.518915,"puntuation":1.1},
{"id":188,"name":"Anjela","lat":52.4040809,"lon":116.8110808,"puntuation":2.3},
{"id":189,"name":"Caroline","lat":72.79,"lon":-56.130556,"puntuation":2.2},
{"id":190,"name":"Pauli","lat":11.5294306,"lon":122.0953896,"puntuation":4.5},
{"id":191,"name":"Christiano","lat":13.6986477,"lon":30.3723741,"puntuation":3.0},
{"id":192,"name":"Fayth","lat":-6.9774659,"lon":110.5806783,"puntuation":4.3},
{"id":193,"name":"Emmie","lat":45.159309,"lon":14.5440221,"puntuation":1.9},
{"id":194,"name":"Janenna","lat":59.9278844,"lon":10.7477822,"puntuation":4.0},
{"id":195,"name":"Lydie","lat":31.219568,"lon":118.268101,"puntuation":2.1},
{"id":196,"name":"Collete","lat":40.1632626,"lon":44.2935926,"puntuation":2.4},
{"id":197,"name":"Northrup","lat":6.5243793,"lon":3.3792057,"puntuation":2.0},
{"id":198,"name":"Woodrow","lat":14.9415552,"lon":-88.3263603,"puntuation":3.2},
{"id":199,"name":"Donnajean","lat":34.7757093,"lon":134.7206721,"puntuation":3.3},
{"id":200,"name":"Keri","lat":54.4185233,"lon":32.4242426,"puntuation":3.7},
{"id":201,"name":"Jarvis","lat":43.4146453,"lon":22.1271404,"puntuation":3.3},
{"id":202,"name":"Thaddus","lat":28.80901,"lon":120.26121,"puntuation":1.8},
{"id":203,"name":"Damara","lat":55.675114,"lon":12.568064,"puntuation":2.6},
{"id":204,"name":"Quentin","lat":12.0962646,"lon":-85.3704606,"puntuation":3.7},
{"id":205,"name":"Fanchon","lat":41.343933,"lon":86.261321,"puntuation":2.3},
{"id":206,"name":"Nancey","lat":8.07,"lon":134.702778,"puntuation":4.7},
{"id":207,"name":"Cynthy","lat":37.646108,"lon":120.477813,"puntuation":3.4},
{"id":208,"name":"Emilia","lat":32.059093,"lon":118.627894,"puntuation":4.9},
{"id":209,"name":"Karil","lat":48.5239429,"lon":37.7075811,"puntuation":3.0},
{"id":210,"name":"Delainey","lat":39.495941,"lon":63.85672,"puntuation":4.8},
{"id":211,"name":"Oran","lat":24.22123,"lon":90.9081542,"puntuation":4.5},
{"id":212,"name":"Sheffield","lat":58.5118215,"lon":13.4761783,"puntuation":1.4},
{"id":213,"name":"Lorry","lat":11.9891869,"lon":106.7942405,"puntuation":4.6},
{"id":214,"name":"Ingrid","lat":-26.9107052,"lon":-48.6709133,"puntuation":2.5},
{"id":215,"name":"Betty","lat":48.9779483,"lon":2.2646872,"puntuation":4.6},
{"id":216,"name":"Minda","lat":41.5678915,"lon":-8.4219601,"puntuation":4.2},
{"id":217,"name":"Frasco","lat":54.4868002,"lon":18.2202834,"puntuation":4.3},
{"id":218,"name":"Neely","lat":31.2470602,"lon":74.2308449,"puntuation":4.5},
{"id":219,"name":"Boycey","lat":24.7204697,"lon":118.6154322,"puntuation":4.5},
{"id":220,"name":"Brinna","lat":-15.8142935,"lon":-42.227378,"puntuation":3.6},
{"id":221,"name":"Milli","lat":52.63744,"lon":41.45968,"puntuation":2.1},
{"id":222,"name":"Anet","lat":19.0311391,"lon":-69.7294736,"puntuation":1.9},
{"id":223,"name":"Starlene","lat":-23.3711864,"lon":-46.7575221,"puntuation":3.6},
{"id":224,"name":"Glyn","lat":46.946681,"lon":142.0144982,"puntuation":1.5},
{"id":225,"name":"Pepito","lat":39.442222,"lon":112.464886,"puntuation":1.7},
{"id":226,"name":"Lela","lat":14.6014909,"lon":103.0933171,"puntuation":2.4},
{"id":227,"name":"Arvie","lat":17.18126,"lon":43.28811,"puntuation":4.0},
{"id":228,"name":"Rosalynd","lat":55.6686,"lon":37.5470072,"puntuation":4.5},
{"id":229,"name":"Cassandra","lat":30.6107721,"lon":53.1911235,"puntuation":2.6},
{"id":230,"name":"Constantine","lat":62.1588835,"lon":22.2669813,"puntuation":3.1},
{"id":231,"name":"Ritchie","lat":18.6967739,"lon":105.2662931,"puntuation":1.9},
{"id":232,"name":"Carmelia","lat":22.806457,"lon":114.073302,"puntuation":3.7},
{"id":233,"name":"Ephrem","lat":33.2391279,"lon":130.2750995,"puntuation":4.8},
{"id":234,"name":"Terrijo","lat":41.4514619,"lon":-8.4873087,"puntuation":2.5},
{"id":235,"name":"Tallulah","lat":15.0312765,"lon":-88.6458421,"puntuation":3.0},
{"id":236,"name":"Catie","lat":-3.5594169,"lon":33.4075149,"puntuation":3.0},
{"id":237,"name":"Veda","lat":22.6594661,"lon":105.9641124,"puntuation":4.8},
{"id":238,"name":"Terence","lat":65.821212,"lon":21.7053767,"puntuation":1.4},
{"id":239,"name":"Cordey","lat":25.3141558,"lon":49.6299077,"puntuation":4.2},
{"id":240,"name":"Clarence","lat":36.4359045,"lon":129.0571077,"puntuation":3.3},
{"id":241,"name":"Robbin","lat":3.6598028,"lon":-76.4794435,"puntuation":1.9},
{"id":242,"name":"Laurie","lat":22.795672,"lon":-82.5131717,"puntuation":4.8},
{"id":243,"name":"Raquela","lat":7.639571,"lon":-73.327532,"puntuation":4.2},
{"id":244,"name":"Mady","lat":-8.0344803,"lon":113.9655419,"puntuation":4.3},
{"id":245,"name":"Chanda","lat":-0.3208374,"lon":32.2937428,"puntuation":4.9},
{"id":246,"name":"Gayelord","lat":23.021478,"lon":113.121435,"puntuation":4.8},
{"id":247,"name":"Darwin","lat":31.77,"lon":-106.43,"puntuation":1.5},
{"id":248,"name":"Andras","lat":-9.7018,"lon":120.4918,"puntuation":3.2},
{"id":249,"name":"Kym","lat":4.4529473,"lon":126.7496264,"puntuation":1.5},
{"id":250,"name":"Meggy","lat":-5.0173504,"lon":122.8704925,"puntuation":2.8},
{"id":251,"name":"Baxy","lat":15.976779,"lon":120.5648766,"puntuation":1.2},
{"id":252,"name":"Madelina","lat":63.7435338,"lon":53.7021347,"puntuation":3.9},
{"id":253,"name":"Siffre","lat":-6.8843479,"lon":108.7927679,"puntuation":3.0},
{"id":254,"name":"Carolina","lat":34.88333,"lon":136.98333,"puntuation":2.1},
{"id":255,"name":"Jean","lat":27.511611,"lon":112.726555,"puntuation":1.2},
{"id":256,"name":"Dale","lat":48.6768262,"lon":14.5775257,"puntuation":2.0},
{"id":257,"name":"Leland","lat":35.6940331,"lon":138.5178782,"puntuation":2.7},
{"id":258,"name":"Dud","lat":24.8500604,"lon":90.6387949,"puntuation":4.8},
{"id":259,"name":"Horatius","lat":6.703272,"lon":8.8997015,"puntuation":1.5},
{"id":260,"name":"Rayner","lat":52.5424757,"lon":16.3067301,"puntuation":3.8},
{"id":261,"name":"Bonita","lat":38.8794495,"lon":-6.9706535,"puntuation":4.4},
{"id":262,"name":"Alejandrina","lat":39.377733,"lon":99.819316,"puntuation":2.3},
{"id":263,"name":"Berkeley","lat":51.8761178,"lon":104.8423232,"puntuation":4.5},
{"id":264,"name":"Bailey","lat":-21.9896473,"lon":-47.4220818,"puntuation":2.8},
{"id":265,"name":"Brose","lat":5.9877589,"lon":124.6243344,"puntuation":1.1},
{"id":266,"name":"Yorker","lat":30.6758871,"lon":-88.1837629,"puntuation":4.6},
{"id":267,"name":"Rivkah","lat":9.258006,"lon":123.281809,"puntuation":2.9},
{"id":268,"name":"Fancy","lat":49.6000083,"lon":15.8302054,"puntuation":4.8},
{"id":269,"name":"Bruno","lat":-4.3601087,"lon":14.7608448,"puntuation":4.7},
{"id":270,"name":"Cathrine","lat":43.6793979,"lon":4.131084,"puntuation":2.6},
{"id":271,"name":"Ernesta","lat":0.0208039,"lon":-51.0678473,"puntuation":2.0},
{"id":272,"name":"Karon","lat":48.4057628,"lon":2.6949635,"puntuation":2.2},
{"id":273,"name":"Leontine","lat":-7.0626852,"lon":107.0663524,"puntuation":2.8},
{"id":274,"name":"Ailey","lat":40.7679191,"lon":-93.3362962,"puntuation":2.3},
{"id":275,"name":"Gene","lat":-9.7540414,"lon":124.3643423,"puntuation":3.1},
{"id":276,"name":"Bronny","lat":45.7787293,"lon":3.0857432,"puntuation":4.9},
{"id":277,"name":"Robby","lat":-8.6796987,"lon":120.3896651,"puntuation":1.9},
{"id":278,"name":"Eward","lat":14.637321,"lon":120.960515,"puntuation":1.7},
{"id":279,"name":"Giustina","lat":-6.9098723,"lon":107.1955974,"puntuation":1.5},
{"id":280,"name":"Mufinella","lat":53.58244,"lon":20.2827,"puntuation":4.2},
{"id":281,"name":"Lorrayne","lat":16.4656784,"lon":102.7834876,"puntuation":4.7},
{"id":282,"name":"Lind","lat":22.170437,"lon":111.791539,"puntuation":1.8},
{"id":283,"name":"Lynnell","lat":22.8159074,"lon":-82.7589859,"puntuation":1.7},
{"id":284,"name":"Jordan","lat":16.9270749,"lon":97.3678624,"puntuation":4.0},
{"id":285,"name":"Amby","lat":26.685936,"lon":118.163788,"puntuation":1.8},
{"id":286,"name":"Warden","lat":32.5734842,"lon":74.0420093,"puntuation":3.1},
{"id":287,"name":"Malachi","lat":50.0317672,"lon":18.7766679,"puntuation":3.7},
{"id":288,"name":"Raul","lat":1.6408734,"lon":-75.4111644,"puntuation":2.9},
{"id":289,"name":"Zorana","lat":57.2588115,"lon":40.8141102,"puntuation":2.5},
{"id":290,"name":"Thorvald","lat":31.57112,"lon":35.23227,"puntuation":3.6},
{"id":291,"name":"Alfi","lat":33.052654,"lon":115.996709,"puntuation":4.1},
{"id":292,"name":"Merle","lat":-7.4892361,"lon":-38.9842531,"puntuation":4.4},
{"id":293,"name":"Lamar","lat":52.2679288,"lon":-1.1202549,"puntuation":4.0},
{"id":294,"name":"Adolf","lat":-21.692578,"lon":-45.2515461,"puntuation":2.5},
{"id":295,"name":"Dana","lat":33.9242163,"lon":135.1445719,"puntuation":2.7},
{"id":296,"name":"Siward","lat":48.6169664,"lon":2.406265,"puntuation":4.8},
{"id":297,"name":"Hewe","lat":39.7503186,"lon":-104.8367063,"puntuation":4.9},
{"id":298,"name":"Stormie","lat":0.3332218,"lon":34.4877423,"puntuation":2.7},
{"id":299,"name":"Melissa","lat":-7.1033128,"lon":112.2026347,"puntuation":4.9},
{"id":300,"name":"Joly","lat":-9.7918763,"lon":119.9393608,"puntuation":1.5},
{"id":301,"name":"Klement","lat":30.531919,"lon":117.115101,"puntuation":4.2},
{"id":302,"name":"Munroe","lat":-10.5822,"lon":121.8062,"puntuation":2.5},
{"id":303,"name":"Cyrus","lat":40.1851386,"lon":44.0033056,"puntuation":4.3},
{"id":304,"name":"Gerladina","lat":41.1154773,"lon":-7.5627051,"puntuation":3.9},
{"id":305,"name":"Orren","lat":6.6753696,"lon":124.5444219,"puntuation":2.5},
{"id":306,"name":"Alyse","lat":35.62231,"lon":10.75696,"puntuation":3.5},
{"id":307,"name":"Merrily","lat":52.579839,"lon":19.6295361,"puntuation":4.4},
{"id":308,"name":"Alfred","lat":22.259725,"lon":107.649938,"puntuation":3.9},
{"id":309,"name":"Skip","lat":40.5141742,"lon":23.8254879,"puntuation":3.8},
{"id":310,"name":"Crysta","lat":-3.0423379,"lon":120.1733631,"puntuation":2.7},
{"id":311,"name":"Vanya","lat":56.0161995,"lon":45.0457463,"puntuation":1.2},
{"id":312,"name":"Marne","lat":49.3496761,"lon":18.180271,"puntuation":2.0},
{"id":313,"name":"Siouxie","lat":29.6252177,"lon":-95.2208569,"puntuation":3.0},
{"id":314,"name":"Doroteya","lat":7.6182738,"lon":100.3048897,"puntuation":3.2},
{"id":315,"name":"Grady","lat":50.5429237,"lon":3.086469,"puntuation":2.9},
{"id":316,"name":"Felicity","lat":41.1055663,"lon":-8.508386,"puntuation":1.6},
{"id":317,"name":"Angeline","lat":-7.1108,"lon":113.5265,"puntuation":2.8},
{"id":318,"name":"Hilliard","lat":16.6500928,"lon":121.2238236,"puntuation":2.0},
{"id":319,"name":"Germaine","lat":27.3669252,"lon":118.8644179,"puntuation":3.0},
{"id":320,"name":"Marjie","lat":41.9943014,"lon":20.4128027,"puntuation":3.4},
{"id":321,"name":"Kara","lat":24.1092009,"lon":117.1199596,"puntuation":2.6},
{"id":322,"name":"Blondie","lat":34.352865,"lon":62.2040287,"puntuation":2.9},
{"id":323,"name":"Francklin","lat":6.9433577,"lon":-70.7168469,"puntuation":4.7},
{"id":324,"name":"Benyamin","lat":50.35008,"lon":-113.76866,"puntuation":2.6},
{"id":325,"name":"Marcile","lat":-24.8763773,"lon":-54.9322782,"puntuation":4.1},
{"id":326,"name":"Modestine","lat":-24.912902,"lon":-65.640294,"puntuation":3.7},
{"id":327,"name":"Jayme","lat":35.025857,"lon":136.131182,"puntuation":2.7},
{"id":328,"name":"Tilda","lat":23.875208,"lon":112.542428,"puntuation":3.5},
{"id":329,"name":"Warner","lat":-34.8234058,"lon":-58.187517,"puntuation":4.5},
{"id":330,"name":"Elicia","lat":-41.1254857,"lon":-71.2485941,"puntuation":1.6},
{"id":331,"name":"Aluino","lat":10.9574128,"lon":106.8426871,"puntuation":1.8},
{"id":332,"name":"Enrika","lat":29.049672,"lon":93.953264,"puntuation":1.6},
{"id":333,"name":"Shurlocke","lat":-14.8358687,"lon":-74.9327583,"puntuation":4.4},
{"id":334,"name":"Ilyse","lat":49.7877327,"lon":37.1720386,"puntuation":1.8},
{"id":335,"name":"Liz","lat":-19.6771093,"lon":29.9769441,"puntuation":1.3},
{"id":336,"name":"Tami","lat":6.9280156,"lon":79.8908308,"puntuation":3.9},
{"id":337,"name":"Marty","lat":12.16219,"lon":-68.2713254,"puntuation":4.5},
{"id":338,"name":"Brigit","lat":40.256729,"lon":115.474295,"puntuation":1.6},
{"id":339,"name":"Hurley","lat":-19.4021302,"lon":46.9537969,"puntuation":4.4},
{"id":340,"name":"Shandra","lat":39.480497,"lon":117.345479,"puntuation":2.6},
{"id":341,"name":"Boot","lat":44.9293507,"lon":39.7571015,"puntuation":3.8},
{"id":342,"name":"Frederick","lat":41.985186,"lon":122.836723,"puntuation":3.6},
{"id":343,"name":"Lockwood","lat":58.4181236,"lon":15.6198852,"puntuation":3.5},
{"id":344,"name":"Norman","lat":26.1737172,"lon":127.8081231,"puntuation":4.5},
{"id":345,"name":"Solly","lat":7.7630152,"lon":5.7247169,"puntuation":2.6},
{"id":346,"name":"Valera","lat":-6.2468515,"lon":106.105204,"puntuation":3.2},
{"id":347,"name":"Cyndie","lat":41.07,"lon":-85.14,"puntuation":4.7},
{"id":348,"name":"Rosalyn","lat":28.301938,"lon":117.799676,"puntuation":1.6},
{"id":349,"name":"Gunter","lat":41.45472,"lon":20.02556,"puntuation":4.8},
{"id":350,"name":"Delainey","lat":66.2745295,"lon":33.0615453,"puntuation":3.7},
{"id":351,"name":"Stanford","lat":23.701262,"lon":117.430061,"puntuation":4.6},
{"id":352,"name":"Harbert","lat":29.117096,"lon":110.479191,"puntuation":2.0},
{"id":353,"name":"Bobbye","lat":-28.4354702,"lon":-52.8312661,"puntuation":2.1},
{"id":354,"name":"Leeland","lat":52.6915552,"lon":1.6993747,"puntuation":1.5},
{"id":355,"name":"Alden","lat":55.7213148,"lon":37.6243984,"puntuation":1.7},
{"id":356,"name":"Terence","lat":55.600738,"lon":37.5321289,"puntuation":4.4},
{"id":357,"name":"Tomkin","lat":14.41225,"lon":44.836578,"puntuation":1.5},
{"id":358,"name":"Brannon","lat":29.9338311,"lon":-9.351354,"puntuation":4.0},
{"id":359,"name":"Jeannette","lat":22.6695494,"lon":113.2476081,"puntuation":2.5},
{"id":360,"name":"Taddeusz","lat":34.33629,"lon":119.547248,"puntuation":1.3},
{"id":361,"name":"Garold","lat":29.586414,"lon":110.046252,"puntuation":3.9},
{"id":362,"name":"Townie","lat":9.6642965,"lon":122.9435214,"puntuation":2.6},
{"id":363,"name":"Sal","lat":30.945515,"lon":117.81154,"puntuation":1.4},
{"id":364,"name":"Aron","lat":45.8512879,"lon":134.49807,"puntuation":1.2},
{"id":365,"name":"Muffin","lat":10.668154,"lon":125.042795,"puntuation":1.4},
{"id":366,"name":"Basilius","lat":50.6881144,"lon":32.3370869,"puntuation":4.7},
{"id":367,"name":"Eldredge","lat":50.71966,"lon":16.345569,"puntuation":1.6},
{"id":368,"name":"Madalena","lat":40.9279942,"lon":19.9481973,"puntuation":1.7},
{"id":369,"name":"Ivan","lat":40.9112418,"lon":-96.5996963,"puntuation":3.9},
{"id":370,"name":"Hermione","lat":49.5620496,"lon":15.8596037,"puntuation":4.2},
{"id":371,"name":"Abeu","lat":52.2445931,"lon":104.2483085,"puntuation":1.3},
{"id":372,"name":"Amil","lat":4.6802367,"lon":-74.2296713,"puntuation":2.6},
{"id":373,"name":"Ardelis","lat":54.6164547,"lon":18.1757954,"puntuation":2.8},
{"id":374,"name":"Dennie","lat":37.268428,"lon":55.1487513,"puntuation":4.7},
{"id":375,"name":"Agretha","lat":39.1192173,"lon":117.1944016,"puntuation":4.5},
{"id":376,"name":"Ashbey","lat":48.42647,"lon":-123.3227421,"puntuation":3.9},
{"id":377,"name":"Georgetta","lat":46.204501,"lon":47.851999,"puntuation":3.7},
{"id":378,"name":"Valry","lat":-8.7611605,"lon":-63.9004303,"puntuation":3.7},
{"id":379,"name":"Brandon","lat":5.5047283,"lon":153.8190084,"puntuation":4.3},
{"id":380,"name":"Charleen","lat":40.8247318,"lon":-96.6157192,"puntuation":3.9},
{"id":381,"name":"Marcel","lat":49.0525513,"lon":17.5271323,"puntuation":4.3},
{"id":382,"name":"Millicent","lat":42.76631,"lon":129.427066,"puntuation":4.1},
{"id":383,"name":"Jedd","lat":-20.1851206,"lon":-44.7711099,"puntuation":2.9},
{"id":384,"name":"Jaimie","lat":40.2074194,"lon":22.4387178,"puntuation":1.6},
{"id":385,"name":"Jere","lat":14.5609722,"lon":121.0224008,"puntuation":1.8},
{"id":386,"name":"Dulsea","lat":-18.2200791,"lon":32.7463686,"puntuation":4.2},
{"id":387,"name":"Zach","lat":39.1365314,"lon":20.9594987,"puntuation":3.4},
{"id":388,"name":"Fay","lat":31.896059,"lon":35.254768,"puntuation":1.8},
{"id":389,"name":"Romeo","lat":35.4755834,"lon":44.4075911,"puntuation":3.5},
{"id":390,"name":"James","lat":-5.9007717,"lon":-76.1129048,"puntuation":2.8},
{"id":391,"name":"Traci","lat":-6.1801188,"lon":107.2946735,"puntuation":3.7},
{"id":392,"name":"Carlee","lat":54.2796,"lon":28.7649,"puntuation":3.6},
{"id":393,"name":"Kim","lat":29.761159,"lon":105.931414,"puntuation":3.2},
{"id":394,"name":"Allan","lat":30.070453,"lon":115.944218,"puntuation":3.9},
{"id":395,"name":"Rafferty","lat":57.7500731,"lon":12.9485476,"puntuation":2.1},
{"id":396,"name":"Towny","lat":32.192361,"lon":35.159475,"puntuation":1.2},
{"id":397,"name":"Avie","lat":39.538047,"lon":116.683752,"puntuation":4.8},
{"id":398,"name":"Dino","lat":51.444601,"lon":-0.1549619,"puntuation":3.2},
{"id":399,"name":"Cher","lat":45.469429,"lon":12.2400678,"puntuation":4.7},
{"id":400,"name":"Coop","lat":49.0426,"lon":2.087826,"puntuation":2.1},
{"id":401,"name":"Ravi","lat":-13.5,"lon":48.86667,"puntuation":3.2},
{"id":402,"name":"Dick","lat":13.9755122,"lon":-89.217002,"puntuation":3.2},
{"id":403,"name":"Torin","lat":-8.1950813,"lon":111.9403254,"puntuation":2.7},
{"id":404,"name":"Arleta","lat":-7.7071613,"lon":108.4098014,"puntuation":3.3},
{"id":405,"name":"Aline","lat":56.7012772,"lon":104.2143124,"puntuation":4.6},
{"id":406,"name":"Baudoin","lat":-8.5793,"lon":121.57227,"puntuation":1.6},
{"id":407,"name":"Derron","lat":39.2022108,"lon":-9.3297345,"puntuation":3.2},
{"id":408,"name":"Shirlene","lat":12.4218541,"lon":124.800874,"puntuation":3.6},
{"id":409,"name":"Mariellen","lat":40.72135,"lon":-75.393181,"puntuation":1.4},
{"id":410,"name":"Gerianna","lat":23.131797,"lon":113.407143,"puntuation":2.0},
{"id":411,"name":"Franky","lat":34.38528,"lon":36.03111,"puntuation":3.2},
{"id":412,"name":"Yehudit","lat":-8.1132729,"lon":-35.0169621,"puntuation":2.5},
{"id":413,"name":"Wolfy","lat":27.855928,"lon":113.173487,"puntuation":4.3},
{"id":414,"name":"Margette","lat":12.6703542,"lon":123.8732551,"puntuation":4.1},
{"id":415,"name":"Averill","lat":-6.3384977,"lon":106.1610343,"puntuation":4.4},
{"id":416,"name":"Gayelord","lat":22.170437,"lon":111.791539,"puntuation":4.0},
{"id":417,"name":"Gerry","lat":-19.538062,"lon":-42.64911,"puntuation":3.2},
{"id":418,"name":"Matilde","lat":-6.6656231,"lon":106.3438367,"puntuation":3.0},
{"id":419,"name":"Whitney","lat":13.2857271,"lon":-4.5908196,"puntuation":4.4},
{"id":420,"name":"Henrik","lat":5.523663,"lon":-74.234611,"puntuation":4.4},
{"id":421,"name":"Bessy","lat":28.498317,"lon":112.523522,"puntuation":3.3},
{"id":422,"name":"Kathi","lat":-34.6636109,"lon":-56.2230875,"puntuation":1.9},
{"id":423,"name":"Sigismund","lat":36.097577,"lon":114.392392,"puntuation":4.2},
{"id":424,"name":"Filide","lat":13.7931278,"lon":100.4993601,"puntuation":1.9},
{"id":425,"name":"Judye","lat":68.7934376,"lon":16.5129687,"puntuation":3.1},
{"id":426,"name":"Vere","lat":14.453071,"lon":121.030984,"puntuation":1.5},
{"id":427,"name":"Honor","lat":59.3514599,"lon":17.9843165,"puntuation":2.2},
{"id":428,"name":"Eirena","lat":26.641315,"lon":100.222545,"puntuation":1.2},
{"id":429,"name":"Clarke","lat":-2.8409385,"lon":30.3464333,"puntuation":3.0},
{"id":430,"name":"Gus","lat":17.29788,"lon":43.38718,"puntuation":4.9},
{"id":431,"name":"Sonia","lat":-6.1597768,"lon":106.8669252,"puntuation":1.1},
{"id":432,"name":"Kevyn","lat":11.0991113,"lon":5.2527741,"puntuation":2.9},
{"id":433,"name":"Kerr","lat":7.5129005,"lon":124.9562226,"puntuation":1.8},
{"id":434,"name":"Wallie","lat":60.0209443,"lon":44.9318159,"puntuation":2.1},
{"id":435,"name":"Thane","lat":49.8970603,"lon":22.509917,"puntuation":4.2},
{"id":436,"name":"Augusta","lat":32.272766,"lon":119.579153,"puntuation":4.0},
{"id":437,"name":"Luelle","lat":28.8876615,"lon":112.5841075,"puntuation":3.1},
{"id":438,"name":"Tina","lat":-4.1034782,"lon":-81.0451037,"puntuation":1.1},
{"id":439,"name":"Josi","lat":9.5608923,"lon":-73.3384471,"puntuation":3.1},
{"id":440,"name":"Danette","lat":33.2035282,"lon":131.6906274,"puntuation":4.1},
{"id":441,"name":"Jemimah","lat":7.2754704,"lon":6.107645,"puntuation":2.4},
{"id":442,"name":"Ardyth","lat":37.7838437,"lon":126.283172,"puntuation":2.4},
{"id":443,"name":"Leila","lat":38.1724824,"lon":15.5445064,"puntuation":4.8},
{"id":444,"name":"Eugen","lat":56.8564288,"lon":24.3522717,"puntuation":3.3},
{"id":445,"name":"Collette","lat":21.7960343,"lon":-79.9808143,"puntuation":4.0},
{"id":446,"name":"Jamesy","lat":-29.8224312,"lon":27.2388161,"puntuation":4.6},
{"id":447,"name":"Kaleb","lat":31.853167,"lon":34.842421,"puntuation":1.3},
{"id":448,"name":"Georgina","lat":5.6661517,"lon":-0.1582766,"puntuation":2.3},
{"id":449,"name":"Rebecka","lat":-33.4488897,"lon":-70.6692655,"puntuation":1.4},
{"id":450,"name":"Andrea","lat":29.574609,"lon":120.934385,"puntuation":3.5},
{"id":451,"name":"Mata","lat":38.0932151,"lon":69.3413913,"puntuation":3.1},
{"id":452,"name":"Gennifer","lat":53.30215,"lon":23.28784,"puntuation":4.2},
{"id":453,"name":"Berti","lat":10.4597466,"lon":-66.5581092,"puntuation":4.2},
{"id":454,"name":"Dayle","lat":51.9918835,"lon":15.7842357,"puntuation":1.8},
{"id":455,"name":"Pincus","lat":52.6924095,"lon":14.6086793,"puntuation":2.1},
{"id":456,"name":"Royal","lat":59.9294476,"lon":30.3651444,"puntuation":1.6},
{"id":457,"name":"Meridith","lat":64.7457113,"lon":20.9568227,"puntuation":3.4},
{"id":458,"name":"Malinda","lat":7.0654022,"lon":-3.9572374,"puntuation":2.0},
{"id":459,"name":"Margette","lat":52.9434371,"lon":20.5544716,"puntuation":4.7},
{"id":460,"name":"Dennison","lat":38.808984,"lon":22.6461855,"puntuation":2.1},
{"id":461,"name":"Henderson","lat":37.97,"lon":-87.5699999,"puntuation":1.4},
{"id":462,"name":"Murvyn","lat":53.5484541,"lon":18.9455238,"puntuation":1.5},
{"id":463,"name":"Reynard","lat":52.6029163,"lon":41.4669909,"puntuation":2.5},
{"id":464,"name":"Nelie","lat":29.285314,"lon":110.338222,"puntuation":2.2},
{"id":465,"name":"Jamal","lat":12.4957874,"lon":-6.797592,"puntuation":4.6},
{"id":466,"name":"Jeremias","lat":60.1734181,"lon":18.1771765,"puntuation":2.6},
{"id":467,"name":"Aldus","lat":45.23223,"lon":108.28245,"puntuation":3.3},
{"id":468,"name":"Meridel","lat":-22.2169379,"lon":-49.9456615,"puntuation":4.1},
{"id":469,"name":"Ronny","lat":47.0165054,"lon":-68.1430064,"puntuation":2.3},
{"id":470,"name":"Gradey","lat":9.7016493,"lon":-84.1005807,"puntuation":1.8},
{"id":471,"name":"Lindie","lat":-6.183459,"lon":106.7647475,"puntuation":3.0},
{"id":472,"name":"Lay","lat":29.3180299,"lon":48.0753917,"puntuation":4.7},
{"id":473,"name":"Irwinn","lat":1.386973,"lon":173.138978,"puntuation":4.0},
{"id":474,"name":"Creighton","lat":22.00001,"lon":110.593212,"puntuation":2.4},
{"id":475,"name":"Gonzales","lat":52.3468215,"lon":21.2540462,"puntuation":2.9},
{"id":476,"name":"Edan","lat":50.3197113,"lon":20.3992492,"puntuation":3.4},
{"id":477,"name":"Etan","lat":28.6751124,"lon":57.7371569,"puntuation":4.6},
{"id":478,"name":"Stinky","lat":-7.2719005,"lon":112.7196817,"puntuation":1.4},
{"id":479,"name":"Ozzy","lat":2.9329721,"lon":101.6259842,"puntuation":1.2},
{"id":480,"name":"King","lat":38.0987438,"lon":23.8790184,"puntuation":3.3},
{"id":481,"name":"Britteny","lat":49.41668,"lon":-112.86856,"puntuation":1.9},
{"id":482,"name":"Shanda","lat":31.299299,"lon":121.4494622,"puntuation":3.5},
{"id":483,"name":"Hartwell","lat":31.018498,"lon":109.463987,"puntuation":3.3},
{"id":484,"name":"Karlen","lat":-17.3547843,"lon":-63.3977316,"puntuation":3.8},
{"id":485,"name":"Rosalia","lat":-4.3499796,"lon":152.2714594,"puntuation":3.1},
{"id":486,"name":"Laurena","lat":53.00942,"lon":17.73989,"puntuation":2.5},
{"id":487,"name":"Lisa","lat":58.8995628,"lon":59.7081271,"puntuation":2.2},
{"id":488,"name":"Dinny","lat":49.5671764,"lon":17.4114814,"puntuation":1.1},
{"id":489,"name":"Elbertina","lat":41.451118,"lon":-81.6309078,"puntuation":1.8},
{"id":490,"name":"Hewett","lat":-3.2023658,"lon":-45.0373171,"puntuation":4.2},
{"id":491,"name":"Cora","lat":34.7757093,"lon":134.7206721,"puntuation":4.3},
{"id":492,"name":"Sheelah","lat":32.8458487,"lon":129.9118965,"puntuation":2.5},
{"id":493,"name":"Stefan","lat":46.283972,"lon":17.825072,"puntuation":1.1},
{"id":494,"name":"William","lat":3.7827632,"lon":12.2490697,"puntuation":2.7},
{"id":495,"name":"Emmi","lat":32.6434902,"lon":35.9396453,"puntuation":4.7},
{"id":496,"name":"Marabel","lat":8.529106,"lon":123.74979,"puntuation":1.8},
{"id":497,"name":"Gertrud","lat":42.5530523,"lon":70.0024837,"puntuation":2.6},
{"id":498,"name":"Rivi","lat":32.629398,"lon":110.798266,"puntuation":2.7},
{"id":499,"name":"Nady","lat":-6.38706,"lon":106.82725,"puntuation":4.1},
{"id":500,"name":"Matthias","lat":45.8829678,"lon":19.9675163,"puntuation":4.2},
{"id":501,"name":"Ian","lat":49.4382375,"lon":1.0598119,"puntuation":2.0},
{"id":502,"name":"Benoite","lat":29.718419,"lon":104.585735,"puntuation":1.6},
{"id":503,"name":"Horatius","lat":17.4030206,"lon":104.8337879,"puntuation":1.9},
{"id":504,"name":"Micki","lat":0.3475964,"lon":32.5825197,"puntuation":1.0},
{"id":505,"name":"Amabelle","lat":48.239135,"lon":126.481867,"puntuation":3.3},
{"id":506,"name":"Shep","lat":45.199035,"lon":5.110871,"puntuation":3.6},
{"id":507,"name":"Hailee","lat":53.3004898,"lon":-6.2634596,"puntuation":2.2},
{"id":508,"name":"Latashia","lat":-11.6110008,"lon":43.2853868,"puntuation":2.8},
{"id":509,"name":"Montgomery","lat":25.2898918,"lon":32.5522304,"puntuation":4.9},
{"id":510,"name":"Gabbie","lat":-8.6276559,"lon":116.1979749,"puntuation":2.7},
{"id":511,"name":"Frankie","lat":55.4857103,"lon":60.8751953,"puntuation":2.6},
{"id":512,"name":"Kelly","lat":53.8191,"lon":27.5215,"puntuation":4.5},
{"id":513,"name":"Waldon","lat":54.886529,"lon":37.1152943,"puntuation":1.1},
{"id":514,"name":"Kalvin","lat":38.2645,"lon":114.690007,"puntuation":4.7},
{"id":515,"name":"Buddy","lat":54.1308809,"lon":45.2613033,"puntuation":4.2},
{"id":516,"name":"Donavon","lat":-6.7099134,"lon":111.1533456,"puntuation":2.2},
{"id":517,"name":"Stacee","lat":31.85587,"lon":35.19706,"puntuation":1.2},
{"id":518,"name":"Dorothy","lat":30.63166,"lon":114.040353,"puntuation":4.8},
{"id":519,"name":"Darlleen","lat":26.085391,"lon":119.583599,"puntuation":1.7},
{"id":520,"name":"Sawyer","lat":50.6230724,"lon":19.2750867,"puntuation":4.3},
{"id":521,"name":"Tore","lat":30.453667,"lon":114.872199,"puntuation":2.0},
{"id":522,"name":"Lyndy","lat":48.830394,"lon":2.2372823,"puntuation":3.8},
{"id":523,"name":"Rice","lat":25.0605919,"lon":118.522341,"puntuation":2.8},
{"id":524,"name":"Haley","lat":45.1652963,"lon":21.4487053,"puntuation":2.3},
{"id":525,"name":"Alvan","lat":19.307033,"lon":-99.1675842,"puntuation":1.4},
{"id":526,"name":"Dukey","lat":59.8435756,"lon":10.8173713,"puntuation":1.8},
{"id":527,"name":"Danny","lat":-7.2739902,"lon":108.1250791,"puntuation":2.6},
{"id":528,"name":"Katya","lat":52.1327312,"lon":18.2293232,"puntuation":2.6},
{"id":529,"name":"Margaretha","lat":31.491169,"lon":120.31191,"puntuation":2.2},
{"id":530,"name":"Dalli","lat":50.05998,"lon":21.8324138,"puntuation":2.4},
{"id":531,"name":"Sanford","lat":36.3063646,"lon":127.5712809,"puntuation":2.1},
{"id":532,"name":"Crin","lat":48.0885087,"lon":0.2075745,"puntuation":4.0},
{"id":533,"name":"Cristy","lat":9.1009716,"lon":104.8921668,"puntuation":4.0},
{"id":534,"name":"Phineas","lat":32.047749,"lon":118.803753,"puntuation":4.9},
{"id":535,"name":"Jennie","lat":56.72998,"lon":23.0165879,"puntuation":1.8},
{"id":536,"name":"Germana","lat":43.7441795,"lon":2.511999,"puntuation":4.5},
{"id":537,"name":"Obed","lat":50.5089112,"lon":26.2566443,"puntuation":3.0},
{"id":538,"name":"Tam","lat":3.1523104,"lon":101.7178316,"puntuation":5.0},
{"id":539,"name":"Quinn","lat":16.0432035,"lon":119.9370328,"puntuation":1.8},
{"id":540,"name":"Lindi","lat":52.5593051,"lon":13.4761485,"puntuation":2.3},
{"id":541,"name":"Harmon","lat":54.3817334,"lon":18.2912258,"puntuation":3.6},
{"id":542,"name":"Brita","lat":37.6086169,"lon":138.9089988,"puntuation":2.4},
{"id":543,"name":"Laurie","lat":-5.1841285,"lon":-37.3477805,"puntuation":2.2},
{"id":544,"name":"Ari","lat":42.9946912,"lon":-82.394,"puntuation":3.6},
{"id":545,"name":"Joanna","lat":22.6113591,"lon":120.3493158,"puntuation":3.0},
{"id":546,"name":"Morse","lat":29.857996,"lon":107.081282,"puntuation":1.9},
{"id":547,"name":"Idelle","lat":31.27707,"lon":119.567195,"puntuation":2.9},
{"id":548,"name":"Clio","lat":24.6233771,"lon":-75.6702647,"puntuation":4.6},
{"id":549,"name":"Erhart","lat":50.0628163,"lon":19.722311,"puntuation":3.4},
{"id":550,"name":"Sheela","lat":10.4452129,"lon":106.4729811,"puntuation":4.7},
{"id":551,"name":"Agnella","lat":8.2101114,"lon":124.8662656,"puntuation":2.4},
{"id":552,"name":"Marin","lat":26.082105,"lon":119.328515,"puntuation":3.6},
{"id":553,"name":"Gill","lat":35.1529042,"lon":33.2110414,"puntuation":1.9},
{"id":554,"name":"Nefen","lat":46.3743832,"lon":17.7845904,"puntuation":2.3},
{"id":555,"name":"Feodor","lat":35.2434225,"lon":58.468709,"puntuation":3.5},
{"id":556,"name":"Leda","lat":50.6749519,"lon":113.5905613,"puntuation":4.4},
{"id":557,"name":"Benni","lat":51.5574609,"lon":20.8640191,"puntuation":4.6},
{"id":558,"name":"Minny","lat":34.41096,"lon":36.75879,"puntuation":3.6},
{"id":559,"name":"Joni","lat":39.9224685,"lon":116.4425998,"puntuation":3.3},
{"id":560,"name":"Robbert","lat":28.4630493,"lon":-81.460856,"puntuation":3.3},
{"id":561,"name":"Chuck","lat":35.293048,"lon":112.390857,"puntuation":4.2},
{"id":562,"name":"Eleni","lat":46.3033966,"lon":44.1911993,"puntuation":3.6},
{"id":563,"name":"Dolli","lat":35.553144,"lon":116.783833,"puntuation":4.7},
{"id":564,"name":"Alexandre","lat":-6.924112,"lon":-79.124367,"puntuation":1.4},
{"id":565,"name":"Willey","lat":35.6574826,"lon":50.9762063,"puntuation":4.9},
{"id":566,"name":"Enoch","lat":-24.988061,"lon":25.3430203,"puntuation":1.5},
{"id":567,"name":"Karola","lat":28.791192,"lon":111.59717,"puntuation":3.2},
{"id":568,"name":"Iormina","lat":38.4784282,"lon":-9.1007778,"puntuation":4.3},
{"id":569,"name":"Lorine","lat":6.0849674,"lon":11.4878714,"puntuation":3.9},
{"id":570,"name":"Faye","lat":34.683646,"lon":112.469023,"puntuation":3.9},
{"id":571,"name":"Christie","lat":44.022066,"lon":89.593967,"puntuation":3.4},
{"id":572,"name":"Cliff","lat":14.6476843,"lon":-90.9457183,"puntuation":3.5},
{"id":573,"name":"Bertie","lat":59.913104,"lon":10.7238941,"puntuation":4.5},
{"id":574,"name":"Kalle","lat":29.285314,"lon":110.338222,"puntuation":4.6},
{"id":575,"name":"Stern","lat":56.3815664,"lon":13.9920633,"puntuation":1.0},
{"id":576,"name":"Kayne","lat":49.6546211,"lon":17.1296944,"puntuation":4.0},
{"id":577,"name":"Verney","lat":33.5449468,"lon":131.4194175,"puntuation":2.2},
{"id":578,"name":"Georg","lat":-14.8503277,"lon":-40.844989,"puntuation":1.3},
{"id":579,"name":"Creight","lat":14.1811693,"lon":-16.8502879,"puntuation":2.6},
{"id":580,"name":"Tonia","lat":51.5136143,"lon":-0.1365486,"puntuation":3.0},
{"id":581,"name":"Margi","lat":-26.3018088,"lon":-54.7192376,"puntuation":2.7},
{"id":582,"name":"Cherye","lat":2.8590812,"lon":98.7426101,"puntuation":2.6},
{"id":583,"name":"Silvie","lat":53.5472987,"lon":9.9778279,"puntuation":3.6},
{"id":584,"name":"Nels","lat":14.609579,"lon":120.993122,"puntuation":1.0},
{"id":585,"name":"Hillyer","lat":47.9956173,"lon":0.1924459,"puntuation":2.6},
{"id":586,"name":"Leia","lat":-26.800415,"lon":-60.840114,"puntuation":2.1},
{"id":587,"name":"Aristotle","lat":37.7937857,"lon":22.8003951,"puntuation":3.2},
{"id":588,"name":"Kliment","lat":-12.930823,"lon":-75.7803892,"puntuation":2.1},
{"id":589,"name":"Zachary","lat":13.4710669,"lon":-87.5470024,"puntuation":4.5},
{"id":590,"name":"Stefa","lat":53.1257,"lon":47.2041,"puntuation":2.9},
{"id":591,"name":"Sadella","lat":40.2715286,"lon":44.633383,"puntuation":4.9},
{"id":592,"name":"Dall","lat":52.431009,"lon":53.1620435,"puntuation":3.0},
{"id":593,"name":"Marti","lat":29.8780031,"lon":40.1043057,"puntuation":4.1},
{"id":594,"name":"Florence","lat":39.9416682,"lon":116.3958807,"puntuation":3.6},
{"id":595,"name":"Rodd","lat":49.8073475,"lon":18.6107307,"puntuation":4.7},
{"id":596,"name":"Maggie","lat":41.782855,"lon":-8.5011003,"puntuation":2.2},
{"id":597,"name":"Corine","lat":45.293877,"lon":41.0546109,"puntuation":4.9},
{"id":598,"name":"Noe","lat":-8.1377539,"lon":112.3158945,"puntuation":2.1},
{"id":599,"name":"Kristo","lat":-8.0989645,"lon":113.4061697,"puntuation":2.5},
{"id":600,"name":"Nathan","lat":-4.8383044,"lon":-80.6482153,"puntuation":4.9},
{"id":601,"name":"Marion","lat":58.5469521,"lon":15.0353001,"puntuation":3.1},
{"id":602,"name":"Sylas","lat":45.3639886,"lon":5.5949365,"puntuation":3.7},
{"id":603,"name":"Lotta","lat":39.1457699,"lon":-9.234085,"puntuation":3.4},
{"id":604,"name":"Fay","lat":53.46687,"lon":15.33337,"puntuation":1.1},
{"id":605,"name":"Madel","lat":61.0180334,"lon":14.6053692,"puntuation":3.1},
{"id":606,"name":"Hannie","lat":52.3287247,"lon":21.1718237,"puntuation":3.6},
{"id":607,"name":"Fawnia","lat":2.0385019,"lon":-157.4903907,"puntuation":2.0},
{"id":608,"name":"Alyse","lat":-10.0431,"lon":124.3382,"puntuation":2.1},
{"id":609,"name":"Sabina","lat":27.868393,"lon":113.433712,"puntuation":2.5},
{"id":610,"name":"Alisander","lat":-6.2969238,"lon":106.9222137,"puntuation":4.1},
{"id":611,"name":"Leroy","lat":59.25863,"lon":18.0094438,"puntuation":1.7},
{"id":612,"name":"Clarita","lat":8.1243943,"lon":124.0495898,"puntuation":2.7},
{"id":613,"name":"Dianne","lat":19.7206,"lon":110.460225,"puntuation":3.9},
{"id":614,"name":"Lanette","lat":-26.8193949,"lon":-65.1435685,"puntuation":3.1},
{"id":615,"name":"Johny","lat":36.1473783,"lon":136.1682227,"puntuation":4.0},
{"id":616,"name":"Agnesse","lat":14.7596318,"lon":121.0589081,"puntuation":1.1},
{"id":617,"name":"Anitra","lat":50.1381207,"lon":30.7373521,"puntuation":1.6},
{"id":618,"name":"Thain","lat":48.0762327,"lon":-0.7609009,"puntuation":3.3},
{"id":619,"name":"Milly","lat":46.801046,"lon":98.0983756,"puntuation":2.1},
{"id":620,"name":"Conant","lat":27.676355,"lon":110.996803,"puntuation":1.5},
{"id":621,"name":"Scotty","lat":55.6689972,"lon":12.5409879,"puntuation":4.3},
{"id":622,"name":"Ingeborg","lat":-14.8842942,"lon":-70.5889612,"puntuation":2.3},
{"id":623,"name":"Leanna","lat":23.5585593,"lon":89.9041371,"puntuation":1.4},
{"id":624,"name":"Lambert","lat":-14.2795685,"lon":-170.6923312,"puntuation":4.1},
{"id":625,"name":"Nerty","lat":49.7030481,"lon":13.2772423,"puntuation":4.2},
{"id":626,"name":"Pippa","lat":-6.500489,"lon":106.6560345,"puntuation":1.9},
{"id":627,"name":"Jyoti","lat":-23.1157079,"lon":-52.0851258,"puntuation":4.5},
{"id":628,"name":"Inger","lat":39.8088955,"lon":-8.7332644,"puntuation":4.1},
{"id":629,"name":"Veriee","lat":24.4432479,"lon":-104.1175578,"puntuation":2.9},
{"id":630,"name":"Ardith","lat":36.067108,"lon":120.382609,"puntuation":2.7},
{"id":631,"name":"Alleen","lat":19.4102526,"lon":-99.0073673,"puntuation":4.9},
{"id":632,"name":"Brady","lat":8.6128567,"lon":81.2179434,"puntuation":5.0},
{"id":633,"name":"Keary","lat":-6.2315975,"lon":106.8213934,"puntuation":3.8},
{"id":634,"name":"Cary","lat":23.624973,"lon":116.768541,"puntuation":2.0},
{"id":635,"name":"Timothee","lat":40.417358,"lon":117.500558,"puntuation":3.4},
{"id":636,"name":"Neile","lat":27.69965,"lon":108.839557,"puntuation":1.7},
{"id":637,"name":"Wynn","lat":38.6152027,"lon":-28.0339781,"puntuation":4.1},
{"id":638,"name":"Sophronia","lat":16.0481202,"lon":105.1375908,"puntuation":3.9},
{"id":639,"name":"Devland","lat":41.1961503,"lon":-8.4156809,"puntuation":3.3},
{"id":640,"name":"Mohandas","lat":27.7703677,"lon":-82.6356732,"puntuation":1.3},
{"id":641,"name":"Madelon","lat":50.3150962,"lon":34.9005644,"puntuation":1.4},
{"id":642,"name":"Gannon","lat":-7.0395,"lon":113.69823,"puntuation":1.8},
{"id":643,"name":"Ave","lat":42.7376689,"lon":-84.5169757,"puntuation":1.9},
{"id":644,"name":"Karylin","lat":56.1947971,"lon":12.5789091,"puntuation":4.4},
{"id":645,"name":"Zebedee","lat":33.6716082,"lon":61.9813913,"puntuation":3.9},
{"id":646,"name":"Sallyann","lat":60.5711454,"lon":21.831107,"puntuation":3.7},
{"id":647,"name":"Sara-ann","lat":-7.8431154,"lon":110.3772042,"puntuation":3.1},
{"id":648,"name":"Cyndie","lat":-8.298138,"lon":111.4812472,"puntuation":3.3},
{"id":649,"name":"Inigo","lat":39.1314511,"lon":-9.0148912,"puntuation":4.6},
{"id":650,"name":"Anett","lat":32.78,"lon":-96.8,"puntuation":1.4},
{"id":651,"name":"Zak","lat":25.4219675,"lon":68.5142341,"puntuation":2.7},
{"id":652,"name":"Cord","lat":61.3611476,"lon":15.9055746,"puntuation":3.9},
{"id":653,"name":"Farrell","lat":59.75,"lon":43.1333329,"puntuation":2.9},
{"id":654,"name":"Zolly","lat":29.5079723,"lon":71.2430776,"puntuation":4.1},
{"id":655,"name":"Friedrich","lat":30.859012,"lon":113.979421,"puntuation":2.6},
{"id":656,"name":"Chelsey","lat":58.0498372,"lon":11.8515576,"puntuation":4.2},
{"id":657,"name":"Nicky","lat":22.541373,"lon":114.137862,"puntuation":3.0},
{"id":658,"name":"Kacey","lat":32.5468611,"lon":-116.9030256,"puntuation":2.2},
{"id":659,"name":"Nikoletta","lat":1.5484759,"lon":103.7983752,"puntuation":3.1},
{"id":660,"name":"Balduin","lat":14.1512889,"lon":120.8576801,"puntuation":3.5},
{"id":661,"name":"Richmond","lat":29.301449,"lon":111.101029,"puntuation":4.9},
{"id":662,"name":"Bevin","lat":43.8580221,"lon":18.4306437,"puntuation":3.7},
{"id":663,"name":"Sigismond","lat":-6.8861034,"lon":107.3661435,"puntuation":1.8},
{"id":664,"name":"Eunice","lat":48.816388,"lon":44.4777899,"puntuation":2.2},
{"id":665,"name":"Karena","lat":34.0136456,"lon":69.4307821,"puntuation":4.5},
{"id":666,"name":"Jarid","lat":40.5660046,"lon":-8.1351741,"puntuation":1.0},
{"id":667,"name":"Josiah","lat":0.2827307,"lon":34.7518631,"puntuation":3.8},
{"id":668,"name":"Van","lat":-6.28433,"lon":107.130861,"puntuation":1.9},
{"id":669,"name":"Thornie","lat":-2.7968956,"lon":115.1859517,"puntuation":3.2},
{"id":670,"name":"Babara","lat":61.0678389,"lon":22.5515075,"puntuation":3.9},
{"id":671,"name":"Starr","lat":51.1146113,"lon":17.649817,"puntuation":4.3},
{"id":672,"name":"Ruy","lat":7.5670301,"lon":99.745565,"puntuation":2.0},
{"id":673,"name":"Cymbre","lat":39.1070379,"lon":-94.4928531,"puntuation":2.4},
{"id":674,"name":"Marcela","lat":41.486981,"lon":123.685142,"puntuation":2.4},
{"id":675,"name":"Shela","lat":-7.9499222,"lon":110.5304842,"puntuation":3.8},
{"id":676,"name":"Grant","lat":38.683925,"lon":-27.27226,"puntuation":3.4},
{"id":677,"name":"Raleigh","lat":-9.833763,"lon":124.458641,"puntuation":3.0},
{"id":678,"name":"Ted","lat":31.874138,"lon":103.573122,"puntuation":2.7},
{"id":679,"name":"Conant","lat":49.9594627,"lon":15.9105476,"puntuation":2.2},
{"id":680,"name":"Britt","lat":-9.9422458,"lon":124.1810057,"puntuation":4.6},
{"id":681,"name":"Kaitlin","lat":-7.9955024,"lon":111.7048262,"puntuation":1.8},
{"id":682,"name":"Corliss","lat":52.3738553,"lon":15.9570211,"puntuation":2.2},
{"id":683,"name":"Abie","lat":49.1931313,"lon":-0.3907558,"puntuation":4.0},
{"id":684,"name":"Hayward","lat":36.1473783,"lon":136.1682227,"puntuation":4.3},
{"id":685,"name":"Rogers","lat":35.6958419,"lon":139.5530816,"puntuation":4.8},
{"id":686,"name":"Nanon","lat":42.7083255,"lon":23.2929533,"puntuation":1.6},
{"id":687,"name":"Zebedee","lat":40.5,"lon":-80.06,"puntuation":1.9},
{"id":688,"name":"Rena","lat":23.354091,"lon":116.681972,"puntuation":3.5},
{"id":689,"name":"Tabbatha","lat":31.375869,"lon":121.265374,"puntuation":1.1},
{"id":690,"name":"Kylie","lat":57.6809089,"lon":12.0018674,"puntuation":3.2},
{"id":691,"name":"Stanfield","lat":52.38342,"lon":-113.7853,"puntuation":2.4},
{"id":692,"name":"Win","lat":8.1607397,"lon":-75.1078332,"puntuation":3.1},
{"id":693,"name":"Laurianne","lat":-7.6275173,"lon":108.8016788,"puntuation":4.7},
{"id":694,"name":"Andras","lat":34.6146101,"lon":71.9210047,"puntuation":3.9},
{"id":695,"name":"Raynell","lat":10.5289556,"lon":-73.7242486,"puntuation":1.0},
{"id":696,"name":"Eleen","lat":19.453837,"lon":-99.1227878,"puntuation":4.7},
{"id":697,"name":"Gladys","lat":37.8484284,"lon":-25.2822768,"puntuation":2.8},
{"id":698,"name":"Sibelle","lat":31.1195391,"lon":31.9416226,"puntuation":3.0},
{"id":699,"name":"Yvonne","lat":55.662882,"lon":37.5826719,"puntuation":1.7},
{"id":700,"name":"Rochelle","lat":9.9772764,"lon":125.2748944,"puntuation":1.6},
{"id":701,"name":"Lindy","lat":14.18364,"lon":122.899983,"puntuation":3.4},
{"id":702,"name":"Giuseppe","lat":33.74859,"lon":105.903018,"puntuation":1.2},
{"id":703,"name":"Luis","lat":43.0641899,"lon":141.4864943,"puntuation":2.5},
{"id":704,"name":"Mendel","lat":-20.8420055,"lon":-40.7357215,"puntuation":3.8},
{"id":705,"name":"Nate","lat":7.8143838,"lon":-72.4406087,"puntuation":2.6},
{"id":706,"name":"Tore","lat":6.5390358,"lon":21.9910008,"puntuation":1.6},
{"id":707,"name":"Abagael","lat":40.078872,"lon":-82.9447782,"puntuation":2.4},
{"id":708,"name":"Howie","lat":11.8859782,"lon":-86.054235,"puntuation":3.2},
{"id":709,"name":"Marcellus","lat":41.2600949,"lon":-8.2803826,"puntuation":4.0},
{"id":710,"name":"Torre","lat":11.0537247,"lon":125.0332235,"puntuation":2.6},
{"id":711,"name":"Bertrando","lat":-7.2558406,"lon":112.525711,"puntuation":3.9},
{"id":712,"name":"Osborn","lat":-6.3472173,"lon":106.7474013,"puntuation":3.0},
{"id":713,"name":"Flemming","lat":59.2264806,"lon":9.5943509,"puntuation":1.3},
{"id":714,"name":"Kath","lat":5.0436537,"lon":100.7210593,"puntuation":3.4},
{"id":715,"name":"Marielle","lat":15.9898714,"lon":119.8798268,"puntuation":2.8},
{"id":716,"name":"Neill","lat":41.5728211,"lon":23.7282719,"puntuation":4.4},
{"id":717,"name":"Yuma","lat":36.776378,"lon":121.158434,"puntuation":2.4},
{"id":718,"name":"Lari","lat":22.333918,"lon":114.153378,"puntuation":1.9},
{"id":719,"name":"Rickert","lat":40.8457193,"lon":25.873962,"puntuation":1.4},
{"id":720,"name":"Karel","lat":-8.0273556,"lon":113.7513827,"puntuation":4.5},
{"id":721,"name":"Wandis","lat":-31.06523,"lon":28.3345399,"puntuation":2.5},
{"id":722,"name":"Inge","lat":46.814102,"lon":130.375062,"puntuation":3.4},
{"id":723,"name":"Hugo","lat":15.5835978,"lon":102.4253001,"puntuation":1.3},
{"id":724,"name":"Valerye","lat":-15.3238812,"lon":-54.8731219,"puntuation":4.9},
{"id":725,"name":"Vito","lat":57.104403,"lon":39.175735,"puntuation":1.9},
{"id":726,"name":"Tommie","lat":40.1999522,"lon":-8.5031422,"puntuation":3.9},
{"id":727,"name":"Kayla","lat":43.654415,"lon":24.850714,"puntuation":2.3},
{"id":728,"name":"Tracie","lat":13.4794397,"lon":-16.6703963,"puntuation":5.0},
{"id":729,"name":"Alfred","lat":40.1128037,"lon":-7.205968,"puntuation":3.9},
{"id":730,"name":"Meridel","lat":31.637714,"lon":119.716535,"puntuation":4.1},
{"id":731,"name":"Roseanna","lat":43.4945737,"lon":5.8978018,"puntuation":1.1},
{"id":732,"name":"Reinald","lat":15.44485,"lon":120.86256,"puntuation":4.1},
{"id":733,"name":"Flo","lat":18.4895862,"lon":-69.8639751,"puntuation":3.5},
{"id":734,"name":"Tamra","lat":45.7039688,"lon":5.9492762,"puntuation":1.3},
{"id":735,"name":"Carla","lat":22.4963477,"lon":-79.5462943,"puntuation":2.2},
{"id":736,"name":"Rinaldo","lat":-8.6276559,"lon":116.1979749,"puntuation":4.3},
{"id":737,"name":"Kerry","lat":30.677233,"lon":121.015142,"puntuation":3.3},
{"id":738,"name":"Granthem","lat":46.186211,"lon":5.916694,"puntuation":2.5},
{"id":739,"name":"Penelope","lat":4.9497479,"lon":-75.958017,"puntuation":2.4},
{"id":740,"name":"Gunther","lat":42.0107787,"lon":128.0660957,"puntuation":1.9},
{"id":741,"name":"Gifford","lat":30.39194,"lon":114.894843,"puntuation":2.8},
{"id":742,"name":"Joelle","lat":30.2676,"lon":120.066439,"puntuation":1.3},
{"id":743,"name":"Mallory","lat":36.3681952,"lon":138.3175811,"puntuation":2.2},
{"id":744,"name":"Jens","lat":9.791337,"lon":-74.7975249,"puntuation":3.5},
{"id":745,"name":"Colly","lat":8.2760566,"lon":99.999936,"puntuation":1.4},
{"id":746,"name":"Shalom","lat":50.2044695,"lon":15.7510575,"puntuation":4.2},
{"id":747,"name":"Tanitansy","lat":37.9687252,"lon":138.3696482,"puntuation":1.0},
{"id":748,"name":"Ephrem","lat":41.217649,"lon":123.1966721,"puntuation":3.2},
{"id":749,"name":"Tilda","lat":13.91581,"lon":44.32414,"puntuation":4.0},
{"id":750,"name":"Ivar","lat":23.081394,"lon":107.143432,"puntuation":3.1},
{"id":751,"name":"Daisey","lat":7.6703363,"lon":123.0043968,"puntuation":2.2},
{"id":752,"name":"Katee","lat":12.013045,"lon":124.815974,"puntuation":4.3},
{"id":753,"name":"Eadith","lat":10.4477737,"lon":38.2031762,"puntuation":2.9},
{"id":754,"name":"Christoper","lat":-2.804472,"lon":129.484497,"puntuation":3.1},
{"id":755,"name":"Karlie","lat":10.5306091,"lon":121.9482983,"puntuation":1.0},
{"id":756,"name":"Ragnar","lat":-8.2545915,"lon":123.7154467,"puntuation":4.9},
{"id":757,"name":"Dana","lat":30.352893,"lon":105.204609,"puntuation":2.1},
{"id":758,"name":"Eunice","lat":-7.4515784,"lon":108.1888771,"puntuation":1.4},
{"id":759,"name":"Gayle","lat":-19.6189005,"lon":-44.0404979,"puntuation":1.4},
{"id":760,"name":"Smitty","lat":22.915094,"lon":112.044491,"puntuation":1.7},
{"id":761,"name":"Constancia","lat":19.4052965,"lon":-99.1504583,"puntuation":2.6},
{"id":762,"name":"Celia","lat":48.2046068,"lon":33.0697214,"puntuation":2.8},
{"id":763,"name":"Tomlin","lat":38.1454503,"lon":-7.7618365,"puntuation":3.8},
{"id":764,"name":"Lynnette","lat":30.6795086,"lon":30.9427433,"puntuation":2.6},
{"id":765,"name":"Ana","lat":-19.54172,"lon":169.2803499,"puntuation":2.2},
{"id":766,"name":"Gardy","lat":-6.9669184,"lon":112.3665609,"puntuation":3.3},
{"id":767,"name":"Jackson","lat":34.8281946,"lon":32.4070834,"puntuation":1.1},
{"id":768,"name":"Edgar","lat":-26.6536509,"lon":28.5914696,"puntuation":1.7},
{"id":769,"name":"Orion","lat":-33.240297,"lon":-56.016771,"puntuation":1.0},
{"id":770,"name":"Ailina","lat":31.2303904,"lon":121.4737021,"puntuation":1.1},
{"id":771,"name":"Adelle","lat":50.4315612,"lon":4.4472854,"puntuation":3.5},
{"id":772,"name":"Ralph","lat":43.4945737,"lon":5.8978018,"puntuation":4.3},
{"id":773,"name":"Bebe","lat":41.795664,"lon":-8.496851,"puntuation":1.3},
{"id":774,"name":"Mace","lat":3.61023,"lon":115.69993,"puntuation":1.3},
{"id":775,"name":"Adelle","lat":48.10791,"lon":129.245343,"puntuation":1.0},
{"id":776,"name":"Diarmid","lat":-6.3045618,"lon":107.346448,"puntuation":2.4},
{"id":777,"name":"Demetra","lat":38.42,"lon":-82.47,"puntuation":1.8},
{"id":778,"name":"Ross","lat":-31.7306526,"lon":-65.0008956,"puntuation":1.4},
{"id":779,"name":"Seline","lat":23.027474,"lon":113.082487,"puntuation":3.0},
{"id":780,"name":"Lucita","lat":6.0455336,"lon":120.9985973,"puntuation":3.5},
{"id":781,"name":"Lew","lat":31.7238883,"lon":119.9481515,"puntuation":3.2},
{"id":782,"name":"Indira","lat":46.0771644,"lon":32.5299379,"puntuation":1.5},
{"id":783,"name":"Jerrilyn","lat":14.7909118,"lon":42.9708838,"puntuation":1.5},
{"id":784,"name":"Allegra","lat":32.04141,"lon":119.595828,"puntuation":3.5},
{"id":785,"name":"Dannie","lat":14.7569624,"lon":121.0774147,"puntuation":2.1},
{"id":786,"name":"Myrle","lat":56.1629286,"lon":13.8037716,"puntuation":2.3},
{"id":787,"name":"Felix","lat":53.5723256,"lon":17.8871923,"puntuation":2.0},
{"id":788,"name":"Guenna","lat":13.3846598,"lon":-88.5045477,"puntuation":3.6},
{"id":789,"name":"Sayre","lat":37.943121,"lon":115.217658,"puntuation":2.9},
{"id":790,"name":"Corella","lat":29.987954,"lon":112.115401,"puntuation":2.9},
{"id":791,"name":"Flossy","lat":36.4320046,"lon":127.3809362,"puntuation":3.1},
{"id":792,"name":"Rosene","lat":9.955498,"lon":-84.078434,"puntuation":1.1},
{"id":793,"name":"Bond","lat":60.1512028,"lon":15.1735854,"puntuation":4.1},
{"id":794,"name":"Alonzo","lat":1.5484759,"lon":103.7983752,"puntuation":1.0},
{"id":795,"name":"Dennison","lat":-1.2276385,"lon":116.8123832,"puntuation":2.8},
{"id":796,"name":"Gillan","lat":40.8253148,"lon":-8.4661017,"puntuation":3.0},
{"id":797,"name":"Xenia","lat":11.0616941,"lon":125.0161819,"puntuation":3.7},
{"id":798,"name":"Marjory","lat":-6.9854642,"lon":108.5730321,"puntuation":2.8},
{"id":799,"name":"Yoshiko","lat":37.520481,"lon":115.251124,"puntuation":4.1},
{"id":800,"name":"Betteanne","lat":60.3560649,"lon":5.3446343,"puntuation":2.0},
{"id":801,"name":"Jyoti","lat":18.6500708,"lon":-74.3066879,"puntuation":1.4},
{"id":802,"name":"Raf","lat":48.3226457,"lon":31.5187617,"puntuation":4.1},
{"id":803,"name":"Seymour","lat":51.0144934,"lon":13.6972162,"puntuation":2.5},
{"id":804,"name":"Garrek","lat":42.1400691,"lon":25.5719576,"puntuation":2.9},
{"id":805,"name":"Monika","lat":11.1051054,"lon":122.642712,"puntuation":3.7},
{"id":806,"name":"Stephana","lat":-7.1923781,"lon":110.6396456,"puntuation":3.9},
{"id":807,"name":"Marina","lat":13.9047039,"lon":-61.0667869,"puntuation":1.7},
{"id":808,"name":"Billy","lat":36.929749,"lon":98.480195,"puntuation":1.1},
{"id":809,"name":"Adah","lat":46.186211,"lon":5.916694,"puntuation":2.6},
{"id":810,"name":"Eddy","lat":56.3229585,"lon":39.3205815,"puntuation":3.3},
{"id":811,"name":"Thomas","lat":-26.1011687,"lon":28.0645967,"puntuation":4.1},
{"id":812,"name":"Germaine","lat":0.6166667,"lon":104.0833333,"puntuation":3.0},
{"id":813,"name":"Ellwood","lat":4.9640933,"lon":36.4878241,"puntuation":2.1},
{"id":814,"name":"Giselle","lat":50.3201495,"lon":119.1052507,"puntuation":4.3},
{"id":815,"name":"Hagen","lat":10.5104642,"lon":7.4165053,"puntuation":3.5},
{"id":816,"name":"Onfroi","lat":48.890054,"lon":2.2372792,"puntuation":3.4},
{"id":817,"name":"Robby","lat":45.5734042,"lon":-73.7316825,"puntuation":3.0},
{"id":818,"name":"Tildie","lat":4.9623026,"lon":97.7525352,"puntuation":2.8},
{"id":819,"name":"Erie","lat":55.6833424,"lon":12.5616448,"puntuation":3.0},
{"id":820,"name":"Linda","lat":60.1575299,"lon":29.8465101,"puntuation":2.5},
{"id":821,"name":"Wilbur","lat":-7.5849174,"lon":111.8784707,"puntuation":4.9},
{"id":822,"name":"Woodrow","lat":-3.7580937,"lon":102.7942473,"puntuation":3.4},
{"id":823,"name":"Cybill","lat":22.826877,"lon":107.840624,"puntuation":4.4},
{"id":824,"name":"Martelle","lat":-21.6704167,"lon":-42.0792577,"puntuation":2.4},
{"id":825,"name":"Langsdon","lat":-8.793392,"lon":121.9330894,"puntuation":2.6},
{"id":826,"name":"Myca","lat":-7.3537968,"lon":36.7361539,"puntuation":4.9},
{"id":827,"name":"Elizabeth","lat":31.528572,"lon":114.367092,"puntuation":4.6},
{"id":828,"name":"Crosby","lat":48.5986674,"lon":37.9980367,"puntuation":3.1},
{"id":829,"name":"Roxanna","lat":39.959953,"lon":116.298326,"puntuation":1.7},
{"id":830,"name":"Bernhard","lat":48.8312275,"lon":16.0250895,"puntuation":1.3},
{"id":831,"name":"Diena","lat":8.490877,"lon":124.345771,"puntuation":4.3},
{"id":832,"name":"Martie","lat":50.5803842,"lon":30.0105737,"puntuation":4.1},
{"id":833,"name":"Katharine","lat":45.8697083,"lon":43.3478599,"puntuation":3.6},
{"id":834,"name":"Romeo","lat":51.5574609,"lon":20.8640191,"puntuation":2.2},
{"id":835,"name":"Lothaire","lat":-34.5656691,"lon":-58.7176959,"puntuation":1.3},
{"id":836,"name":"Nobie","lat":56.0265492,"lon":12.8055694,"puntuation":3.7},
{"id":837,"name":"Orsola","lat":-8.4589273,"lon":118.5155901,"puntuation":1.2},
{"id":838,"name":"Harland","lat":-18.5926206,"lon":-46.5203453,"puntuation":3.5},
{"id":839,"name":"Christal","lat":-10.2507168,"lon":123.5112035,"puntuation":2.1},
{"id":840,"name":"Jo","lat":38.7226348,"lon":-9.0038291,"puntuation":4.0},
{"id":841,"name":"Gradey","lat":37.6703123,"lon":140.6062909,"puntuation":2.4},
{"id":842,"name":"Pammi","lat":-21.2484875,"lon":-45.0013747,"puntuation":3.0},
{"id":843,"name":"Nichols","lat":22.928305,"lon":113.207187,"puntuation":4.2},
{"id":844,"name":"Robin","lat":-8.3965,"lon":123.0856,"puntuation":4.7},
{"id":845,"name":"Violetta","lat":9.9256779,"lon":13.9434035,"puntuation":1.6},
{"id":846,"name":"Nedda","lat":26.641315,"lon":100.222545,"puntuation":4.5},
{"id":847,"name":"Benji","lat":54.8940073,"lon":65.0894647,"puntuation":4.5},
{"id":848,"name":"Nels","lat":25.867277,"lon":118.963532,"puntuation":1.4},
{"id":849,"name":"Eunice","lat":31.463475,"lon":120.649341,"puntuation":2.7},
{"id":850,"name":"Beverley","lat":-22.30275,"lon":-48.5755491,"puntuation":2.6},
{"id":851,"name":"Shea","lat":-20.9868314,"lon":-42.0979633,"puntuation":2.4},
{"id":852,"name":"Lars","lat":-2.5123017,"lon":28.8480284,"puntuation":4.8},
{"id":853,"name":"Shayne","lat":41.989901,"lon":21.0770114,"puntuation":3.7},
{"id":854,"name":"Auroora","lat":6.6693528,"lon":9.1622211,"puntuation":1.2},
{"id":855,"name":"Evangeline","lat":38.6407826,"lon":-9.0955246,"puntuation":1.1},
{"id":856,"name":"Brynne","lat":35.1799817,"lon":128.1076213,"puntuation":4.8},
{"id":857,"name":"Rand","lat":40.561598,"lon":22.1857013,"puntuation":2.0},
{"id":858,"name":"Oona","lat":14.6843598,"lon":121.0928711,"puntuation":4.2},
{"id":859,"name":"Donny","lat":2.9614905,"lon":98.2705298,"puntuation":3.4},
{"id":860,"name":"Thibaud","lat":-34.7121944,"lon":-58.6285183,"puntuation":3.5},
{"id":861,"name":"Modesty","lat":28.3683182,"lon":83.2934086,"puntuation":2.7},
{"id":862,"name":"Helyn","lat":40.7143433,"lon":-8.0108755,"puntuation":1.2},
{"id":863,"name":"Maris","lat":41.3432066,"lon":-8.5660453,"puntuation":1.5},
{"id":864,"name":"Corny","lat":-6.0802849,"lon":106.3110622,"puntuation":3.3},
{"id":865,"name":"Tabbi","lat":38.263746,"lon":114.644894,"puntuation":2.3},
{"id":866,"name":"Edward","lat":-5.7577862,"lon":105.6984455,"puntuation":1.2},
{"id":867,"name":"Prue","lat":50.994689,"lon":-0.964804,"puntuation":3.4},
{"id":868,"name":"Rudyard","lat":39.7537438,"lon":46.7464755,"puntuation":1.4},
{"id":869,"name":"Viviene","lat":49.7979502,"lon":21.0782963,"puntuation":1.8},
{"id":870,"name":"Ahmad","lat":22.5397224,"lon":114.1114725,"puntuation":2.5},
{"id":871,"name":"Livvyy","lat":-16.4359692,"lon":-71.6050339,"puntuation":3.3},
{"id":872,"name":"Zaria","lat":29.079175,"lon":119.64742,"puntuation":2.0},
{"id":873,"name":"Ashly","lat":-4.3805365,"lon":103.2894368,"puntuation":2.6},
{"id":874,"name":"Robbin","lat":40.1643574,"lon":21.8202873,"puntuation":4.1},
{"id":875,"name":"Jere","lat":-7.2953035,"lon":107.0716609,"puntuation":4.5},
{"id":876,"name":"Lea","lat":7.2149367,"lon":124.2404727,"puntuation":2.6},
{"id":877,"name":"August","lat":-16.0922549,"lon":-72.4701945,"puntuation":1.6},
{"id":878,"name":"Cary","lat":14.7008738,"lon":120.9869405,"puntuation":2.3},
{"id":879,"name":"Garwood","lat":49.9819149,"lon":18.3472649,"puntuation":2.9},
{"id":880,"name":"Roxanna","lat":40.137963,"lon":-7.5010773,"puntuation":2.7},
{"id":881,"name":"Aimee","lat":40.6815206,"lon":14.7703255,"puntuation":2.6},
{"id":882,"name":"Justen","lat":52.6806269,"lon":20.6620485,"puntuation":1.5},
{"id":883,"name":"Robinette","lat":10.8051872,"lon":122.9796906,"puntuation":3.6},
{"id":884,"name":"Sayre","lat":6.8117856,"lon":101.1843887,"puntuation":1.2},
{"id":885,"name":"Web","lat":27.937146,"lon":116.298866,"puntuation":3.2},
{"id":886,"name":"Orran","lat":-7.3348063,"lon":110.5102808,"puntuation":1.7},
{"id":887,"name":"Hendrick","lat":27.9943858,"lon":-82.459481,"puntuation":3.5},
{"id":888,"name":"Winnah","lat":5.2287989,"lon":6.1911526,"puntuation":4.1},
{"id":889,"name":"Latia","lat":44.4133103,"lon":8.9314338,"puntuation":1.9},
{"id":890,"name":"Ahmed","lat":-7.193833,"lon":-78.426165,"puntuation":2.9},
{"id":891,"name":"Aurora","lat":27.522069,"lon":116.336069,"puntuation":4.4},
{"id":892,"name":"Gage","lat":37.955893,"lon":23.7020975,"puntuation":1.2},
{"id":893,"name":"Atlante","lat":22.141482,"lon":113.83012,"puntuation":1.4},
{"id":894,"name":"Aldwin","lat":47.8075,"lon":40.107778,"puntuation":2.1},
{"id":895,"name":"Elinor","lat":32.283121,"lon":35.385789,"puntuation":3.7},
{"id":896,"name":"Elsey","lat":50.3422678,"lon":13.9673223,"puntuation":4.6},
{"id":897,"name":"Averil","lat":29.861346,"lon":121.448134,"puntuation":4.9},
{"id":898,"name":"Enoch","lat":0.3642599,"lon":108.954903,"puntuation":1.9},
{"id":899,"name":"Corbet","lat":40.8207633,"lon":24.2429692,"puntuation":3.8},
{"id":900,"name":"Salome","lat":15.2110438,"lon":51.2500919,"puntuation":3.8},
{"id":901,"name":"Fania","lat":15.8785099,"lon":120.3186429,"puntuation":3.2},
{"id":902,"name":"Sonny","lat":65.4026,"lon":21.1886684,"puntuation":2.9},
{"id":903,"name":"Selinda","lat":10.0679356,"lon":105.9464874,"puntuation":4.7},
{"id":904,"name":"Robinet","lat":64.8157528,"lon":25.433892,"puntuation":2.2},
{"id":905,"name":"Forest","lat":17.0633593,"lon":107.0155599,"puntuation":2.8},
{"id":906,"name":"Ruttger","lat":7.5273576,"lon":125.6239227,"puntuation":3.8},
{"id":907,"name":"Fred","lat":-7.811056,"lon":108.438797,"puntuation":4.4},
{"id":908,"name":"Elisabetta","lat":46.301744,"lon":4.797057,"puntuation":2.9},
{"id":909,"name":"Corina","lat":-10.7072554,"lon":22.22946,"puntuation":2.5},
{"id":910,"name":"Quentin","lat":9.9137002,"lon":124.0939065,"puntuation":2.0},
{"id":911,"name":"Leonore","lat":38.9,"lon":-77.04,"puntuation":2.2},
{"id":912,"name":"Celene","lat":45.6103043,"lon":79.467517,"puntuation":3.2},
{"id":913,"name":"Cly","lat":-4.0438672,"lon":144.0711745,"puntuation":2.3},
{"id":914,"name":"Zora","lat":3.9967196,"lon":97.3416152,"puntuation":3.8},
{"id":915,"name":"Jamima","lat":24.385642,"lon":102.554313,"puntuation":2.1},
{"id":916,"name":"Dewain","lat":21.5471976,"lon":-99.6878432,"puntuation":3.5},
{"id":917,"name":"Amata","lat":19.4621825,"lon":-99.110685,"puntuation":3.8},
{"id":918,"name":"Roley","lat":52.130314,"lon":20.6599934,"puntuation":1.8},
{"id":919,"name":"Bertine","lat":39.9335533,"lon":116.3323366,"puntuation":3.0},
{"id":920,"name":"Carr","lat":43.0225426,"lon":41.1157847,"puntuation":2.7},
{"id":921,"name":"Devlen","lat":40.6998888,"lon":-73.8076421,"puntuation":3.6},
{"id":922,"name":"May","lat":1.160532,"lon":-76.6181655,"puntuation":1.8},
{"id":923,"name":"Elvyn","lat":12.1348457,"lon":15.0557415,"puntuation":3.5},
{"id":924,"name":"Stella","lat":10.1980682,"lon":105.9464874,"puntuation":1.4},
{"id":925,"name":"Clare","lat":53.9165867,"lon":18.1905615,"puntuation":2.9},
{"id":926,"name":"Annamaria","lat":50.4305778,"lon":18.1872242,"puntuation":2.6},
{"id":927,"name":"Anjanette","lat":9.3711,"lon":122.8405,"puntuation":3.6},
{"id":928,"name":"Gothart","lat":36.3197441,"lon":139.7523465,"puntuation":3.5},
{"id":929,"name":"Roderick","lat":50.409026,"lon":19.932785,"puntuation":1.5},
{"id":930,"name":"Roscoe","lat":-24.5002295,"lon":-47.8448116,"puntuation":2.1},
{"id":931,"name":"Elenore","lat":5.032145,"lon":-74.884455,"puntuation":3.7},
{"id":932,"name":"Fair","lat":31.2385954,"lon":31.4656904,"puntuation":3.5},
{"id":933,"name":"Blakeley","lat":-6.916443,"lon":39.2246882,"puntuation":4.7},
{"id":934,"name":"Jarid","lat":7.2188798,"lon":2.3394209,"puntuation":1.2},
{"id":935,"name":"Janeva","lat":49.9112092,"lon":16.7105196,"puntuation":4.6},
{"id":936,"name":"Perrine","lat":15.9584937,"lon":120.2781338,"puntuation":2.2},
{"id":937,"name":"Chuck","lat":14.7559236,"lon":121.0832459,"puntuation":4.3},
{"id":938,"name":"Stephana","lat":49.094671,"lon":121.0466839,"puntuation":4.8},
{"id":939,"name":"Tabor","lat":51.11327,"lon":18.21114,"puntuation":1.1},
{"id":940,"name":"Cristabel","lat":31.983055,"lon":120.183979,"puntuation":2.9},
{"id":941,"name":"Erica","lat":16.9075213,"lon":96.5623251,"puntuation":3.9},
{"id":942,"name":"Innis","lat":-31.3927967,"lon":-64.2545133,"puntuation":3.9},
{"id":943,"name":"Travers","lat":-32.9395437,"lon":-60.6949244,"puntuation":2.2},
{"id":944,"name":"Ruthy","lat":49.2626871,"lon":30.830724,"puntuation":1.7},
{"id":945,"name":"Candace","lat":35.7917297,"lon":127.4248356,"puntuation":4.4},
{"id":946,"name":"Desirae","lat":32.625478,"lon":116.999932,"puntuation":4.7},
{"id":947,"name":"Rodney","lat":23.573074,"lon":89.8258165,"puntuation":2.2},
{"id":948,"name":"Deerdre","lat":57.5129829,"lon":24.721996,"puntuation":1.3},
{"id":949,"name":"Brenda","lat":19.233277,"lon":109.412626,"puntuation":4.8},
{"id":950,"name":"Yalonda","lat":33.8629813,"lon":65.7609502,"puntuation":3.6},
{"id":951,"name":"Bendite","lat":41.634449,"lon":22.4665446,"puntuation":3.6},
{"id":952,"name":"Ladonna","lat":7.92772,"lon":38.7211079,"puntuation":4.2},
{"id":953,"name":"Susi","lat":5.003233,"lon":-76.003424,"puntuation":2.7},
{"id":954,"name":"Gilligan","lat":45.597839,"lon":126.637515,"puntuation":4.5},
{"id":955,"name":"Alric","lat":41.0490009,"lon":39.513623,"puntuation":3.4},
{"id":956,"name":"Robenia","lat":55.7264965,"lon":13.3385773,"puntuation":4.9},
{"id":957,"name":"Jenni","lat":7.4201981,"lon":125.8214811,"puntuation":3.2},
{"id":958,"name":"Riva","lat":-25.3810275,"lon":-57.1577041,"puntuation":2.3},
{"id":959,"name":"Missy","lat":22.239478,"lon":111.549105,"puntuation":1.8},
{"id":960,"name":"Fletch","lat":35.6495457,"lon":63.9113296,"puntuation":1.3},
{"id":961,"name":"Lelia","lat":59.9135958,"lon":10.7792426,"puntuation":3.4},
{"id":962,"name":"Joanne","lat":-8.301579,"lon":123.0648331,"puntuation":2.3},
{"id":963,"name":"Monro","lat":39.638035,"lon":113.737801,"puntuation":2.5},
{"id":964,"name":"Carmine","lat":16.7742464,"lon":121.0882915,"puntuation":2.8},
{"id":965,"name":"Itch","lat":-34.8512671,"lon":-58.6754654,"puntuation":2.6},
{"id":966,"name":"Marie","lat":-12.1140973,"lon":-77.0445279,"puntuation":1.9},
{"id":967,"name":"Marquita","lat":35.3740182,"lon":36.6012942,"puntuation":2.9},
{"id":968,"name":"Pacorro","lat":38.6926647,"lon":-9.3466983,"puntuation":2.7},
{"id":969,"name":"Keely","lat":40.5042923,"lon":21.1592873,"puntuation":2.9},
{"id":970,"name":"Marybeth","lat":3.698492,"lon":-73.697308,"puntuation":2.0},
{"id":971,"name":"Auroora","lat":1.0087005,"lon":100.2656209,"puntuation":5.0},
{"id":972,"name":"Laure","lat":-18.4943258,"lon":-40.4657826,"puntuation":4.6},
{"id":973,"name":"Nettie","lat":8.972681,"lon":125.408732,"puntuation":4.6},
{"id":974,"name":"Shea","lat":48.8162706,"lon":28.9461989,"puntuation":1.6},
{"id":975,"name":"Pietro","lat":-11.2568167,"lon":-39.0710754,"puntuation":2.5},
{"id":976,"name":"Natassia","lat":-6.1583904,"lon":106.4288088,"puntuation":2.1},
{"id":977,"name":"Israel","lat":1.424768,"lon":103.6487041,"puntuation":2.7},
{"id":978,"name":"Margo","lat":16.2725431,"lon":107.9394761,"puntuation":2.6},
{"id":979,"name":"Nettie","lat":6.6644629,"lon":2.1597595,"puntuation":4.7},
{"id":980,"name":"Conrado","lat":29.549889,"lon":114.833005,"puntuation":3.7},
{"id":981,"name":"Taryn","lat":-23.5390859,"lon":-46.3116591,"puntuation":3.0},
{"id":982,"name":"Allys","lat":13.8018124,"lon":8.98527,"puntuation":4.9},
{"id":983,"name":"Brandy","lat":52.415113,"lon":13.1468678,"puntuation":4.1},
{"id":984,"name":"Wilmar","lat":40.1068238,"lon":44.4322092,"puntuation":5.0},
{"id":985,"name":"Marthe","lat":64.7633191,"lon":21.0631481,"puntuation":4.0},
{"id":986,"name":"Jelene","lat":42.7123148,"lon":25.3328975,"puntuation":2.3},
{"id":987,"name":"Sianna","lat":7.8400507,"lon":122.4823401,"puntuation":1.7},
{"id":988,"name":"Jemimah","lat":38.173303,"lon":77.215838,"puntuation":3.2},
{"id":989,"name":"Dolf","lat":27.9805586,"lon":94.6884956,"puntuation":4.1},
{"id":990,"name":"Bea","lat":51.7920503,"lon":56.3442985,"puntuation":4.0},
{"id":991,"name":"Elroy","lat":-6.7267,"lon":105.6259,"puntuation":4.6},
{"id":992,"name":"Evelin","lat":17.4605379,"lon":101.7523854,"puntuation":2.7},
{"id":993,"name":"Luther","lat":33.626149,"lon":114.69695,"puntuation":3.9},
{"id":994,"name":"Karina","lat":44.2643449,"lon":43.6369585,"puntuation":1.0},
{"id":995,"name":"Ailina","lat":59.3593609,"lon":17.9863038,"puntuation":4.8},
{"id":996,"name":"Marita","lat":36.886546,"lon":121.456161,"puntuation":4.3},
{"id":997,"name":"Darrelle","lat":-7.2630131,"lon":112.7211714,"puntuation":1.5},
{"id":998,"name":"Pail","lat":7.780305,"lon":125.011558,"puntuation":2.8},
{"id":999,"name":"Charmine","lat":53.495408,"lon":-112.0538628,"puntuation":4.1},
{"id":1000,"name":"Conney","lat":-36.6396492,"lon":-64.3080703,"puntuation":2.9}]