[{"id":1,"name":"Bartholomeus","lat":46.3636288,"lon":32.9355243,"puntuation":3.6,"address":"87632 Mallard Junction","date":"11/23/2023","time":"7:34 PM","tarifa_moto":4341,"tarifa_carro":6419},
{"id":2,"name":"Jarrad","lat":62.389549,"lon":17.313773,"puntuation":2.1,"address":"4 Utah Lane","date":"6/13/2023","time":"12:37 PM","tarifa_moto":8215,"tarifa_carro":9272},
{"id":3,"name":"Mella","lat":31.026665,"lon":119.910952,"puntuation":2.0,"address":"177 Talisman Point","date":"8/16/2023","time":"4:36 AM","tarifa_moto":5386,"tarifa_carro":9380},
{"id":4,"name":"Debbi","lat":14.0804623,"lon":-90.3793599,"puntuation":4.2,"address":"5236 Anniversary Court","date":"6/21/2023","time":"2:06 PM","tarifa_moto":9719,"tarifa_carro":6485},
{"id":5,"name":"Saloma","lat":39.728801,"lon":115.751364,"puntuation":3.5,"address":"8995 Pepper Wood Trail","date":"10/20/2023","time":"10:49 PM","tarifa_moto":8626,"tarifa_carro":7298},
{"id":6,"name":"Bab","lat":22.4423218,"lon":114.1655064,"puntuation":3.5,"address":"52 Victoria Trail","date":"3/1/2024","time":"7:38 AM","tarifa_moto":9810,"tarifa_carro":6852},
{"id":7,"name":"Malinda","lat":48.9779483,"lon":2.2646872,"puntuation":3.6,"address":"9 Ronald Regan Hill","date":"2/16/2024","time":"8:10 PM","tarifa_moto":8551,"tarifa_carro":9222},
{"id":8,"name":"Catina","lat":34.8844689,"lon":32.367428,"puntuation":1.6,"address":"88 Hayes Alley","date":"3/17/2024","time":"10:18 PM","tarifa_moto":6724,"tarifa_carro":6589},
{"id":9,"name":"Valera","lat":-6.9244162,"lon":112.4142453,"puntuation":2.3,"address":"371 Express Terrace","date":"5/8/2023","time":"11:48 AM","tarifa_moto":8440,"tarifa_carro":7773},
{"id":10,"name":"Janelle","lat":34.639007,"lon":104.450091,"puntuation":3.0,"address":"494 Tomscot Junction","date":"9/28/2023","time":"4:42 AM","tarifa_moto":9927,"tarifa_carro":7720},
{"id":11,"name":"Simeon","lat":31.3400146,"lon":118.9478423,"puntuation":1.3,"address":"0 South Trail","date":"8/15/2023","time":"7:04 PM","tarifa_moto":6750,"tarifa_carro":8863},
{"id":12,"name":"Noel","lat":-8.3434104,"lon":118.9819731,"puntuation":2.9,"address":"1 Ridgeview Circle","date":"2/21/2024","time":"10:06 PM","tarifa_moto":9734,"tarifa_carro":7833},
{"id":13,"name":"Guglielma","lat":45.6728599,"lon":18.984314,"puntuation":3.2,"address":"36217 Fair Oaks Trail","date":"1/19/2024","time":"10:27 PM","tarifa_moto":9168,"tarifa_carro":6826},
{"id":14,"name":"Deonne","lat":-10.249091,"lon":-48.3242858,"puntuation":2.6,"address":"4 Banding Circle","date":"12/27/2023","time":"6:03 PM","tarifa_moto":5819,"tarifa_carro":7631},
{"id":15,"name":"Darill","lat":-9.7702219,"lon":124.5140637,"puntuation":2.3,"address":"5692 Miller Lane","date":"6/14/2023","time":"8:41 AM","tarifa_moto":8348,"tarifa_carro":6486},
{"id":16,"name":"Lenette","lat":55.0099537,"lon":39.0764494,"puntuation":1.7,"address":"195 Summerview Pass","date":"9/10/2023","time":"11:00 AM","tarifa_moto":9147,"tarifa_carro":7210},
{"id":17,"name":"Lanie","lat":46.5980836,"lon":15.1657237,"puntuation":3.7,"address":"887 Cody Junction","date":"12/22/2023","time":"3:35 AM","tarifa_moto":5586,"tarifa_carro":8835},
{"id":18,"name":"Alena","lat":34.7603737,"lon":127.6622221,"puntuation":3.7,"address":"0 Hermina Lane","date":"4/27/2023","time":"9:40 PM","tarifa_moto":5188,"tarifa_carro":8095},
{"id":19,"name":"Veronica","lat":9.2534438,"lon":-70.2497616,"puntuation":2.7,"address":"169 Grover Place","date":"2/27/2024","time":"7:57 PM","tarifa_moto":8514,"tarifa_carro":9412},
{"id":20,"name":"Lorne","lat":-8.6508134,"lon":118.7023068,"puntuation":3.2,"address":"7 Arizona Center","date":"8/18/2023","time":"8:50 AM","tarifa_moto":6092,"tarifa_carro":7999},
{"id":21,"name":"Kennett","lat":41.0787184,"lon":-7.435408,"puntuation":2.7,"address":"8489 Thompson Road","date":"12/6/2023","time":"3:43 PM","tarifa_moto":4183,"tarifa_carro":8479},
{"id":22,"name":"Marianna","lat":45.1159196,"lon":37.4153937,"puntuation":3.9,"address":"403 Kingsford Road","date":"3/22/2023","time":"2:04 PM","tarifa_moto":7664,"tarifa_carro":7704},
{"id":23,"name":"Cleo","lat":23.084122,"lon":114.382541,"puntuation":4.1,"address":"79 Bay Alley","date":"10/3/2023","time":"12:22 AM","tarifa_moto":8782,"tarifa_carro":6204},
{"id":24,"name":"Tedmund","lat":51.6710832,"lon":19.8078532,"puntuation":4.8,"address":"4 Prentice Trail","date":"8/17/2023","time":"10:03 AM","tarifa_moto":7140,"tarifa_carro":6152},
{"id":25,"name":"Michaella","lat":-6.8595223,"lon":111.4886997,"puntuation":4.5,"address":"649 Esker Junction","date":"7/15/2023","time":"5:23 AM","tarifa_moto":8389,"tarifa_carro":9008},
{"id":26,"name":"Rowen","lat":17.9179214,"lon":-76.579165,"puntuation":4.6,"address":"281 Roth Road","date":"9/13/2023","time":"7:34 PM","tarifa_moto":6466,"tarifa_carro":8017},
{"id":27,"name":"Yankee","lat":-8.4691756,"lon":116.4134873,"puntuation":2.7,"address":"9 Tennyson Court","date":"10/29/2023","time":"7:55 PM","tarifa_moto":8408,"tarifa_carro":6674},
{"id":28,"name":"Margarethe","lat":45.7790993,"lon":4.9307738,"puntuation":4.1,"address":"7019 Cascade Parkway","date":"8/30/2023","time":"8:54 AM","tarifa_moto":8965,"tarifa_carro":7074},
{"id":29,"name":"Sorcha","lat":55.7133263,"lon":37.8049211,"puntuation":2.8,"address":"9 Lakewood Gardens Park","date":"12/4/2023","time":"6:31 AM","tarifa_moto":7348,"tarifa_carro":7295},
{"id":30,"name":"Jessee","lat":-28.2750463,"lon":26.1477598,"puntuation":1.4,"address":"286 Kennedy Plaza","date":"9/28/2023","time":"6:09 PM","tarifa_moto":7779,"tarifa_carro":6245},
{"id":31,"name":"Jocko","lat":-34.6833725,"lon":-58.429967,"puntuation":4.8,"address":"1884 Russell Road","date":"4/12/2023","time":"12:18 PM","tarifa_moto":8994,"tarifa_carro":6240},
{"id":32,"name":"Wallie","lat":14.41667,"lon":-91.16667,"puntuation":1.1,"address":"722 Utah Drive","date":"1/3/2024","time":"11:17 PM","tarifa_moto":5014,"tarifa_carro":7631},
{"id":33,"name":"Elfie","lat":-8.7224002,"lon":115.1746415,"puntuation":1.4,"address":"1 Columbus Pass","date":"2/1/2024","time":"6:20 AM","tarifa_moto":7884,"tarifa_carro":8981},
{"id":34,"name":"Chris","lat":37.198731,"lon":106.1580937,"puntuation":3.0,"address":"15 7th Alley","date":"12/25/2023","time":"3:39 PM","tarifa_moto":5939,"tarifa_carro":9445},
{"id":35,"name":"Neddy","lat":-9.8596373,"lon":124.2754988,"puntuation":3.6,"address":"0329 Dunning Trail","date":"2/25/2024","time":"8:58 AM","tarifa_moto":9924,"tarifa_carro":9579},
{"id":36,"name":"Marianna","lat":23.1456682,"lon":113.253787,"puntuation":3.2,"address":"2831 Lillian Lane","date":"1/6/2024","time":"1:20 PM","tarifa_moto":7797,"tarifa_carro":8127},
{"id":37,"name":"Ransell","lat":-8.3162857,"lon":124.3654402,"puntuation":3.7,"address":"8375 Sycamore Hill","date":"5/23/2023","time":"11:39 AM","tarifa_moto":7417,"tarifa_carro":9231},
{"id":38,"name":"Lev","lat":41.3269373,"lon":-8.570312,"puntuation":1.0,"address":"92798 Merry Park","date":"9/6/2023","time":"3:49 PM","tarifa_moto":6446,"tarifa_carro":7401},
{"id":39,"name":"Griffy","lat":40.4489303,"lon":-8.6745086,"puntuation":1.3,"address":"91 Toban Terrace","date":"5/10/2023","time":"9:10 PM","tarifa_moto":5171,"tarifa_carro":6182},
{"id":40,"name":"Beitris","lat":3.9201154,"lon":96.7065914,"puntuation":4.3,"address":"9718 Blue Bill Park Street","date":"10/23/2023","time":"10:28 AM","tarifa_moto":7823,"tarifa_carro":6683},
{"id":41,"name":"Chlo","lat":39.822507,"lon":109.963338,"puntuation":2.7,"address":"20235 Jenifer Pass","date":"9/11/2023","time":"5:00 PM","tarifa_moto":7171,"tarifa_carro":6503},
{"id":42,"name":"Lyon","lat":22.3121914,"lon":90.7218441,"puntuation":3.2,"address":"42646 Bayside Junction","date":"12/22/2023","time":"2:05 AM","tarifa_moto":9737,"tarifa_carro":7528},
{"id":43,"name":"Dix","lat":29.229569,"lon":107.186194,"puntuation":2.9,"address":"0 Porter Way","date":"8/10/2023","time":"9:53 PM","tarifa_moto":5251,"tarifa_carro":9134},
{"id":44,"name":"Belia","lat":52.3119225,"lon":19.0849647,"puntuation":2.5,"address":"7210 Boyd Hill","date":"6/7/2023","time":"4:28 PM","tarifa_moto":5535,"tarifa_carro":9842},
{"id":45,"name":"Daryle","lat":57.7576914,"lon":12.0512149,"puntuation":1.6,"address":"29240 Park Meadow Point","date":"3/12/2024","time":"12:52 PM","tarifa_moto":5144,"tarifa_carro":9265},
{"id":46,"name":"Geordie","lat":30.630173,"lon":120.565098,"puntuation":1.5,"address":"86 Village Crossing","date":"9/27/2023","time":"12:58 AM","tarifa_moto":8389,"tarifa_carro":7185},
{"id":47,"name":"Iormina","lat":39.76624,"lon":44.8087498,"puntuation":1.0,"address":"183 Garrison Terrace","date":"11/10/2023","time":"2:12 AM","tarifa_moto":7398,"tarifa_carro":9181},
{"id":48,"name":"Devland","lat":3.5981582,"lon":98.6824005,"puntuation":1.7,"address":"0 Harper Center","date":"10/19/2023","time":"4:09 PM","tarifa_moto":5023,"tarifa_carro":6506},
{"id":49,"name":"Shannah","lat":52.958936,"lon":21.8130562,"puntuation":1.0,"address":"0 7th Hill","date":"6/11/2023","time":"9:08 PM","tarifa_moto":4022,"tarifa_carro":6485},
{"id":50,"name":"Jacquenette","lat":30.638674,"lon":119.680353,"puntuation":1.7,"address":"3 Village Green Point","date":"5/26/2023","time":"12:21 AM","tarifa_moto":8770,"tarifa_carro":7559},
{"id":51,"name":"Deane","lat":40.1851386,"lon":44.0033056,"puntuation":3.9,"address":"67 Pawling Avenue","date":"4/12/2023","time":"4:58 AM","tarifa_moto":5279,"tarifa_carro":7790},
{"id":52,"name":"Cazzie","lat":14.722622,"lon":121.0427995,"puntuation":1.1,"address":"90559 Dawn Circle","date":"7/7/2023","time":"9:20 PM","tarifa_moto":4088,"tarifa_carro":8547},
{"id":53,"name":"Myrtia","lat":11.2561208,"lon":-73.6344979,"puntuation":4.8,"address":"33 Schurz Pass","date":"1/5/2024","time":"9:03 AM","tarifa_moto":7754,"tarifa_carro":9116},
{"id":54,"name":"Doyle","lat":-23.4543148,"lon":-46.5336521,"puntuation":4.0,"address":"65300 Oakridge Terrace","date":"11/14/2023","time":"2:56 AM","tarifa_moto":5669,"tarifa_carro":6831},
{"id":55,"name":"Lacie","lat":29.3594128,"lon":30.6816163,"puntuation":2.9,"address":"91968 Becker Avenue","date":"5/10/2023","time":"11:48 AM","tarifa_moto":8962,"tarifa_carro":8374},
{"id":56,"name":"Aryn","lat":39.76389,"lon":66.9125,"puntuation":4.5,"address":"0 Crest Line Junction","date":"5/18/2023","time":"6:58 AM","tarifa_moto":8705,"tarifa_carro":7890},
{"id":57,"name":"Udall","lat":59.3648079,"lon":13.4965215,"puntuation":1.3,"address":"45 Bayside Lane","date":"2/7/2024","time":"12:42 AM","tarifa_moto":7960,"tarifa_carro":7943},
{"id":58,"name":"Melva","lat":-20.0723762,"lon":57.5674318,"puntuation":1.5,"address":"23283 Westport Center","date":"7/12/2023","time":"1:57 AM","tarifa_moto":5225,"tarifa_carro":8613},
{"id":59,"name":"Kelcey","lat":-6.3810573,"lon":-35.1301043,"puntuation":3.4,"address":"4 Cherokee Court","date":"12/29/2023","time":"6:26 AM","tarifa_moto":4214,"tarifa_carro":8182},
{"id":60,"name":"Devan","lat":0.393611,"lon":34.305278,"puntuation":3.1,"address":"22 Swallow Lane","date":"1/5/2024","time":"9:11 PM","tarifa_moto":7598,"tarifa_carro":6256},
{"id":61,"name":"Peri","lat":-6.2960156,"lon":106.8783167,"puntuation":1.7,"address":"25906 Vidon Lane","date":"6/17/2023","time":"8:15 PM","tarifa_moto":5697,"tarifa_carro":9146},
{"id":62,"name":"Stephen","lat":45.0934491,"lon":-73.9764283,"puntuation":2.5,"address":"53145 Thackeray Street","date":"8/7/2023","time":"5:20 AM","tarifa_moto":5774,"tarifa_carro":8935},
{"id":63,"name":"Flore","lat":38.8099385,"lon":-104.7599648,"puntuation":4.9,"address":"18998 Clyde Gallagher Street","date":"1/17/2024","time":"10:32 PM","tarifa_moto":5882,"tarifa_carro":8238},
{"id":64,"name":"Harrison","lat":46.2993504,"lon":4.8265786,"puntuation":2.1,"address":"17 Loftsgordon Road","date":"5/24/2023","time":"8:56 AM","tarifa_moto":9872,"tarifa_carro":8037},
{"id":65,"name":"Drona","lat":-41.2219337,"lon":174.8714559,"puntuation":1.8,"address":"97731 Ridgeway Avenue","date":"10/22/2023","time":"6:19 AM","tarifa_moto":6044,"tarifa_carro":7206},
{"id":66,"name":"Rance","lat":49.494604,"lon":19.7094323,"puntuation":1.4,"address":"388 Arkansas Point","date":"3/15/2024","time":"1:43 PM","tarifa_moto":5137,"tarifa_carro":7849},
{"id":67,"name":"Juli","lat":3.856457,"lon":-68.2385339,"puntuation":1.8,"address":"88320 Old Gate Avenue","date":"9/12/2023","time":"1:21 AM","tarifa_moto":6481,"tarifa_carro":7969},
{"id":68,"name":"Natala","lat":37.4071955,"lon":-122.1210872,"puntuation":4.4,"address":"11941 Shopko Park","date":"6/14/2023","time":"2:44 AM","tarifa_moto":6443,"tarifa_carro":9107},
{"id":69,"name":"Kylila","lat":38.918056,"lon":117.448512,"puntuation":1.9,"address":"0699 Hudson Lane","date":"12/25/2023","time":"7:18 PM","tarifa_moto":5228,"tarifa_carro":9286},
{"id":70,"name":"Niels","lat":22.8275824,"lon":90.5247893,"puntuation":2.0,"address":"4 Evergreen Way","date":"1/15/2024","time":"10:12 PM","tarifa_moto":5372,"tarifa_carro":6225},
{"id":71,"name":"Shanda","lat":-20.9969938,"lon":-63.3933089,"puntuation":1.3,"address":"3462 Meadow Valley Lane","date":"9/21/2023","time":"10:49 PM","tarifa_moto":6825,"tarifa_carro":6874},
{"id":72,"name":"Tova","lat":7.2772133,"lon":124.4239533,"puntuation":2.3,"address":"6 Kim Place","date":"6/23/2023","time":"12:57 PM","tarifa_moto":4613,"tarifa_carro":8834},
{"id":73,"name":"Dionis","lat":32.596752,"lon":95.308054,"puntuation":3.2,"address":"472 Grim Park","date":"5/25/2023","time":"2:44 AM","tarifa_moto":5424,"tarifa_carro":7095},
{"id":74,"name":"Algernon","lat":41.7195748,"lon":21.7669761,"puntuation":4.9,"address":"42813 Maple Wood Lane","date":"6/1/2023","time":"5:46 AM","tarifa_moto":5678,"tarifa_carro":6657},
{"id":75,"name":"Bernetta","lat":41.6579624,"lon":-8.5873037,"puntuation":2.6,"address":"6948 Spohn Plaza","date":"5/20/2023","time":"10:11 PM","tarifa_moto":4974,"tarifa_carro":8595},
{"id":76,"name":"Roy","lat":23.213961,"lon":115.203506,"puntuation":1.3,"address":"85830 Dapin Street","date":"1/5/2024","time":"10:00 AM","tarifa_moto":9731,"tarifa_carro":7447},
{"id":77,"name":"Sol","lat":47.278918,"lon":6.07097,"puntuation":4.9,"address":"57612 Kim Road","date":"11/16/2023","time":"5:04 AM","tarifa_moto":5360,"tarifa_carro":9246},
{"id":78,"name":"Lincoln","lat":26.497669,"lon":104.980581,"puntuation":3.9,"address":"219 Buell Trail","date":"8/12/2023","time":"5:18 AM","tarifa_moto":6949,"tarifa_carro":7194},
{"id":79,"name":"Christi","lat":-8.1553145,"lon":111.8270486,"puntuation":1.2,"address":"814 Longview Junction","date":"3/16/2024","time":"11:38 PM","tarifa_moto":6715,"tarifa_carro":6795},
{"id":80,"name":"Cristine","lat":-6.1306709,"lon":23.5966577,"puntuation":4.7,"address":"1 Coleman Plaza","date":"9/11/2023","time":"9:55 AM","tarifa_moto":4558,"tarifa_carro":6018},
{"id":81,"name":"Nicholle","lat":59.2074685,"lon":9.6105211,"puntuation":3.1,"address":"09680 Jenna Center","date":"1/13/2024","time":"2:07 AM","tarifa_moto":4302,"tarifa_carro":7538},
{"id":82,"name":"Freeland","lat":45.4699386,"lon":4.5014237,"puntuation":4.0,"address":"668 Cherokee Alley","date":"5/31/2023","time":"11:39 PM","tarifa_moto":6539,"tarifa_carro":9834},
{"id":83,"name":"Skipton","lat":-34.6473284,"lon":-58.4184031,"puntuation":2.9,"address":"89 Northland Center","date":"4/21/2023","time":"6:04 AM","tarifa_moto":4924,"tarifa_carro":6686},
{"id":84,"name":"Stacy","lat":59.523415,"lon":13.4385018,"puntuation":1.4,"address":"20 Rigney Junction","date":"2/21/2024","time":"1:19 PM","tarifa_moto":7838,"tarifa_carro":8782},
{"id":85,"name":"Robert","lat":54.8098373,"lon":36.3116274,"puntuation":4.3,"address":"64 Karstens Road","date":"4/10/2023","time":"2:45 AM","tarifa_moto":9557,"tarifa_carro":6356},
{"id":86,"name":"Octavius","lat":55.9437901,"lon":37.315783,"puntuation":1.4,"address":"56304 5th Drive","date":"5/19/2023","time":"12:36 PM","tarifa_moto":7533,"tarifa_carro":7998},
{"id":87,"name":"Ericka","lat":50.58999,"lon":20.057961,"puntuation":1.9,"address":"93430 Rigney Lane","date":"10/29/2023","time":"3:32 AM","tarifa_moto":5713,"tarifa_carro":9562},
{"id":88,"name":"Peta","lat":43.0429124,"lon":1.9038837,"puntuation":2.8,"address":"0 Center Pass","date":"4/3/2023","time":"6:53 PM","tarifa_moto":9461,"tarifa_carro":7282},
{"id":89,"name":"Emmery","lat":-6.3019,"lon":106.0776,"puntuation":2.6,"address":"157 Manufacturers Court","date":"2/14/2024","time":"1:24 PM","tarifa_moto":9522,"tarifa_carro":8092},
{"id":90,"name":"Keri","lat":33.06777,"lon":107.031856,"puntuation":2.1,"address":"0299 Ludington Street","date":"9/27/2023","time":"11:53 PM","tarifa_moto":9202,"tarifa_carro":8858},
{"id":91,"name":"Rocky","lat":-7.2634241,"lon":109.399141,"puntuation":2.1,"address":"04005 Hintze Pass","date":"11/16/2023","time":"4:39 PM","tarifa_moto":4386,"tarifa_carro":6981},
{"id":92,"name":"Eileen","lat":49.9592267,"lon":20.6436082,"puntuation":3.6,"address":"179 Prairieview Street","date":"7/16/2023","time":"3:54 AM","tarifa_moto":5446,"tarifa_carro":9734},
{"id":93,"name":"Theodoric","lat":33.437877,"lon":113.609286,"puntuation":1.4,"address":"3846 Randy Place","date":"3/29/2023","time":"2:51 PM","tarifa_moto":9692,"tarifa_carro":7472},
{"id":94,"name":"Halley","lat":47.7277191,"lon":96.8461337,"puntuation":2.1,"address":"740 Lien Center","date":"11/2/2023","time":"7:14 AM","tarifa_moto":9332,"tarifa_carro":6718},
{"id":95,"name":"Starlene","lat":38.94081,"lon":117.325744,"puntuation":3.0,"address":"310 Del Sol Avenue","date":"10/21/2023","time":"2:28 AM","tarifa_moto":5556,"tarifa_carro":9324},
{"id":96,"name":"Shanna","lat":-18.1111446,"lon":-49.0009403,"puntuation":2.4,"address":"1 Shasta Park","date":"8/4/2023","time":"11:15 AM","tarifa_moto":8477,"tarifa_carro":8334},
{"id":97,"name":"Devonna","lat":13.06667,"lon":123.61667,"puntuation":2.2,"address":"87069 Walton Junction","date":"11/8/2023","time":"7:26 PM","tarifa_moto":8909,"tarifa_carro":6398},
{"id":98,"name":"Angel","lat":25.435964,"lon":119.110257,"puntuation":2.1,"address":"10711 Pearson Plaza","date":"10/31/2023","time":"11:38 AM","tarifa_moto":7474,"tarifa_carro":6272},
{"id":99,"name":"Albertina","lat":46.1649072,"lon":15.7509093,"puntuation":1.7,"address":"25926 Commercial Street","date":"3/2/2024","time":"5:53 PM","tarifa_moto":4674,"tarifa_carro":9643},
{"id":100,"name":"Estele","lat":49.6376889,"lon":24.2948622,"puntuation":1.2,"address":"36 Goodland Parkway","date":"6/1/2023","time":"6:25 AM","tarifa_moto":8524,"tarifa_carro":7078},
{"id":101,"name":"Eydie","lat":50.1224689,"lon":27.506767,"puntuation":3.0,"address":"1 Bayside Alley","date":"9/3/2023","time":"6:04 PM","tarifa_moto":4721,"tarifa_carro":9745},
{"id":102,"name":"Goldy","lat":58.0780287,"lon":13.0188387,"puntuation":1.2,"address":"976 Ramsey Place","date":"1/10/2024","time":"2:12 AM","tarifa_moto":9876,"tarifa_carro":8167},
{"id":103,"name":"Aylmar","lat":56.7889481,"lon":44.5018318,"puntuation":3.0,"address":"7733 Mandrake Avenue","date":"1/21/2024","time":"12:59 AM","tarifa_moto":7920,"tarifa_carro":7844},
{"id":104,"name":"Keefer","lat":40.0158487,"lon":116.4551375,"puntuation":1.3,"address":"68 Holy Cross Park","date":"3/18/2024","time":"3:59 PM","tarifa_moto":9292,"tarifa_carro":7607},
{"id":105,"name":"Gwenneth","lat":59.9531666,"lon":10.7559072,"puntuation":4.6,"address":"6370 Fairfield Circle","date":"12/30/2023","time":"4:41 AM","tarifa_moto":8111,"tarifa_carro":8691},
{"id":106,"name":"Leicester","lat":40.5740471,"lon":-8.6441655,"puntuation":1.7,"address":"6280 Loomis Street","date":"4/15/2023","time":"11:31 AM","tarifa_moto":9549,"tarifa_carro":9731},
{"id":107,"name":"Tansy","lat":24.094765,"lon":116.00509,"puntuation":2.0,"address":"6560 Rusk Alley","date":"2/13/2024","time":"7:20 PM","tarifa_moto":6662,"tarifa_carro":8413},
{"id":108,"name":"Karlene","lat":45.902561,"lon":115.358704,"puntuation":5.0,"address":"51 Nelson Way","date":"5/21/2023","time":"1:07 AM","tarifa_moto":5987,"tarifa_carro":8423},
{"id":109,"name":"Hardy","lat":36.548365,"lon":101.978369,"puntuation":1.5,"address":"66867 Goodland Lane","date":"3/16/2024","time":"3:26 AM","tarifa_moto":6670,"tarifa_carro":6583},
{"id":110,"name":"Juliet","lat":50.8177069,"lon":15.7230035,"puntuation":2.9,"address":"12820 East Park","date":"2/2/2024","time":"12:44 PM","tarifa_moto":6343,"tarifa_carro":8415},
{"id":111,"name":"Jillana","lat":-16.0047799,"lon":-41.2815064,"puntuation":4.0,"address":"90772 Golf Course Pass","date":"7/4/2023","time":"11:35 PM","tarifa_moto":6820,"tarifa_carro":7932},
{"id":112,"name":"Corbett","lat":-21.7972251,"lon":-50.879763,"puntuation":4.2,"address":"11 Crescent Oaks Junction","date":"8/21/2023","time":"6:00 AM","tarifa_moto":5596,"tarifa_carro":6354},
{"id":113,"name":"Reynard","lat":52.56166,"lon":17.82264,"puntuation":1.0,"address":"85682 Eggendart Crossing","date":"2/2/2024","time":"8:10 PM","tarifa_moto":9060,"tarifa_carro":8155},
{"id":114,"name":"Flint","lat":52.7201592,"lon":30.569225,"puntuation":1.7,"address":"6410 Elgar Point","date":"8/23/2023","time":"12:48 AM","tarifa_moto":6777,"tarifa_carro":8057},
{"id":115,"name":"Farica","lat":-7.2080402,"lon":108.7185184,"puntuation":4.4,"address":"02193 Briar Crest Park","date":"1/8/2024","time":"4:28 PM","tarifa_moto":7220,"tarifa_carro":8888},
{"id":116,"name":"Bartie","lat":35.1002148,"lon":-89.8500299,"puntuation":4.7,"address":"50758 Almo Park","date":"1/5/2024","time":"3:51 AM","tarifa_moto":9683,"tarifa_carro":7606},
{"id":117,"name":"Marylee","lat":37.5923591,"lon":21.6206833,"puntuation":2.8,"address":"679 Chinook Street","date":"10/2/2023","time":"6:28 AM","tarifa_moto":9968,"tarifa_carro":7369},
{"id":118,"name":"Myron","lat":-20.5362627,"lon":47.2459749,"puntuation":3.6,"address":"26 Hayes Street","date":"1/31/2024","time":"2:22 PM","tarifa_moto":6070,"tarifa_carro":9997},
{"id":119,"name":"Flem","lat":-6.6389142,"lon":111.4737946,"puntuation":4.6,"address":"6755 Waubesa Center","date":"3/24/2023","time":"5:32 PM","tarifa_moto":9354,"tarifa_carro":9715},
{"id":120,"name":"Jacquelyn","lat":-27.4887196,"lon":-58.9495941,"puntuation":2.9,"address":"2870 Express Lane","date":"12/8/2023","time":"5:39 AM","tarifa_moto":9893,"tarifa_carro":7628},
{"id":121,"name":"Rudd","lat":41.3888512,"lon":-8.4334674,"puntuation":2.0,"address":"2 Scott Road","date":"3/4/2024","time":"11:10 AM","tarifa_moto":7343,"tarifa_carro":7413},
{"id":122,"name":"Abner","lat":38.7341216,"lon":-9.1394917,"puntuation":1.7,"address":"75275 Valley Edge Street","date":"2/20/2024","time":"3:42 AM","tarifa_moto":5421,"tarifa_carro":6507},
{"id":123,"name":"Marline","lat":22.180668,"lon":109.356166,"puntuation":2.6,"address":"87426 Texas Hill","date":"1/14/2024","time":"2:34 AM","tarifa_moto":9084,"tarifa_carro":6496},
{"id":124,"name":"Nissy","lat":40.7525629,"lon":-73.976024,"puntuation":3.3,"address":"064 Clove Plaza","date":"2/18/2024","time":"3:11 AM","tarifa_moto":9320,"tarifa_carro":7572},
{"id":125,"name":"Dido","lat":35.4731712,"lon":137.0375112,"puntuation":4.1,"address":"3070 Haas Trail","date":"2/20/2024","time":"5:16 PM","tarifa_moto":9174,"tarifa_carro":9233},
{"id":126,"name":"Joya","lat":62.3658212,"lon":26.4532856,"puntuation":1.4,"address":"65698 Leroy Pass","date":"2/16/2024","time":"8:44 PM","tarifa_moto":4197,"tarifa_carro":8749},
{"id":127,"name":"Devinne","lat":9.016675,"lon":-10.59317,"puntuation":2.0,"address":"33 Milwaukee Avenue","date":"4/18/2023","time":"1:33 PM","tarifa_moto":9838,"tarifa_carro":7225},
{"id":128,"name":"Ravid","lat":28.237987,"lon":83.9955879,"puntuation":5.0,"address":"9 Pawling Point","date":"7/10/2023","time":"4:03 PM","tarifa_moto":9891,"tarifa_carro":8323},
{"id":129,"name":"Nissy","lat":47.8074536,"lon":7.1769783,"puntuation":4.7,"address":"7 Johnson Circle","date":"6/9/2023","time":"2:06 AM","tarifa_moto":8727,"tarifa_carro":6271},
{"id":130,"name":"Shawn","lat":40.7531415,"lon":45.7400681,"puntuation":1.6,"address":"707 Corscot Trail","date":"12/11/2023","time":"6:49 AM","tarifa_moto":6295,"tarifa_carro":9847},
{"id":131,"name":"Rene","lat":53.32112,"lon":-6.2398782,"puntuation":2.7,"address":"945 Banding Alley","date":"9/20/2023","time":"11:10 PM","tarifa_moto":8252,"tarifa_carro":7556},
{"id":132,"name":"Zulema","lat":-3.3259044,"lon":-79.8056661,"puntuation":1.5,"address":"554 Superior Drive","date":"1/13/2024","time":"12:03 AM","tarifa_moto":9071,"tarifa_carro":6058},
{"id":133,"name":"Paulita","lat":-29.4478273,"lon":31.2182778,"puntuation":2.8,"address":"34817 Bultman Parkway","date":"11/30/2023","time":"5:55 AM","tarifa_moto":8019,"tarifa_carro":9400},
{"id":134,"name":"Gnni","lat":20.6518868,"lon":-105.2061347,"puntuation":1.5,"address":"112 Buena Vista Alley","date":"9/21/2023","time":"7:36 AM","tarifa_moto":9251,"tarifa_carro":9974},
{"id":135,"name":"Rockey","lat":29.72277,"lon":106.53519,"puntuation":4.0,"address":"1640 Bluestem Center","date":"1/15/2024","time":"4:08 AM","tarifa_moto":6602,"tarifa_carro":6977},
{"id":136,"name":"Angelica","lat":40.4304536,"lon":-3.7105118,"puntuation":1.6,"address":"2753 Springview Crossing","date":"6/13/2023","time":"10:21 PM","tarifa_moto":6585,"tarifa_carro":7732},
{"id":137,"name":"Catharina","lat":39.9566253,"lon":44.5924796,"puntuation":3.4,"address":"55 Everett Circle","date":"9/20/2023","time":"10:04 PM","tarifa_moto":8386,"tarifa_carro":7870},
{"id":138,"name":"Emmaline","lat":43.2370452,"lon":23.1251092,"puntuation":4.1,"address":"85 Blaine Point","date":"8/27/2023","time":"2:18 AM","tarifa_moto":9810,"tarifa_carro":6239},
{"id":139,"name":"Ryann","lat":34.75245,"lon":109.239163,"puntuation":4.2,"address":"4 Hazelcrest Place","date":"8/5/2023","time":"9:54 AM","tarifa_moto":6773,"tarifa_carro":8369},
{"id":140,"name":"Riannon","lat":39.1538529,"lon":127.4460001,"puntuation":3.4,"address":"6203 Montana Avenue","date":"3/28/2023","time":"6:29 PM","tarifa_moto":6371,"tarifa_carro":7250},
{"id":141,"name":"Kate","lat":-21.4138052,"lon":-42.1917995,"puntuation":1.4,"address":"9 Hoepker Pass","date":"12/9/2023","time":"3:06 PM","tarifa_moto":8166,"tarifa_carro":6943},
{"id":142,"name":"Anatollo","lat":-6.2057964,"lon":106.7057733,"puntuation":3.0,"address":"79534 Spohn Pass","date":"1/20/2024","time":"12:35 AM","tarifa_moto":5579,"tarifa_carro":8832},
{"id":143,"name":"Gabbi","lat":30.823054,"lon":110.973252,"puntuation":4.5,"address":"70 Northview Way","date":"10/25/2023","time":"4:19 PM","tarifa_moto":7733,"tarifa_carro":8263},
{"id":144,"name":"Matthieu","lat":48.7724625,"lon":2.2161608,"puntuation":1.8,"address":"627 Stephen Hill","date":"8/23/2023","time":"10:59 PM","tarifa_moto":9261,"tarifa_carro":9050},
{"id":145,"name":"Marybelle","lat":28.211997,"lon":113.111822,"puntuation":4.0,"address":"299 Graedel Road","date":"1/5/2024","time":"5:43 PM","tarifa_moto":7092,"tarifa_carro":6362},
{"id":146,"name":"Tallie","lat":33.1184269,"lon":67.778633,"puntuation":4.0,"address":"554 Surrey Drive","date":"8/9/2023","time":"5:20 PM","tarifa_moto":4190,"tarifa_carro":7879},
{"id":147,"name":"Cassie","lat":-38.6816248,"lon":-62.2841378,"puntuation":2.6,"address":"6897 Fuller Plaza","date":"7/16/2023","time":"4:06 AM","tarifa_moto":7818,"tarifa_carro":6612},
{"id":148,"name":"La verne","lat":56.718213,"lon":36.770859,"puntuation":1.1,"address":"879 Graedel Center","date":"6/19/2023","time":"10:13 PM","tarifa_moto":7828,"tarifa_carro":8868},
{"id":149,"name":"Jay","lat":-8.3526057,"lon":112.5814255,"puntuation":1.2,"address":"3 Crowley Trail","date":"3/17/2024","time":"4:01 PM","tarifa_moto":5096,"tarifa_carro":8928},
{"id":150,"name":"Devonne","lat":-18.9489026,"lon":48.2244268,"puntuation":2.5,"address":"281 Truax Pass","date":"1/29/2024","time":"1:14 AM","tarifa_moto":6834,"tarifa_carro":8188},
{"id":151,"name":"Katheryn","lat":37.8512533,"lon":140.6090975,"puntuation":3.6,"address":"35368 Morning Place","date":"1/27/2024","time":"11:38 AM","tarifa_moto":8345,"tarifa_carro":9102},
{"id":152,"name":"Weylin","lat":33.189192,"lon":120.103473,"puntuation":4.2,"address":"956 Karstens Street","date":"12/30/2023","time":"7:12 AM","tarifa_moto":6202,"tarifa_carro":9774},
{"id":153,"name":"Barbey","lat":30.679359,"lon":104.011664,"puntuation":4.2,"address":"6 Prentice Point","date":"5/1/2023","time":"10:33 PM","tarifa_moto":8482,"tarifa_carro":7443},
{"id":154,"name":"Charmain","lat":50.46678,"lon":-104.41778,"puntuation":1.7,"address":"8813 Calypso Junction","date":"12/30/2023","time":"3:26 AM","tarifa_moto":4108,"tarifa_carro":8158},
{"id":155,"name":"Dode","lat":55.5807611,"lon":37.7673912,"puntuation":4.3,"address":"66 Ilene Center","date":"12/22/2023","time":"2:18 PM","tarifa_moto":7116,"tarifa_carro":9551},
{"id":156,"name":"Lynn","lat":10.39799,"lon":123.915501,"puntuation":2.4,"address":"4430 8th Place","date":"6/21/2023","time":"9:03 PM","tarifa_moto":8105,"tarifa_carro":7401},
{"id":157,"name":"Gloriane","lat":-23.7834562,"lon":-53.0762805,"puntuation":4.0,"address":"6596 Union Parkway","date":"1/7/2024","time":"1:00 AM","tarifa_moto":4683,"tarifa_carro":7235},
{"id":158,"name":"Drake","lat":22.654032,"lon":110.18122,"puntuation":4.5,"address":"28176 Saint Paul Trail","date":"4/18/2023","time":"4:12 AM","tarifa_moto":7932,"tarifa_carro":6723},
{"id":159,"name":"Hayyim","lat":-6.9000441,"lon":112.9029014,"puntuation":4.4,"address":"49798 Canary Road","date":"5/21/2023","time":"6:05 AM","tarifa_moto":8887,"tarifa_carro":9122},
{"id":160,"name":"Shelbi","lat":8.0036924,"lon":-81.5596427,"puntuation":2.3,"address":"64 Village Green Circle","date":"1/7/2024","time":"8:36 PM","tarifa_moto":6046,"tarifa_carro":9177},
{"id":161,"name":"Myrta","lat":43.0150759,"lon":141.4098346,"puntuation":1.4,"address":"88274 Bellgrove Plaza","date":"8/3/2023","time":"10:31 AM","tarifa_moto":8516,"tarifa_carro":7507},
{"id":162,"name":"Lonni","lat":10.591925,"lon":-74.186103,"puntuation":1.9,"address":"1260 Maple Wood Trail","date":"2/28/2024","time":"12:32 AM","tarifa_moto":7099,"tarifa_carro":6695},
{"id":163,"name":"Clarance","lat":14.5801157,"lon":101.003522,"puntuation":3.9,"address":"9381 Claremont Point","date":"10/11/2023","time":"8:59 PM","tarifa_moto":7613,"tarifa_carro":6328},
{"id":164,"name":"Tome","lat":48.5701842,"lon":-78.1143214,"puntuation":4.4,"address":"8 Sundown Point","date":"6/21/2023","time":"1:32 AM","tarifa_moto":4929,"tarifa_carro":7983},
{"id":165,"name":"Olin","lat":31.874138,"lon":103.573122,"puntuation":3.3,"address":"37 Green Circle","date":"8/29/2023","time":"9:19 PM","tarifa_moto":6713,"tarifa_carro":6464},
{"id":166,"name":"Valaria","lat":23.3790333,"lon":113.7632828,"puntuation":4.5,"address":"38 Fieldstone Plaza","date":"8/13/2023","time":"8:20 AM","tarifa_moto":9083,"tarifa_carro":7621},
{"id":167,"name":"Myrtia","lat":52.0016128,"lon":42.344717,"puntuation":1.2,"address":"35 Jay Way","date":"9/7/2023","time":"6:12 PM","tarifa_moto":4234,"tarifa_carro":9761},
{"id":168,"name":"Karita","lat":54.1451,"lon":45.1444,"puntuation":3.3,"address":"2375 Sugar Pass","date":"6/19/2023","time":"6:10 PM","tarifa_moto":5279,"tarifa_carro":9013},
{"id":169,"name":"Nixie","lat":16.8802365,"lon":121.5833217,"puntuation":3.1,"address":"21 Petterle Parkway","date":"1/30/2024","time":"7:54 AM","tarifa_moto":4659,"tarifa_carro":6723},
{"id":170,"name":"Chilton","lat":39.6048507,"lon":-7.9965492,"puntuation":3.6,"address":"4054 Kensington Road","date":"6/8/2023","time":"4:34 AM","tarifa_moto":4954,"tarifa_carro":7031},
{"id":171,"name":"Rosalinde","lat":55.8215671,"lon":44.6852174,"puntuation":2.1,"address":"9 Mandrake Park","date":"11/20/2023","time":"1:16 AM","tarifa_moto":9131,"tarifa_carro":9583},
{"id":172,"name":"Lyell","lat":5.0281872,"lon":118.3157161,"puntuation":1.6,"address":"3 Northview Road","date":"5/30/2023","time":"11:46 PM","tarifa_moto":4585,"tarifa_carro":6473},
{"id":173,"name":"Tatiana","lat":-25.408157,"lon":-57.2875097,"puntuation":4.8,"address":"7 Del Sol Street","date":"1/15/2024","time":"11:21 AM","tarifa_moto":7236,"tarifa_carro":7746},
{"id":174,"name":"Tiena","lat":45.090227,"lon":16.0189989,"puntuation":1.7,"address":"3 Loomis Way","date":"7/22/2023","time":"2:15 AM","tarifa_moto":7712,"tarifa_carro":6278},
{"id":175,"name":"Blair","lat":51.0309199,"lon":16.7675963,"puntuation":1.2,"address":"8 Merchant Junction","date":"10/30/2023","time":"3:21 PM","tarifa_moto":5225,"tarifa_carro":8214},
{"id":176,"name":"Hillel","lat":37.7272804,"lon":26.6892471,"puntuation":1.3,"address":"664 Warbler Hill","date":"7/22/2023","time":"2:19 AM","tarifa_moto":8237,"tarifa_carro":8265},
{"id":177,"name":"Gusta","lat":47.8024242,"lon":3.3671862,"puntuation":3.1,"address":"165 Drewry Street","date":"3/7/2024","time":"9:33 PM","tarifa_moto":6486,"tarifa_carro":6040},
{"id":178,"name":"Melvin","lat":18.6794938,"lon":-71.940875,"puntuation":4.5,"address":"0 Brickson Park Center","date":"9/28/2023","time":"11:22 PM","tarifa_moto":8430,"tarifa_carro":6275},
{"id":179,"name":"Virginia","lat":30.848103,"lon":116.360871,"puntuation":4.8,"address":"85628 Washington Way","date":"10/30/2023","time":"1:16 PM","tarifa_moto":5147,"tarifa_carro":6708},
{"id":180,"name":"Gratiana","lat":12.2270347,"lon":123.2823247,"puntuation":1.6,"address":"83624 Stuart Junction","date":"6/18/2023","time":"6:04 PM","tarifa_moto":7837,"tarifa_carro":6980},
{"id":181,"name":"Forester","lat":50.2867981,"lon":16.0442852,"puntuation":4.3,"address":"96 Anthes Lane","date":"7/21/2023","time":"11:48 AM","tarifa_moto":8146,"tarifa_carro":8526},
{"id":182,"name":"Elonore","lat":47.7229616,"lon":0.0297575,"puntuation":1.1,"address":"64742 Northwestern Avenue","date":"2/10/2024","time":"10:06 AM","tarifa_moto":4360,"tarifa_carro":6277},
{"id":183,"name":"Fabiano","lat":-22.0157824,"lon":-47.8847321,"puntuation":4.9,"address":"4400 Lunder Hill","date":"9/11/2023","time":"7:18 AM","tarifa_moto":5791,"tarifa_carro":8855},
{"id":184,"name":"Valeda","lat":-18.4001194,"lon":47.8699039,"puntuation":3.8,"address":"511 Almo Drive","date":"4/23/2023","time":"4:43 AM","tarifa_moto":5089,"tarifa_carro":6951},
{"id":185,"name":"Trude","lat":-8.594056,"lon":122.565498,"puntuation":1.7,"address":"656 Dahle Lane","date":"2/2/2024","time":"9:42 AM","tarifa_moto":8645,"tarifa_carro":7416},
{"id":186,"name":"Chloe","lat":14.8921247,"lon":-87.1711922,"puntuation":3.0,"address":"412 Fisk Way","date":"4/7/2023","time":"9:00 PM","tarifa_moto":5692,"tarifa_carro":7102},
{"id":187,"name":"Roselle","lat":23.073914,"lon":114.41958,"puntuation":3.2,"address":"01 Daystar Road","date":"3/24/2023","time":"4:23 AM","tarifa_moto":9006,"tarifa_carro":7610},
{"id":188,"name":"El","lat":4.974252,"lon":-74.291386,"puntuation":1.8,"address":"467 Kensington Junction","date":"11/25/2023","time":"7:00 AM","tarifa_moto":7458,"tarifa_carro":7508},
{"id":189,"name":"Esme","lat":49.1169513,"lon":101.449837,"puntuation":1.2,"address":"61369 Declaration Parkway","date":"12/29/2023","time":"1:39 PM","tarifa_moto":5079,"tarifa_carro":9561},
{"id":190,"name":"Mia","lat":52.8186154,"lon":20.3301247,"puntuation":3.9,"address":"88671 Victoria Alley","date":"7/16/2023","time":"5:05 PM","tarifa_moto":4782,"tarifa_carro":6817},
{"id":191,"name":"Michelle","lat":-10.2530955,"lon":123.5532073,"puntuation":3.5,"address":"05 Canary Drive","date":"12/18/2023","time":"12:53 AM","tarifa_moto":9396,"tarifa_carro":9553},
{"id":192,"name":"Ralf","lat":-11.9929208,"lon":-77.0518169,"puntuation":2.0,"address":"50 Kinsman Way","date":"11/11/2023","time":"6:21 PM","tarifa_moto":4485,"tarifa_carro":7933},
{"id":193,"name":"Ardys","lat":40.9357866,"lon":20.2899237,"puntuation":4.6,"address":"690 Sheridan Circle","date":"1/29/2024","time":"8:51 AM","tarifa_moto":7194,"tarifa_carro":8478},
{"id":194,"name":"Lurlene","lat":38.4092722,"lon":24.0400763,"puntuation":4.8,"address":"96697 Mallory Way","date":"7/21/2023","time":"2:16 AM","tarifa_moto":7714,"tarifa_carro":6929},
{"id":195,"name":"Hurlee","lat":29.375859,"lon":47.9774052,"puntuation":1.0,"address":"9693 Mosinee Way","date":"1/4/2024","time":"3:35 PM","tarifa_moto":7834,"tarifa_carro":6507},
{"id":196,"name":"Jacklyn","lat":37.775349,"lon":117.385256,"puntuation":1.9,"address":"32814 Sugar Terrace","date":"1/10/2024","time":"8:22 AM","tarifa_moto":8749,"tarifa_carro":6973},
{"id":197,"name":"Giacopo","lat":46.013979,"lon":83.663731,"puntuation":4.5,"address":"9 Moose Terrace","date":"8/19/2023","time":"4:24 AM","tarifa_moto":5708,"tarifa_carro":6225},
{"id":198,"name":"Druci","lat":47.3591366,"lon":2.8002946,"puntuation":2.1,"address":"27455 Heffernan Terrace","date":"8/23/2023","time":"10:40 PM","tarifa_moto":6347,"tarifa_carro":8292},
{"id":199,"name":"Marget","lat":-20.4557393,"lon":-63.5186518,"puntuation":4.3,"address":"4068 Melrose Terrace","date":"5/12/2023","time":"2:30 AM","tarifa_moto":4473,"tarifa_carro":8783},
{"id":200,"name":"Jehu","lat":9.3756584,"lon":-83.7053072,"puntuation":1.4,"address":"85825 Ronald Regan Terrace","date":"5/29/2023","time":"11:36 AM","tarifa_moto":5429,"tarifa_carro":6004},
{"id":201,"name":"Kalie","lat":52.5595501,"lon":23.8049715,"puntuation":3.8,"address":"44733 Rowland Alley","date":"1/7/2024","time":"6:20 AM","tarifa_moto":5834,"tarifa_carro":9279},
{"id":202,"name":"Pru","lat":10.21972,"lon":169.97967,"puntuation":2.0,"address":"172 Northridge Alley","date":"11/18/2023","time":"3:09 AM","tarifa_moto":7292,"tarifa_carro":6266},
{"id":203,"name":"Nial","lat":54.0481202,"lon":22.2939742,"puntuation":3.3,"address":"47180 Comanche Place","date":"7/19/2023","time":"6:09 PM","tarifa_moto":6993,"tarifa_carro":7525},
{"id":204,"name":"Clarabelle","lat":39.1192173,"lon":117.1944016,"puntuation":4.9,"address":"5 Eliot Center","date":"3/13/2024","time":"2:07 PM","tarifa_moto":4854,"tarifa_carro":7882},
{"id":205,"name":"Charlean","lat":35.3158333,"lon":80.9158333,"puntuation":4.7,"address":"371 Almo Terrace","date":"1/23/2024","time":"11:06 AM","tarifa_moto":7979,"tarifa_carro":8222},
{"id":206,"name":"King","lat":13.5001159,"lon":-14.0144902,"puntuation":3.2,"address":"290 Emmet Place","date":"9/2/2023","time":"9:17 PM","tarifa_moto":5529,"tarifa_carro":6942},
{"id":207,"name":"Udall","lat":33.765469,"lon":113.994752,"puntuation":3.8,"address":"4 Service Trail","date":"1/21/2024","time":"9:31 AM","tarifa_moto":5254,"tarifa_carro":6832},
{"id":208,"name":"Merle","lat":49.566715,"lon":17.1679608,"puntuation":2.5,"address":"210 Pearson Hill","date":"11/16/2023","time":"1:56 AM","tarifa_moto":9899,"tarifa_carro":8230},
{"id":209,"name":"Ivette","lat":31.851182,"lon":35.200835,"puntuation":1.8,"address":"71180 Grayhawk Lane","date":"5/23/2023","time":"1:34 PM","tarifa_moto":7000,"tarifa_carro":8648},
{"id":210,"name":"Marcel","lat":6.7809096,"lon":4.0337846,"puntuation":4.6,"address":"075 Express Road","date":"3/27/2023","time":"7:20 AM","tarifa_moto":8812,"tarifa_carro":7048},
{"id":211,"name":"Inigo","lat":35.218292,"lon":106.653158,"puntuation":3.3,"address":"9006 Elgar Terrace","date":"12/29/2023","time":"9:45 PM","tarifa_moto":5349,"tarifa_carro":8985},
{"id":212,"name":"Stinky","lat":9.7846,"lon":124.1745,"puntuation":2.0,"address":"0 Prairie Rose Place","date":"11/3/2023","time":"3:49 AM","tarifa_moto":6862,"tarifa_carro":9816},
{"id":213,"name":"Jeanie","lat":-25.8511498,"lon":-56.6135167,"puntuation":1.5,"address":"525 Buena Vista Avenue","date":"12/26/2023","time":"2:40 AM","tarifa_moto":4228,"tarifa_carro":7392},
{"id":214,"name":"Dev","lat":40.804574,"lon":-96.6157192,"puntuation":2.7,"address":"1273 Ludington Alley","date":"3/23/2023","time":"5:12 PM","tarifa_moto":9452,"tarifa_carro":9356},
{"id":215,"name":"Hillel","lat":43.5377939,"lon":10.383479,"puntuation":3.8,"address":"5903 Emmet Avenue","date":"3/17/2024","time":"10:13 AM","tarifa_moto":4473,"tarifa_carro":6621},
{"id":216,"name":"Dallas","lat":14.6116655,"lon":-91.5105745,"puntuation":4.4,"address":"37195 Continental Park","date":"8/11/2023","time":"9:46 AM","tarifa_moto":4985,"tarifa_carro":7315},
{"id":217,"name":"Marylinda","lat":17.9567646,"lon":-102.1943485,"puntuation":2.0,"address":"666 Merchant Street","date":"8/14/2023","time":"8:20 PM","tarifa_moto":6511,"tarifa_carro":6881},
{"id":218,"name":"Aarika","lat":54.2064439,"lon":17.6677767,"puntuation":2.6,"address":"91 Bayside Park","date":"7/31/2023","time":"1:23 PM","tarifa_moto":4211,"tarifa_carro":7647},
{"id":219,"name":"Renee","lat":41.3009263,"lon":-95.8881542,"puntuation":3.4,"address":"8 Valley Edge Circle","date":"9/24/2023","time":"10:52 PM","tarifa_moto":9488,"tarifa_carro":6135},
{"id":220,"name":"Loren","lat":30.550638,"lon":63.78141,"puntuation":2.9,"address":"31035 Merchant Crossing","date":"5/22/2023","time":"4:38 AM","tarifa_moto":5913,"tarifa_carro":8721},
{"id":221,"name":"Carley","lat":53.1872306,"lon":18.0963464,"puntuation":4.8,"address":"965 Park Meadow Center","date":"5/10/2023","time":"7:31 PM","tarifa_moto":7288,"tarifa_carro":8226},
{"id":222,"name":"Lindsey","lat":38.6169978,"lon":-9.083874,"puntuation":4.3,"address":"96585 Boyd Junction","date":"8/30/2023","time":"10:20 PM","tarifa_moto":7518,"tarifa_carro":8115},
{"id":223,"name":"Erica","lat":-38.9338082,"lon":-69.2497586,"puntuation":4.1,"address":"897 Larry Place","date":"3/20/2023","time":"2:43 PM","tarifa_moto":4587,"tarifa_carro":9082},
{"id":224,"name":"Carlina","lat":-8.2462635,"lon":-35.7198831,"puntuation":2.9,"address":"8868 Amoth Court","date":"8/17/2023","time":"3:14 AM","tarifa_moto":8351,"tarifa_carro":7526},
{"id":225,"name":"Neddie","lat":27.6644011,"lon":85.3187914,"puntuation":3.4,"address":"86 Westerfield Lane","date":"11/11/2023","time":"12:00 PM","tarifa_moto":6325,"tarifa_carro":7563},
{"id":226,"name":"Carma","lat":28.01082,"lon":120.663064,"puntuation":3.6,"address":"67996 Dawn Point","date":"1/10/2024","time":"4:32 AM","tarifa_moto":8884,"tarifa_carro":7093},
{"id":227,"name":"Skelly","lat":1.932389,"lon":-76.214046,"puntuation":3.9,"address":"4830 Milwaukee Way","date":"6/2/2023","time":"5:59 PM","tarifa_moto":7319,"tarifa_carro":8827},
{"id":228,"name":"Perrine","lat":20.8525711,"lon":106.0169971,"puntuation":3.0,"address":"9228 Sunfield Park","date":"9/7/2023","time":"10:34 PM","tarifa_moto":7502,"tarifa_carro":7208},
{"id":229,"name":"Duncan","lat":-12.9722184,"lon":-38.5014136,"puntuation":4.2,"address":"5 Fisk Circle","date":"8/10/2023","time":"12:03 AM","tarifa_moto":5729,"tarifa_carro":6328},
{"id":230,"name":"Lolita","lat":29.770279,"lon":84.03153,"puntuation":1.4,"address":"30 Glacier Hill Court","date":"11/3/2023","time":"5:43 PM","tarifa_moto":6387,"tarifa_carro":9965},
{"id":231,"name":"Danella","lat":46.8619132,"lon":42.1175494,"puntuation":2.0,"address":"27 Fair Oaks Junction","date":"3/11/2024","time":"5:28 AM","tarifa_moto":9944,"tarifa_carro":8153},
{"id":232,"name":"Goldarina","lat":31.364902,"lon":108.249509,"puntuation":2.4,"address":"9 John Wall Parkway","date":"11/24/2023","time":"5:39 PM","tarifa_moto":4841,"tarifa_carro":6460},
{"id":233,"name":"Philippe","lat":57.8721328,"lon":54.7288281,"puntuation":1.3,"address":"2 Washington Parkway","date":"3/14/2024","time":"7:59 PM","tarifa_moto":7516,"tarifa_carro":9724},
{"id":234,"name":"Jessica","lat":43.4945737,"lon":5.8978018,"puntuation":1.1,"address":"85052 Northview Street","date":"11/21/2023","time":"5:47 PM","tarifa_moto":7212,"tarifa_carro":7944},
{"id":235,"name":"Mace","lat":24.9936281,"lon":121.3009798,"puntuation":3.2,"address":"61 Arrowood Place","date":"11/30/2023","time":"6:15 AM","tarifa_moto":4862,"tarifa_carro":7398},
{"id":236,"name":"Dennis","lat":-12.94844,"lon":-72.667999,"puntuation":3.3,"address":"7 Tennyson Junction","date":"7/14/2023","time":"5:08 PM","tarifa_moto":9131,"tarifa_carro":8033},
{"id":237,"name":"Elberta","lat":30.335237,"lon":112.239631,"puntuation":1.5,"address":"045 Lukken Alley","date":"4/28/2023","time":"9:51 PM","tarifa_moto":5610,"tarifa_carro":9763},
{"id":238,"name":"Renee","lat":45.376576,"lon":38.4403145,"puntuation":1.7,"address":"540 Pankratz Center","date":"11/6/2023","time":"3:54 PM","tarifa_moto":9861,"tarifa_carro":8328},
{"id":239,"name":"Elysee","lat":53.6934353,"lon":124.8109085,"puntuation":3.6,"address":"92485 Luster Pass","date":"6/15/2023","time":"5:57 AM","tarifa_moto":5375,"tarifa_carro":6381},
{"id":240,"name":"Shelby","lat":49.8117449,"lon":6.2541216,"puntuation":1.6,"address":"56857 Talmadge Terrace","date":"3/8/2024","time":"11:10 AM","tarifa_moto":9213,"tarifa_carro":7861},
{"id":241,"name":"Sally","lat":39.3897164,"lon":22.9982253,"puntuation":1.8,"address":"14174 Ruskin Park","date":"2/24/2024","time":"11:05 AM","tarifa_moto":8884,"tarifa_carro":8235},
{"id":242,"name":"Dale","lat":39.325788,"lon":111.962127,"puntuation":4.4,"address":"482 Debra Point","date":"9/5/2023","time":"3:35 PM","tarifa_moto":7342,"tarifa_carro":6837},
{"id":243,"name":"Konstanze","lat":12.14428,"lon":125.450296,"puntuation":2.7,"address":"8 Gateway Lane","date":"6/25/2023","time":"2:43 PM","tarifa_moto":5383,"tarifa_carro":8121},
{"id":244,"name":"Ede","lat":-10.0274881,"lon":124.4752715,"puntuation":2.1,"address":"8 Brickson Park Alley","date":"12/13/2023","time":"10:40 PM","tarifa_moto":4780,"tarifa_carro":9243},
{"id":245,"name":"Heinrik","lat":11.2642678,"lon":37.4921444,"puntuation":4.0,"address":"1 Cottonwood Avenue","date":"2/19/2024","time":"7:50 PM","tarifa_moto":8891,"tarifa_carro":8238},
{"id":246,"name":"Hayes","lat":-6.7944214,"lon":110.7867474,"puntuation":1.4,"address":"91 Waywood Terrace","date":"4/24/2023","time":"8:26 AM","tarifa_moto":6663,"tarifa_carro":8045},
{"id":247,"name":"Silvio","lat":35.4399,"lon":48.0736,"puntuation":2.9,"address":"80229 Esker Trail","date":"5/29/2023","time":"7:29 PM","tarifa_moto":5652,"tarifa_carro":7894},
{"id":248,"name":"Mace","lat":58.9607635,"lon":57.6558829,"puntuation":2.7,"address":"59 Dahle Point","date":"10/14/2023","time":"10:28 AM","tarifa_moto":7136,"tarifa_carro":7499},
{"id":249,"name":"Roley","lat":22.937244,"lon":113.384129,"puntuation":3.4,"address":"16 Gerald Avenue","date":"3/29/2023","time":"5:33 PM","tarifa_moto":5757,"tarifa_carro":7387},
{"id":250,"name":"Frazer","lat":-24.8009137,"lon":-65.426487,"puntuation":1.8,"address":"74 Carey Point","date":"8/30/2023","time":"12:01 AM","tarifa_moto":6570,"tarifa_carro":9667},
{"id":251,"name":"Roz","lat":7.1760285,"lon":125.4423957,"puntuation":3.3,"address":"01320 Ramsey Trail","date":"2/25/2024","time":"7:31 AM","tarifa_moto":8494,"tarifa_carro":9294},
{"id":252,"name":"Coretta","lat":48.4187171,"lon":36.429969,"puntuation":2.3,"address":"09757 Farragut Parkway","date":"5/11/2023","time":"4:13 PM","tarifa_moto":9666,"tarifa_carro":7026},
{"id":253,"name":"Philipa","lat":60.3198565,"lon":23.8212698,"puntuation":2.4,"address":"83 Milwaukee Crossing","date":"10/15/2023","time":"10:48 AM","tarifa_moto":4125,"tarifa_carro":9531},
{"id":254,"name":"Web","lat":28.264515,"lon":115.9608,"puntuation":3.2,"address":"36 Kedzie Circle","date":"8/24/2023","time":"8:16 PM","tarifa_moto":6458,"tarifa_carro":6086},
{"id":255,"name":"Enrika","lat":48.890054,"lon":2.2372792,"puntuation":2.1,"address":"75 Oak Place","date":"10/5/2023","time":"4:47 AM","tarifa_moto":7966,"tarifa_carro":9328},
{"id":256,"name":"Jelene","lat":-22.2592565,"lon":-50.9706116,"puntuation":3.0,"address":"670 Melrose Terrace","date":"11/20/2023","time":"4:51 AM","tarifa_moto":6609,"tarifa_carro":9843},
{"id":257,"name":"Rod","lat":43.193399,"lon":128.7887591,"puntuation":4.9,"address":"3 Sugar Hill","date":"8/21/2023","time":"3:06 PM","tarifa_moto":4557,"tarifa_carro":9324},
{"id":258,"name":"Rudiger","lat":60.2025952,"lon":24.904004,"puntuation":1.8,"address":"68321 Farragut Hill","date":"6/18/2023","time":"10:48 PM","tarifa_moto":5607,"tarifa_carro":7957},
{"id":259,"name":"Evvy","lat":52.4530993,"lon":14.8755999,"puntuation":1.0,"address":"7283 Jay Court","date":"12/27/2023","time":"3:10 PM","tarifa_moto":8902,"tarifa_carro":7082},
{"id":260,"name":"Benn","lat":60.3516509,"lon":5.3427677,"puntuation":4.9,"address":"4 Express Pass","date":"5/29/2023","time":"11:37 PM","tarifa_moto":7573,"tarifa_carro":7629},
{"id":261,"name":"Lynett","lat":30.79438,"lon":115.087221,"puntuation":1.5,"address":"6163 Twin Pines Center","date":"11/9/2023","time":"9:18 AM","tarifa_moto":9069,"tarifa_carro":6740},
{"id":262,"name":"Reiko","lat":23.7322067,"lon":-99.1829833,"puntuation":2.5,"address":"39542 Iowa Trail","date":"1/11/2024","time":"1:08 AM","tarifa_moto":5879,"tarifa_carro":8914},
{"id":263,"name":"Alexandr","lat":36.068172,"lon":120.395912,"puntuation":3.1,"address":"2 Morningstar Pass","date":"2/23/2024","time":"10:07 PM","tarifa_moto":5721,"tarifa_carro":8256},
{"id":264,"name":"Etta","lat":36.0917434,"lon":140.1139616,"puntuation":4.0,"address":"2397 Ronald Regan Trail","date":"10/7/2023","time":"6:56 AM","tarifa_moto":4278,"tarifa_carro":6375},
{"id":265,"name":"Marti","lat":-15.6969314,"lon":-39.4450281,"puntuation":2.6,"address":"76338 Menomonie Junction","date":"11/12/2023","time":"5:17 PM","tarifa_moto":4407,"tarifa_carro":9413},
{"id":266,"name":"Clotilda","lat":14.5352162,"lon":-90.8862218,"puntuation":1.1,"address":"80 Comanche Road","date":"7/23/2023","time":"5:53 AM","tarifa_moto":8926,"tarifa_carro":7850},
{"id":267,"name":"Tova","lat":59.0541421,"lon":12.695366,"puntuation":1.3,"address":"20 Tennyson Drive","date":"4/5/2023","time":"10:31 AM","tarifa_moto":7682,"tarifa_carro":7028},
{"id":268,"name":"Peta","lat":-11.0073376,"lon":-66.058249,"puntuation":1.6,"address":"4 Canary Circle","date":"11/27/2023","time":"1:37 AM","tarifa_moto":8427,"tarifa_carro":6150},
{"id":269,"name":"Lenka","lat":-11.5459875,"lon":43.3885797,"puntuation":4.7,"address":"4 Oakridge Drive","date":"6/4/2023","time":"6:54 AM","tarifa_moto":4068,"tarifa_carro":6245},
{"id":270,"name":"Richie","lat":-22.7464475,"lon":-42.8613509,"puntuation":2.2,"address":"95 6th Trail","date":"2/14/2024","time":"4:38 PM","tarifa_moto":8099,"tarifa_carro":6257},
{"id":271,"name":"Carlyn","lat":41.5728211,"lon":23.7282719,"puntuation":1.9,"address":"08 Columbus Way","date":"6/15/2023","time":"6:03 PM","tarifa_moto":5631,"tarifa_carro":8658},
{"id":272,"name":"Amargo","lat":63.8471115,"lon":15.533251,"puntuation":3.5,"address":"3 Basil Hill","date":"10/23/2023","time":"12:05 AM","tarifa_moto":6368,"tarifa_carro":6447},
{"id":273,"name":"Gal","lat":10.9820744,"lon":124.9525053,"puntuation":2.0,"address":"3 Waxwing Alley","date":"7/4/2023","time":"10:11 AM","tarifa_moto":8686,"tarifa_carro":9839},
{"id":274,"name":"Winona","lat":-7.150975,"lon":110.1402594,"puntuation":4.6,"address":"296 Lakeland Avenue","date":"11/20/2023","time":"9:00 PM","tarifa_moto":9764,"tarifa_carro":6125},
{"id":275,"name":"Dido","lat":34.6682722,"lon":36.2576611,"puntuation":3.6,"address":"3903 Aberg Junction","date":"4/20/2023","time":"8:27 AM","tarifa_moto":8955,"tarifa_carro":7855},
{"id":276,"name":"Dannie","lat":-6.2284889,"lon":106.9602906,"puntuation":1.6,"address":"717 Derek Plaza","date":"8/11/2023","time":"1:47 PM","tarifa_moto":4622,"tarifa_carro":9950},
{"id":277,"name":"Janetta","lat":15.2402083,"lon":-91.8440552,"puntuation":3.8,"address":"0998 Brickson Park Alley","date":"12/28/2023","time":"4:32 PM","tarifa_moto":5515,"tarifa_carro":9589},
{"id":278,"name":"Inglebert","lat":67.4020883,"lon":26.6725662,"puntuation":3.1,"address":"1183 East Lane","date":"4/14/2023","time":"10:00 AM","tarifa_moto":5838,"tarifa_carro":8859},
{"id":279,"name":"Olivette","lat":52.783041,"lon":126.540917,"puntuation":1.8,"address":"1841 Shoshone Parkway","date":"9/14/2023","time":"3:14 PM","tarifa_moto":4904,"tarifa_carro":8228},
{"id":280,"name":"Liza","lat":-10.37092,"lon":-77.492203,"puntuation":3.0,"address":"48901 Stang Road","date":"10/3/2023","time":"7:02 AM","tarifa_moto":4296,"tarifa_carro":9548},
{"id":281,"name":"Lindsay","lat":39.928353,"lon":116.416357,"puntuation":2.8,"address":"6 Upham Court","date":"6/25/2023","time":"8:35 PM","tarifa_moto":4735,"tarifa_carro":7773},
{"id":282,"name":"Janaya","lat":41.1256135,"lon":-7.925857,"puntuation":2.4,"address":"27 Ridge Oak Park","date":"10/10/2023","time":"1:45 AM","tarifa_moto":9393,"tarifa_carro":6128},
{"id":283,"name":"Shaylyn","lat":15.5653934,"lon":120.6147766,"puntuation":2.7,"address":"039 Anhalt Park","date":"2/6/2024","time":"11:33 PM","tarifa_moto":9748,"tarifa_carro":6007},
{"id":284,"name":"Viki","lat":-7.4039153,"lon":112.7718209,"puntuation":3.3,"address":"69700 School Terrace","date":"3/30/2023","time":"6:00 AM","tarifa_moto":7154,"tarifa_carro":9730},
{"id":285,"name":"Walliw","lat":57.4167684,"lon":41.3421757,"puntuation":3.9,"address":"5949 Blaine Place","date":"2/21/2024","time":"8:13 AM","tarifa_moto":6792,"tarifa_carro":7728},
{"id":286,"name":"Conni","lat":48.9957904,"lon":29.4397153,"puntuation":1.8,"address":"0 Macpherson Hill","date":"8/21/2023","time":"3:22 AM","tarifa_moto":7057,"tarifa_carro":8678},
{"id":287,"name":"Crista","lat":27.955261,"lon":112.497228,"puntuation":4.0,"address":"25669 Novick Plaza","date":"3/31/2023","time":"1:13 AM","tarifa_moto":9062,"tarifa_carro":6695},
{"id":288,"name":"Sayre","lat":41.9854144,"lon":44.108411,"puntuation":4.9,"address":"448 Stuart Drive","date":"12/2/2023","time":"11:03 AM","tarifa_moto":8463,"tarifa_carro":6860},
{"id":289,"name":"Aleksandr","lat":-8.5988,"lon":115.2401,"puntuation":4.6,"address":"16 Fulton Alley","date":"2/15/2024","time":"5:37 AM","tarifa_moto":8894,"tarifa_carro":7900},
{"id":290,"name":"Berkley","lat":32.955581,"lon":118.510616,"puntuation":2.7,"address":"056 Westport Lane","date":"5/13/2023","time":"7:16 AM","tarifa_moto":6079,"tarifa_carro":7298},
{"id":291,"name":"Hi","lat":35.656128,"lon":112.117922,"puntuation":1.5,"address":"44 Thierer Junction","date":"12/5/2023","time":"10:54 PM","tarifa_moto":6687,"tarifa_carro":8924},
{"id":292,"name":"David","lat":-7.5690727,"lon":110.8312777,"puntuation":4.7,"address":"03926 Washington Park","date":"12/15/2023","time":"8:37 PM","tarifa_moto":4310,"tarifa_carro":9656},
{"id":293,"name":"Laurena","lat":38.2956138,"lon":140.9969841,"puntuation":1.8,"address":"91407 3rd Park","date":"8/15/2023","time":"7:43 AM","tarifa_moto":9893,"tarifa_carro":9605},
{"id":294,"name":"Maitilde","lat":46.2476549,"lon":13.5791749,"puntuation":4.5,"address":"0290 Eagan Point","date":"5/3/2023","time":"12:45 PM","tarifa_moto":4484,"tarifa_carro":7044},
{"id":295,"name":"Doris","lat":31.958519,"lon":35.225893,"puntuation":1.7,"address":"13303 Muir Park","date":"4/16/2023","time":"3:17 PM","tarifa_moto":7894,"tarifa_carro":9547},
{"id":296,"name":"Orelle","lat":39.0008341,"lon":139.9181485,"puntuation":1.7,"address":"0 Everett Lane","date":"12/2/2023","time":"3:10 AM","tarifa_moto":5086,"tarifa_carro":8209},
{"id":297,"name":"Carolee","lat":50.0231437,"lon":14.4142733,"puntuation":5.0,"address":"3 Eliot Court","date":"12/7/2023","time":"4:26 AM","tarifa_moto":9122,"tarifa_carro":9980},
{"id":298,"name":"Gray","lat":-12.94844,"lon":-72.667999,"puntuation":2.1,"address":"821 Everett Avenue","date":"4/6/2023","time":"8:11 AM","tarifa_moto":7126,"tarifa_carro":9800},
{"id":299,"name":"Buddy","lat":41.5289432,"lon":-8.264878,"puntuation":1.1,"address":"258 Browning Terrace","date":"12/15/2023","time":"7:37 PM","tarifa_moto":6924,"tarifa_carro":9169},
{"id":300,"name":"Carma","lat":-10.32553,"lon":-76.087997,"puntuation":3.8,"address":"3928 Rusk Court","date":"6/18/2023","time":"9:24 PM","tarifa_moto":5159,"tarifa_carro":8687},
{"id":301,"name":"Grazia","lat":60.0209443,"lon":44.9318159,"puntuation":3.1,"address":"3 Monument Way","date":"2/26/2024","time":"3:27 PM","tarifa_moto":4870,"tarifa_carro":7035},
{"id":302,"name":"Adler","lat":-36.6419362,"lon":-64.3204306,"puntuation":2.5,"address":"4 Express Center","date":"12/18/2023","time":"11:22 PM","tarifa_moto":7293,"tarifa_carro":9615},
{"id":303,"name":"Gayle","lat":-3.3226005,"lon":119.8245506,"puntuation":2.0,"address":"21 Merchant Park","date":"9/15/2023","time":"9:28 AM","tarifa_moto":7864,"tarifa_carro":7448},
{"id":304,"name":"Jamie","lat":59.970959,"lon":17.6401142,"puntuation":1.4,"address":"1550 Derek Point","date":"9/8/2023","time":"8:22 PM","tarifa_moto":5494,"tarifa_carro":6867},
{"id":305,"name":"Damita","lat":39.6022749,"lon":-8.8165669,"puntuation":3.3,"address":"87 Porter Trail","date":"6/13/2023","time":"12:18 AM","tarifa_moto":5193,"tarifa_carro":6403},
{"id":306,"name":"Morna","lat":13.7527691,"lon":123.8623691,"puntuation":2.6,"address":"0 Dorton Drive","date":"1/12/2024","time":"10:37 AM","tarifa_moto":8293,"tarifa_carro":9442},
{"id":307,"name":"Lita","lat":6.7640051,"lon":124.3754414,"puntuation":2.1,"address":"79 Kropf Lane","date":"11/3/2023","time":"1:05 AM","tarifa_moto":8497,"tarifa_carro":6286},
{"id":308,"name":"Jeremiah","lat":36.649364,"lon":51.4887307,"puntuation":2.7,"address":"3 Hagan Plaza","date":"8/4/2023","time":"3:14 AM","tarifa_moto":5375,"tarifa_carro":6435},
{"id":309,"name":"Annalee","lat":30.652181,"lon":104.00155,"puntuation":4.5,"address":"5080 Old Gate Place","date":"5/2/2023","time":"11:23 PM","tarifa_moto":7858,"tarifa_carro":6607},
{"id":310,"name":"Monah","lat":35.3077846,"lon":51.7308724,"puntuation":3.4,"address":"33258 Del Sol Pass","date":"1/12/2024","time":"6:41 PM","tarifa_moto":6826,"tarifa_carro":6870},
{"id":311,"name":"Cortney","lat":30.206592,"lon":114.901412,"puntuation":2.8,"address":"837 Macpherson Way","date":"10/9/2023","time":"3:24 PM","tarifa_moto":6613,"tarifa_carro":9560},
{"id":312,"name":"Alys","lat":9.1681467,"lon":8.9245343,"puntuation":4.0,"address":"4591 Jackson Way","date":"1/11/2024","time":"5:30 PM","tarifa_moto":9683,"tarifa_carro":8074},
{"id":313,"name":"Merwin","lat":13.8013,"lon":32.4078,"puntuation":4.1,"address":"3 Meadow Vale Place","date":"2/25/2024","time":"5:26 AM","tarifa_moto":4383,"tarifa_carro":7772},
{"id":314,"name":"Terrance","lat":59.5782797,"lon":17.4879349,"puntuation":2.4,"address":"81527 Porter Circle","date":"3/4/2024","time":"10:00 PM","tarifa_moto":8948,"tarifa_carro":6028},
{"id":315,"name":"Aileen","lat":50.2923198,"lon":27.9814782,"puntuation":3.8,"address":"5 Eagan Lane","date":"8/15/2023","time":"6:06 AM","tarifa_moto":4256,"tarifa_carro":9215},
{"id":316,"name":"Gray","lat":40.2980046,"lon":43.765332,"puntuation":1.1,"address":"44374 Spohn Hill","date":"6/5/2023","time":"6:52 PM","tarifa_moto":5186,"tarifa_carro":9512},
{"id":317,"name":"Hallsy","lat":32.8676912,"lon":-80.017511,"puntuation":5.0,"address":"0 Anniversary Trail","date":"11/7/2023","time":"11:00 PM","tarifa_moto":8403,"tarifa_carro":7443},
{"id":318,"name":"Joann","lat":-8.1677158,"lon":113.7751826,"puntuation":1.3,"address":"20542 Bay Street","date":"5/14/2023","time":"8:09 AM","tarifa_moto":6621,"tarifa_carro":7398},
{"id":319,"name":"Kurt","lat":44.412308,"lon":131.152545,"puntuation":2.3,"address":"3998 Buell Parkway","date":"4/5/2023","time":"5:54 AM","tarifa_moto":4369,"tarifa_carro":7875},
{"id":320,"name":"Bowie","lat":49.715157,"lon":19.65651,"puntuation":4.6,"address":"37 Golden Leaf Park","date":"6/12/2023","time":"7:25 PM","tarifa_moto":8903,"tarifa_carro":7907},
{"id":321,"name":"Alfy","lat":40.458916,"lon":-7.8775484,"puntuation":2.5,"address":"0 Dawn Place","date":"11/29/2023","time":"5:34 PM","tarifa_moto":9889,"tarifa_carro":8520},
{"id":322,"name":"Osborne","lat":5.799059,"lon":-75.907993,"puntuation":2.0,"address":"6672 Manufacturers Drive","date":"10/21/2023","time":"1:20 PM","tarifa_moto":4117,"tarifa_carro":8776},
{"id":323,"name":"Lisette","lat":38.7263653,"lon":-9.2359767,"puntuation":4.8,"address":"7868 Kinsman Place","date":"10/4/2023","time":"2:01 AM","tarifa_moto":5380,"tarifa_carro":6426},
{"id":324,"name":"Agustin","lat":23.021478,"lon":113.121435,"puntuation":2.6,"address":"13 Scott Street","date":"11/17/2023","time":"6:13 AM","tarifa_moto":9242,"tarifa_carro":9975},
{"id":325,"name":"Erena","lat":41.0647873,"lon":-8.5507322,"puntuation":2.2,"address":"726 Shopko Terrace","date":"2/27/2024","time":"5:13 PM","tarifa_moto":5553,"tarifa_carro":7040},
{"id":326,"name":"Nannie","lat":38.9485485,"lon":22.8400018,"puntuation":1.7,"address":"9 Bonner Junction","date":"6/7/2023","time":"5:12 PM","tarifa_moto":7752,"tarifa_carro":8267},
{"id":327,"name":"Duke","lat":57.9300205,"lon":12.5362113,"puntuation":4.4,"address":"97 Hermina Lane","date":"2/20/2024","time":"7:14 PM","tarifa_moto":9759,"tarifa_carro":9341},
{"id":328,"name":"Mathe","lat":57.7238408,"lon":12.0887312,"puntuation":4.8,"address":"8 Monterey Center","date":"12/17/2023","time":"8:39 PM","tarifa_moto":7313,"tarifa_carro":7448},
{"id":329,"name":"Arel","lat":54.7674474,"lon":58.2897934,"puntuation":4.3,"address":"1466 Welch Avenue","date":"2/28/2024","time":"8:29 PM","tarifa_moto":8005,"tarifa_carro":8505},
{"id":330,"name":"Denys","lat":15.552727,"lon":48.516388,"puntuation":1.9,"address":"1 Rowland Point","date":"6/8/2023","time":"11:14 PM","tarifa_moto":5671,"tarifa_carro":9123},
{"id":331,"name":"Elonore","lat":53.3797233,"lon":49.5564219,"puntuation":5.0,"address":"17 Veith Court","date":"12/9/2023","time":"1:06 AM","tarifa_moto":8493,"tarifa_carro":8458},
{"id":332,"name":"Ernesto","lat":40.456951,"lon":115.974848,"puntuation":2.7,"address":"9872 Canary Street","date":"10/25/2023","time":"4:06 PM","tarifa_moto":7929,"tarifa_carro":9406},
{"id":333,"name":"Dominik","lat":40.3380072,"lon":-75.9753516,"puntuation":4.9,"address":"59324 Helena Place","date":"3/28/2023","time":"8:41 PM","tarifa_moto":4118,"tarifa_carro":8513},
{"id":334,"name":"Trueman","lat":53.9165867,"lon":18.1905615,"puntuation":3.2,"address":"5 Crest Line Point","date":"5/22/2023","time":"4:14 PM","tarifa_moto":5381,"tarifa_carro":7034},
{"id":335,"name":"Joannes","lat":41.3047616,"lon":69.2817267,"puntuation":2.8,"address":"821 Miller Alley","date":"2/17/2024","time":"7:32 AM","tarifa_moto":5271,"tarifa_carro":8115},
{"id":336,"name":"Gisela","lat":30.600064,"lon":114.309091,"puntuation":3.4,"address":"83415 Troy Point","date":"6/7/2023","time":"1:05 PM","tarifa_moto":6258,"tarifa_carro":7309},
{"id":337,"name":"Livy","lat":38.9175948,"lon":22.3032419,"puntuation":3.6,"address":"51 Walton Plaza","date":"6/17/2023","time":"8:48 PM","tarifa_moto":6258,"tarifa_carro":9320},
{"id":338,"name":"Kincaid","lat":-16.4708895,"lon":46.7164256,"puntuation":1.1,"address":"757 Schmedeman Trail","date":"1/5/2024","time":"9:24 AM","tarifa_moto":8795,"tarifa_carro":9816},
{"id":339,"name":"Chloette","lat":46.1705063,"lon":1.8852108,"puntuation":1.2,"address":"37 Menomonie Street","date":"10/7/2023","time":"8:29 PM","tarifa_moto":5059,"tarifa_carro":8443},
{"id":340,"name":"Normie","lat":-22.433333,"lon":26.416667,"puntuation":1.4,"address":"75 Mandrake Junction","date":"1/11/2024","time":"10:22 AM","tarifa_moto":7479,"tarifa_carro":8106},
{"id":341,"name":"Doyle","lat":27.388611,"lon":-110.1216666,"puntuation":3.2,"address":"500 Hudson Pass","date":"10/30/2023","time":"6:16 PM","tarifa_moto":4152,"tarifa_carro":8719},
{"id":342,"name":"Weider","lat":57.759167,"lon":16.6236443,"puntuation":4.5,"address":"64338 Oak Pass","date":"5/2/2023","time":"8:35 PM","tarifa_moto":5812,"tarifa_carro":6468},
{"id":343,"name":"Arluene","lat":24.89604,"lon":118.592147,"puntuation":2.3,"address":"0153 Orin Pass","date":"1/9/2024","time":"4:57 AM","tarifa_moto":8523,"tarifa_carro":6935},
{"id":344,"name":"Katti","lat":49.6819305,"lon":18.3673216,"puntuation":2.6,"address":"412 Hansons Terrace","date":"6/27/2023","time":"5:03 AM","tarifa_moto":4545,"tarifa_carro":7313},
{"id":345,"name":"Jessi","lat":56.9084942,"lon":36.234674,"puntuation":2.0,"address":"341 Harbort Street","date":"1/9/2024","time":"12:42 PM","tarifa_moto":4270,"tarifa_carro":7951},
{"id":346,"name":"Jill","lat":-16.7073638,"lon":-47.5275422,"puntuation":4.7,"address":"81472 Del Sol Street","date":"7/19/2023","time":"4:18 PM","tarifa_moto":8987,"tarifa_carro":9862},
{"id":347,"name":"Faye","lat":19.3673204,"lon":-70.7578553,"puntuation":1.9,"address":"4 Northwestern Lane","date":"1/7/2024","time":"12:39 PM","tarifa_moto":5294,"tarifa_carro":7570},
{"id":348,"name":"Bunni","lat":-7.1239748,"lon":108.1992015,"puntuation":1.4,"address":"66 Victoria Crossing","date":"9/3/2023","time":"3:54 PM","tarifa_moto":9053,"tarifa_carro":6385},
{"id":349,"name":"Philly","lat":50.3901526,"lon":106.1051454,"puntuation":4.1,"address":"689 Rusk Street","date":"3/29/2023","time":"12:30 PM","tarifa_moto":9858,"tarifa_carro":6019},
{"id":350,"name":"Sherm","lat":31.893274,"lon":121.255306,"puntuation":2.2,"address":"2 Jay Terrace","date":"7/22/2023","time":"5:08 AM","tarifa_moto":5116,"tarifa_carro":6325},
{"id":351,"name":"Nestor","lat":-7.3817792,"lon":110.2042913,"puntuation":2.8,"address":"584 Service Junction","date":"7/20/2023","time":"2:38 AM","tarifa_moto":9537,"tarifa_carro":6572},
{"id":352,"name":"Brandtr","lat":-7.5471852,"lon":112.7137227,"puntuation":2.8,"address":"367 Morning Road","date":"3/21/2023","time":"8:49 PM","tarifa_moto":5089,"tarifa_carro":9441},
{"id":353,"name":"Gloriane","lat":39.128502,"lon":113.139828,"puntuation":4.2,"address":"3 Roth Park","date":"10/28/2023","time":"6:01 AM","tarifa_moto":7870,"tarifa_carro":7691},
{"id":354,"name":"Neville","lat":36.5386629,"lon":52.6764543,"puntuation":1.6,"address":"90 Green Alley","date":"11/11/2023","time":"5:17 AM","tarifa_moto":8127,"tarifa_carro":8436},
{"id":355,"name":"Lanette","lat":34.570012,"lon":38.2921653,"puntuation":3.3,"address":"52 Warner Plaza","date":"5/13/2023","time":"9:48 PM","tarifa_moto":6302,"tarifa_carro":7587},
{"id":356,"name":"Tore","lat":20.5479443,"lon":-97.4513197,"puntuation":1.3,"address":"79435 Novick Hill","date":"2/12/2024","time":"7:18 AM","tarifa_moto":7665,"tarifa_carro":9075},
{"id":357,"name":"Milly","lat":11.383932,"lon":107.5386809,"puntuation":3.0,"address":"459 Oak Park","date":"6/27/2023","time":"7:04 PM","tarifa_moto":8905,"tarifa_carro":6948},
{"id":358,"name":"Orsola","lat":-6.8952768,"lon":111.6124134,"puntuation":3.7,"address":"618 Rutledge Drive","date":"10/2/2023","time":"5:16 AM","tarifa_moto":7110,"tarifa_carro":8801},
{"id":359,"name":"Baily","lat":-25.1720132,"lon":46.0897124,"puntuation":4.9,"address":"713 Dakota Avenue","date":"5/20/2023","time":"6:35 AM","tarifa_moto":6353,"tarifa_carro":7148},
{"id":360,"name":"Byron","lat":-10.9564306,"lon":-76.933337,"puntuation":2.8,"address":"775 Canary Center","date":"10/28/2023","time":"9:53 PM","tarifa_moto":4856,"tarifa_carro":6271},
{"id":361,"name":"Rodge","lat":54.3418823,"lon":10.1150681,"puntuation":1.9,"address":"19797 Jackson Pass","date":"2/26/2024","time":"12:44 AM","tarifa_moto":6512,"tarifa_carro":7770},
{"id":362,"name":"Lee","lat":14.8288248,"lon":-86.5728785,"puntuation":4.1,"address":"41 Forest Run Point","date":"8/25/2023","time":"7:16 AM","tarifa_moto":4107,"tarifa_carro":9953},
{"id":363,"name":"Tonie","lat":14.6276215,"lon":-87.6075294,"puntuation":5.0,"address":"5932 Granby Point","date":"11/14/2023","time":"10:06 PM","tarifa_moto":9509,"tarifa_carro":7380},
{"id":364,"name":"Jaime","lat":5.4238154,"lon":-75.8185314,"puntuation":2.8,"address":"290 Mesta Trail","date":"4/26/2023","time":"7:24 AM","tarifa_moto":4479,"tarifa_carro":6822},
{"id":365,"name":"Aguistin","lat":11.7775345,"lon":10.4494906,"puntuation":3.1,"address":"35 Twin Pines Pass","date":"10/26/2023","time":"6:17 PM","tarifa_moto":8472,"tarifa_carro":7410},
{"id":366,"name":"Alyda","lat":58.9108802,"lon":17.9314968,"puntuation":1.6,"address":"4 Straubel Center","date":"10/14/2023","time":"11:30 AM","tarifa_moto":8739,"tarifa_carro":8622},
{"id":367,"name":"Eula","lat":30.601966,"lon":115.438847,"puntuation":1.7,"address":"68 Melody Alley","date":"10/6/2023","time":"11:29 AM","tarifa_moto":7782,"tarifa_carro":7439},
{"id":368,"name":"Kaye","lat":-27.9094431,"lon":-53.3122927,"puntuation":1.6,"address":"05964 3rd Junction","date":"3/24/2023","time":"9:44 PM","tarifa_moto":9172,"tarifa_carro":7175},
{"id":369,"name":"Florry","lat":29.6252177,"lon":-95.2208569,"puntuation":3.7,"address":"7375 Kenwood Crossing","date":"3/11/2024","time":"8:18 PM","tarifa_moto":5038,"tarifa_carro":8522},
{"id":370,"name":"Deedee","lat":53.3177535,"lon":-6.2324705,"puntuation":3.0,"address":"28852 Huxley Place","date":"1/18/2024","time":"6:36 AM","tarifa_moto":5534,"tarifa_carro":7302},
{"id":371,"name":"Stavros","lat":55.1052515,"lon":82.9514853,"puntuation":4.9,"address":"47 Northview Circle","date":"1/31/2024","time":"7:22 AM","tarifa_moto":8309,"tarifa_carro":7851},
{"id":372,"name":"Gerty","lat":-22.787936,"lon":-50.2199938,"puntuation":3.7,"address":"882 Veith Road","date":"10/20/2023","time":"4:17 PM","tarifa_moto":8430,"tarifa_carro":8915},
{"id":373,"name":"Gilli","lat":-6.4991921,"lon":106.8915948,"puntuation":4.8,"address":"31 Surrey Court","date":"11/8/2023","time":"12:37 AM","tarifa_moto":8290,"tarifa_carro":9383},
{"id":374,"name":"Cori","lat":63.1454739,"lon":22.7948195,"puntuation":2.5,"address":"81 Vera Plaza","date":"8/18/2023","time":"5:02 PM","tarifa_moto":6093,"tarifa_carro":9851},
{"id":375,"name":"Julina","lat":38.7952662,"lon":-9.4665149,"puntuation":4.9,"address":"1452 Claremont Hill","date":"2/12/2024","time":"2:33 PM","tarifa_moto":7833,"tarifa_carro":9531},
{"id":376,"name":"Cynthea","lat":-22.8631923,"lon":-43.7779091,"puntuation":1.7,"address":"9 2nd Point","date":"1/29/2024","time":"11:01 AM","tarifa_moto":4524,"tarifa_carro":9634},
{"id":377,"name":"Hedvig","lat":-7.5590563,"lon":112.7509656,"puntuation":4.7,"address":"5 Northwestern Terrace","date":"6/21/2023","time":"6:59 AM","tarifa_moto":4959,"tarifa_carro":7817},
{"id":378,"name":"Hamlen","lat":20.1566488,"lon":-76.947022,"puntuation":4.0,"address":"8008 Birchwood Street","date":"10/23/2023","time":"7:37 AM","tarifa_moto":8983,"tarifa_carro":6321},
{"id":379,"name":"Glennie","lat":41.666028,"lon":122.1234429,"puntuation":3.1,"address":"6649 Spenser Circle","date":"1/7/2024","time":"11:08 AM","tarifa_moto":5577,"tarifa_carro":7502},
{"id":380,"name":"Creighton","lat":37.87059,"lon":112.548879,"puntuation":3.8,"address":"14 Montana Pass","date":"2/27/2024","time":"4:33 AM","tarifa_moto":6968,"tarifa_carro":8990},
{"id":381,"name":"Augie","lat":28.174872,"lon":116.577562,"puntuation":1.9,"address":"752 Leroy Junction","date":"10/4/2023","time":"8:38 PM","tarifa_moto":5793,"tarifa_carro":6087},
{"id":382,"name":"Burch","lat":8.022507,"lon":123.48051,"puntuation":2.9,"address":"595 Roxbury Trail","date":"6/17/2023","time":"6:36 PM","tarifa_moto":7117,"tarifa_carro":7577},
{"id":383,"name":"Sayres","lat":14.549965,"lon":-86.8270545,"puntuation":2.6,"address":"46 Sommers Park","date":"1/26/2024","time":"7:10 AM","tarifa_moto":6373,"tarifa_carro":8522},
{"id":384,"name":"Geoff","lat":48.013733,"lon":122.737467,"puntuation":5.0,"address":"8 Elka Park","date":"1/1/2024","time":"2:47 PM","tarifa_moto":8552,"tarifa_carro":8387},
{"id":385,"name":"Annora","lat":12.432918,"lon":8.5144352,"puntuation":2.2,"address":"9 Atwood Trail","date":"12/31/2023","time":"10:39 AM","tarifa_moto":5275,"tarifa_carro":9805},
{"id":386,"name":"Mireielle","lat":43.4945737,"lon":5.8978018,"puntuation":4.6,"address":"010 Kropf Alley","date":"2/28/2024","time":"8:27 PM","tarifa_moto":7680,"tarifa_carro":7935},
{"id":387,"name":"Karlotta","lat":15.8,"lon":43.333333,"puntuation":4.6,"address":"8 Glendale Point","date":"4/15/2023","time":"11:29 PM","tarifa_moto":6732,"tarifa_carro":7619},
{"id":388,"name":"Yelena","lat":48.4242028,"lon":142.0863655,"puntuation":1.8,"address":"4 Birchwood Circle","date":"4/22/2023","time":"8:52 AM","tarifa_moto":5130,"tarifa_carro":9137},
{"id":389,"name":"Ellary","lat":9.9160172,"lon":123.9154682,"puntuation":1.2,"address":"3536 Carpenter Place","date":"1/12/2024","time":"8:05 PM","tarifa_moto":4933,"tarifa_carro":7894},
{"id":390,"name":"Raphaela","lat":52.6029163,"lon":41.4669909,"puntuation":3.7,"address":"334 Harbort Lane","date":"2/9/2024","time":"2:30 AM","tarifa_moto":9166,"tarifa_carro":6414},
{"id":391,"name":"Leonelle","lat":-34.7318914,"lon":-58.6341359,"puntuation":2.2,"address":"4 Lerdahl Circle","date":"6/7/2023","time":"5:54 PM","tarifa_moto":6658,"tarifa_carro":9811},
{"id":392,"name":"Minor","lat":-14.2795685,"lon":-170.6923312,"puntuation":2.6,"address":"9 Pine View Avenue","date":"1/15/2024","time":"6:46 AM","tarifa_moto":4821,"tarifa_carro":7886},
{"id":393,"name":"Aurelie","lat":54.9896116,"lon":57.6874206,"puntuation":4.4,"address":"05683 Lawn Drive","date":"9/4/2023","time":"1:12 PM","tarifa_moto":6483,"tarifa_carro":8530},
{"id":394,"name":"Joletta","lat":54.6,"lon":24.16667,"puntuation":2.4,"address":"9684 Paget Pass","date":"1/12/2024","time":"1:20 AM","tarifa_moto":7718,"tarifa_carro":9725},
{"id":395,"name":"Jojo","lat":37.617044,"lon":120.79935,"puntuation":5.0,"address":"74 Tennyson Terrace","date":"1/22/2024","time":"5:09 AM","tarifa_moto":8269,"tarifa_carro":9976},
{"id":396,"name":"Gilemette","lat":30.368126,"lon":102.814531,"puntuation":3.4,"address":"39771 Nancy Crossing","date":"11/7/2023","time":"1:00 PM","tarifa_moto":7653,"tarifa_carro":6310},
{"id":397,"name":"Cosme","lat":27.799581,"lon":106.839279,"puntuation":2.5,"address":"75 Debra Parkway","date":"4/1/2023","time":"11:48 PM","tarifa_moto":7673,"tarifa_carro":7621},
{"id":398,"name":"Bridget","lat":39.9793657,"lon":-75.1253492,"puntuation":1.3,"address":"2 Cody Alley","date":"7/4/2023","time":"3:23 AM","tarifa_moto":7927,"tarifa_carro":7464},
{"id":399,"name":"Eugen","lat":10.4452129,"lon":106.4729811,"puntuation":4.6,"address":"9025 Gerald Circle","date":"7/4/2023","time":"6:57 PM","tarifa_moto":8169,"tarifa_carro":7832},
{"id":400,"name":"Evelyn","lat":59.260523,"lon":15.1978279,"puntuation":4.4,"address":"2502 Eastlawn Alley","date":"11/14/2023","time":"8:50 PM","tarifa_moto":6663,"tarifa_carro":6933},
{"id":401,"name":"Carter","lat":43.2,"lon":82.63333,"puntuation":2.8,"address":"284 Badeau Avenue","date":"5/7/2023","time":"3:05 AM","tarifa_moto":7759,"tarifa_carro":7954},
{"id":402,"name":"Marcia","lat":20.0429063,"lon":110.354037,"puntuation":2.8,"address":"1946 8th Lane","date":"9/7/2023","time":"4:03 AM","tarifa_moto":9711,"tarifa_carro":6506},
{"id":403,"name":"Junia","lat":30.63166,"lon":114.040353,"puntuation":4.5,"address":"8777 Village Park","date":"1/2/2024","time":"8:55 PM","tarifa_moto":5237,"tarifa_carro":7679},
{"id":404,"name":"Salem","lat":23.301616,"lon":115.660142,"puntuation":5.0,"address":"7086 Trailsway Pass","date":"10/27/2023","time":"2:31 PM","tarifa_moto":6756,"tarifa_carro":6338},
{"id":405,"name":"Philip","lat":17.6495376,"lon":95.7773898,"puntuation":1.0,"address":"103 Vidon Court","date":"10/1/2023","time":"1:17 AM","tarifa_moto":8647,"tarifa_carro":9624},
{"id":406,"name":"Tann","lat":4.88917,"lon":-75.870743,"puntuation":4.9,"address":"0 Amoth Circle","date":"3/16/2024","time":"9:55 PM","tarifa_moto":9133,"tarifa_carro":9368},
{"id":407,"name":"Wally","lat":38.3204422,"lon":141.0226267,"puntuation":4.0,"address":"32 Wayridge Pass","date":"4/20/2023","time":"9:34 AM","tarifa_moto":5402,"tarifa_carro":8286},
{"id":408,"name":"Ethelin","lat":40.9817461,"lon":20.5073937,"puntuation":3.6,"address":"6 Mallard Hill","date":"1/2/2024","time":"7:55 AM","tarifa_moto":9702,"tarifa_carro":8458},
{"id":409,"name":"Adriane","lat":28.650072,"lon":121.261886,"puntuation":4.5,"address":"79 Arkansas Place","date":"6/17/2023","time":"2:38 AM","tarifa_moto":6396,"tarifa_carro":6636},
{"id":410,"name":"Susanna","lat":-8.792325,"lon":120.960602,"puntuation":3.9,"address":"099 Westport Way","date":"1/20/2024","time":"10:44 PM","tarifa_moto":9557,"tarifa_carro":6562},
{"id":411,"name":"Kip","lat":10.4009358,"lon":106.22868,"puntuation":1.2,"address":"14690 Dixon Crossing","date":"11/1/2023","time":"4:10 AM","tarifa_moto":5404,"tarifa_carro":6901},
{"id":412,"name":"Guendolen","lat":49.874775,"lon":19.628749,"puntuation":3.3,"address":"8 7th Center","date":"9/4/2023","time":"10:34 PM","tarifa_moto":4633,"tarifa_carro":9872},
{"id":413,"name":"Bren","lat":38.6027178,"lon":-9.1734583,"puntuation":2.7,"address":"3055 Thompson Junction","date":"6/11/2023","time":"8:24 PM","tarifa_moto":9580,"tarifa_carro":6677},
{"id":414,"name":"Brady","lat":36.759507,"lon":110.632006,"puntuation":4.0,"address":"418 Eagle Crest Way","date":"6/25/2023","time":"2:09 AM","tarifa_moto":6490,"tarifa_carro":9439},
{"id":415,"name":"Borden","lat":18.090238,"lon":-77.1091697,"puntuation":3.0,"address":"49 Golf View Park","date":"9/28/2023","time":"12:43 PM","tarifa_moto":5858,"tarifa_carro":7562},
{"id":416,"name":"Reggie","lat":12.3640592,"lon":13.8277397,"puntuation":2.2,"address":"2 Hoepker Point","date":"10/7/2023","time":"2:51 PM","tarifa_moto":5962,"tarifa_carro":9631},
{"id":417,"name":"Philbert","lat":51.1644956,"lon":18.2903712,"puntuation":3.1,"address":"53 Nobel Parkway","date":"5/7/2023","time":"12:44 PM","tarifa_moto":5158,"tarifa_carro":9162},
{"id":418,"name":"Rozanna","lat":28.185386,"lon":113.032539,"puntuation":4.8,"address":"74 Shopko Drive","date":"12/8/2023","time":"6:03 PM","tarifa_moto":5965,"tarifa_carro":6338},
{"id":419,"name":"Arleyne","lat":41.777702,"lon":84.252156,"puntuation":2.1,"address":"4 Crownhardt Circle","date":"1/7/2024","time":"12:58 PM","tarifa_moto":6487,"tarifa_carro":6717},
{"id":420,"name":"Rudiger","lat":29.5320522,"lon":35.0063209,"puntuation":3.7,"address":"4154 Hansons Plaza","date":"10/13/2023","time":"2:29 AM","tarifa_moto":4181,"tarifa_carro":6145},
{"id":421,"name":"Raddie","lat":-11.7910581,"lon":-38.3562554,"puntuation":4.1,"address":"42188 Westport Street","date":"10/1/2023","time":"8:50 AM","tarifa_moto":8488,"tarifa_carro":9849},
{"id":422,"name":"Reggy","lat":10.3570803,"lon":124.9696526,"puntuation":3.8,"address":"7984 Grasskamp Center","date":"12/9/2023","time":"11:58 PM","tarifa_moto":7875,"tarifa_carro":7432},
{"id":423,"name":"Corey","lat":34.6399443,"lon":50.8759419,"puntuation":3.1,"address":"670 Straubel Hill","date":"4/14/2023","time":"5:39 AM","tarifa_moto":7695,"tarifa_carro":9570},
{"id":424,"name":"Shannon","lat":15.58224,"lon":108.11422,"puntuation":1.9,"address":"3655 3rd Plaza","date":"11/29/2023","time":"2:58 AM","tarifa_moto":9745,"tarifa_carro":8937},
{"id":425,"name":"Madelle","lat":27.372513,"lon":117.731346,"puntuation":4.8,"address":"42874 Hanover Crossing","date":"12/31/2023","time":"2:49 PM","tarifa_moto":5253,"tarifa_carro":8342},
{"id":426,"name":"Felicdad","lat":8.3500276,"lon":80.4484871,"puntuation":2.2,"address":"58819 Morning Place","date":"1/5/2024","time":"10:00 PM","tarifa_moto":8645,"tarifa_carro":7186},
{"id":427,"name":"Karia","lat":48.5428567,"lon":22.9948916,"puntuation":3.0,"address":"554 Jackson Place","date":"7/26/2023","time":"6:00 AM","tarifa_moto":6313,"tarifa_carro":6698},
{"id":428,"name":"Jordon","lat":-6.9957759,"lon":112.5677183,"puntuation":2.0,"address":"55813 Cottonwood Circle","date":"4/26/2023","time":"1:52 AM","tarifa_moto":9031,"tarifa_carro":6967},
{"id":429,"name":"Fayth","lat":-7.3632094,"lon":109.9001796,"puntuation":4.1,"address":"30 Barby Street","date":"5/22/2023","time":"4:18 PM","tarifa_moto":7443,"tarifa_carro":8782},
{"id":430,"name":"Alyssa","lat":27.8120208,"lon":66.6116916,"puntuation":3.5,"address":"5 Burning Wood Terrace","date":"1/2/2024","time":"1:09 PM","tarifa_moto":7090,"tarifa_carro":8988},
{"id":431,"name":"Cooper","lat":57.9093249,"lon":60.166299,"puntuation":3.8,"address":"95958 Shasta Avenue","date":"11/6/2023","time":"10:42 PM","tarifa_moto":5119,"tarifa_carro":9767},
{"id":432,"name":"Constantine","lat":-8.5135139,"lon":-35.3747515,"puntuation":3.8,"address":"8788 Bowman Lane","date":"8/19/2023","time":"6:14 PM","tarifa_moto":7025,"tarifa_carro":8006},
{"id":433,"name":"Yorgos","lat":-22.4776906,"lon":-46.6347377,"puntuation":1.7,"address":"7186 Rigney Park","date":"4/21/2023","time":"5:42 AM","tarifa_moto":4519,"tarifa_carro":8716},
{"id":434,"name":"Mortie","lat":-8.1879,"lon":111.4182,"puntuation":1.6,"address":"15 Cambridge Lane","date":"4/19/2023","time":"6:58 PM","tarifa_moto":7684,"tarifa_carro":7721},
{"id":435,"name":"Gipsy","lat":31.2371338,"lon":121.498955,"puntuation":3.6,"address":"2 Novick Center","date":"12/22/2023","time":"11:36 AM","tarifa_moto":4126,"tarifa_carro":8235},
{"id":436,"name":"Alta","lat":3.0968502,"lon":101.6454408,"puntuation":2.2,"address":"5296 Buell Terrace","date":"3/28/2023","time":"2:15 PM","tarifa_moto":8997,"tarifa_carro":9946},
{"id":437,"name":"Liliane","lat":-22.4709659,"lon":-44.4513347,"puntuation":2.4,"address":"3 Lakeland Terrace","date":"5/13/2023","time":"8:38 PM","tarifa_moto":8836,"tarifa_carro":8156},
{"id":438,"name":"Korey","lat":-5.4008202,"lon":105.2677562,"puntuation":4.0,"address":"003 Ronald Regan Road","date":"3/29/2023","time":"4:50 PM","tarifa_moto":8447,"tarifa_carro":8548},
{"id":439,"name":"Breena","lat":40.644621,"lon":122.509131,"puntuation":1.8,"address":"5314 Banding Plaza","date":"4/4/2023","time":"11:41 AM","tarifa_moto":9919,"tarifa_carro":9536},
{"id":440,"name":"Gauthier","lat":50.1164,"lon":-122.96946,"puntuation":2.6,"address":"8059 Kim Way","date":"6/2/2023","time":"4:17 AM","tarifa_moto":4980,"tarifa_carro":9548},
{"id":441,"name":"Miof mela","lat":-5.5205551,"lon":-47.4790966,"puntuation":4.8,"address":"061 Maywood Plaza","date":"1/22/2024","time":"12:37 AM","tarifa_moto":4184,"tarifa_carro":7092},
{"id":442,"name":"Hailey","lat":39.728885,"lon":116.341609,"puntuation":2.3,"address":"24 Prentice Point","date":"4/14/2023","time":"10:51 AM","tarifa_moto":4795,"tarifa_carro":7121},
{"id":443,"name":"Shaina","lat":67.3340943,"lon":14.4227656,"puntuation":1.6,"address":"598 Mendota Street","date":"5/9/2023","time":"6:03 AM","tarifa_moto":7463,"tarifa_carro":9541},
{"id":444,"name":"Sallyanne","lat":42.3894673,"lon":23.7275817,"puntuation":1.4,"address":"18831 Emmet Terrace","date":"2/13/2024","time":"8:15 AM","tarifa_moto":6975,"tarifa_carro":9797},
{"id":445,"name":"Maddie","lat":48.2216224,"lon":135.0579895,"puntuation":1.8,"address":"4855 Westerfield Road","date":"12/28/2023","time":"10:16 PM","tarifa_moto":6990,"tarifa_carro":6065},
{"id":446,"name":"Leonie","lat":50.5372538,"lon":23.5454126,"puntuation":2.4,"address":"872 Fisk Point","date":"10/27/2023","time":"6:32 PM","tarifa_moto":6391,"tarifa_carro":8378},
{"id":447,"name":"Benoit","lat":-16.820257,"lon":-49.2473044,"puntuation":2.6,"address":"67 Veith Center","date":"3/2/2024","time":"1:40 AM","tarifa_moto":8797,"tarifa_carro":8868},
{"id":448,"name":"Trix","lat":48.9172739,"lon":31.719254,"puntuation":2.2,"address":"40 Grasskamp Place","date":"12/19/2023","time":"3:43 AM","tarifa_moto":7163,"tarifa_carro":9397},
{"id":449,"name":"Marcellus","lat":37.0597622,"lon":140.8775769,"puntuation":4.1,"address":"8 South Pass","date":"5/4/2023","time":"1:36 AM","tarifa_moto":8503,"tarifa_carro":8208},
{"id":450,"name":"Suki","lat":42.4371884,"lon":59.6251488,"puntuation":3.0,"address":"52 Schlimgen Avenue","date":"1/11/2024","time":"6:45 AM","tarifa_moto":4912,"tarifa_carro":8354},
{"id":451,"name":"Emmey","lat":-28.2963334,"lon":-52.793776,"puntuation":3.4,"address":"629 Mallory Parkway","date":"11/12/2023","time":"8:30 PM","tarifa_moto":9632,"tarifa_carro":9964},
{"id":452,"name":"Loralee","lat":30.453667,"lon":114.872199,"puntuation":4.3,"address":"20381 Sutteridge Parkway","date":"2/27/2024","time":"4:52 PM","tarifa_moto":7490,"tarifa_carro":6355},
{"id":453,"name":"Patton","lat":45.6181396,"lon":-73.8394482,"puntuation":4.8,"address":"704 International Park","date":"9/30/2023","time":"9:49 AM","tarifa_moto":4081,"tarifa_carro":8104},
{"id":454,"name":"Laurence","lat":4.345152,"lon":-74.361823,"puntuation":2.5,"address":"49226 Commercial Circle","date":"7/13/2023","time":"9:19 AM","tarifa_moto":7796,"tarifa_carro":7071},
{"id":455,"name":"Caldwell","lat":42.8004655,"lon":23.4195159,"puntuation":2.9,"address":"5 Grim Hill","date":"7/9/2023","time":"8:53 PM","tarifa_moto":7850,"tarifa_carro":7131},
{"id":456,"name":"Ethe","lat":0.2213005,"lon":99.634135,"puntuation":3.7,"address":"62 Paget Place","date":"8/17/2023","time":"10:05 PM","tarifa_moto":6771,"tarifa_carro":9516},
{"id":457,"name":"Dyann","lat":9.1118027,"lon":99.2065202,"puntuation":2.2,"address":"99862 Anzinger Parkway","date":"6/17/2023","time":"9:53 PM","tarifa_moto":5752,"tarifa_carro":8327},
{"id":458,"name":"Sheena","lat":42.6688027,"lon":129.1189472,"puntuation":3.1,"address":"50821 Northridge Point","date":"5/11/2023","time":"8:22 AM","tarifa_moto":7782,"tarifa_carro":9795},
{"id":459,"name":"Milo","lat":23.1243988,"lon":113.2475087,"puntuation":2.1,"address":"777 Mayfield Court","date":"10/14/2023","time":"1:33 PM","tarifa_moto":8842,"tarifa_carro":7466},
{"id":460,"name":"Dalila","lat":29.028066,"lon":106.651361,"puntuation":2.7,"address":"553 David Pass","date":"12/31/2023","time":"11:19 AM","tarifa_moto":8366,"tarifa_carro":7450},
{"id":461,"name":"Mareah","lat":-17.28891,"lon":-70.04363,"puntuation":3.5,"address":"210 Sherman Court","date":"7/13/2023","time":"12:36 PM","tarifa_moto":7011,"tarifa_carro":6980},
{"id":462,"name":"Heath","lat":38.111851,"lon":-7.2176902,"puntuation":1.4,"address":"4512 Hanover Terrace","date":"5/5/2023","time":"5:17 AM","tarifa_moto":6504,"tarifa_carro":9032},
{"id":463,"name":"Daron","lat":-2.1596406,"lon":-79.8184684,"puntuation":3.1,"address":"9198 Dottie Drive","date":"4/6/2023","time":"3:20 PM","tarifa_moto":5378,"tarifa_carro":8335},
{"id":464,"name":"Carly","lat":-9.408551,"lon":119.3192266,"puntuation":3.8,"address":"12642 Hauk Hill","date":"8/6/2023","time":"9:17 PM","tarifa_moto":6805,"tarifa_carro":9929},
{"id":465,"name":"Brittni","lat":43.42993,"lon":83.26077,"puntuation":3.9,"address":"4 Maywood Park","date":"6/18/2023","time":"10:09 AM","tarifa_moto":8291,"tarifa_carro":9731},
{"id":466,"name":"Somerset","lat":7.1809842,"lon":7.9797219,"puntuation":4.5,"address":"020 Northridge Circle","date":"1/3/2024","time":"1:23 AM","tarifa_moto":8416,"tarifa_carro":9784},
{"id":467,"name":"Barney","lat":27.283955,"lon":105.291643,"puntuation":4.8,"address":"4 Hooker Place","date":"8/28/2023","time":"6:33 PM","tarifa_moto":8474,"tarifa_carro":9837},
{"id":468,"name":"Dilan","lat":39.1955731,"lon":-9.263539,"puntuation":4.2,"address":"86 Drewry Pass","date":"6/20/2023","time":"6:31 AM","tarifa_moto":5265,"tarifa_carro":6042},
{"id":469,"name":"Sonnie","lat":46.1417288,"lon":15.0844894,"puntuation":4.1,"address":"17156 Veith Point","date":"1/13/2024","time":"2:43 AM","tarifa_moto":5663,"tarifa_carro":9088},
{"id":470,"name":"Murvyn","lat":43.4595044,"lon":39.9310272,"puntuation":1.9,"address":"730 Westend Center","date":"9/11/2023","time":"1:40 AM","tarifa_moto":5549,"tarifa_carro":8400},
{"id":471,"name":"Andreas","lat":-24.5415767,"lon":-56.8198691,"puntuation":4.1,"address":"8 Old Shore Way","date":"11/17/2023","time":"5:22 AM","tarifa_moto":8605,"tarifa_carro":6181},
{"id":472,"name":"Florrie","lat":-6.3413734,"lon":106.5495683,"puntuation":1.5,"address":"8333 Saint Paul Court","date":"11/8/2023","time":"9:25 PM","tarifa_moto":5610,"tarifa_carro":6995},
{"id":473,"name":"Vassily","lat":8.972681,"lon":125.408732,"puntuation":1.3,"address":"264 Ridgeview Center","date":"4/23/2023","time":"4:31 AM","tarifa_moto":7302,"tarifa_carro":6675},
{"id":474,"name":"Skippy","lat":56.4797638,"lon":57.7301714,"puntuation":2.9,"address":"368 Rieder Crossing","date":"3/17/2024","time":"12:58 PM","tarifa_moto":8778,"tarifa_carro":8640},
{"id":475,"name":"Dougie","lat":50.3348673,"lon":13.8437009,"puntuation":1.4,"address":"2 Judy Road","date":"8/6/2023","time":"7:23 PM","tarifa_moto":4751,"tarifa_carro":7116},
{"id":476,"name":"Georgianne","lat":-11.403372,"lon":-74.752726,"puntuation":1.5,"address":"686 Rowland Circle","date":"6/6/2023","time":"7:35 AM","tarifa_moto":9973,"tarifa_carro":9810},
{"id":477,"name":"Colver","lat":40.8782107,"lon":14.2657584,"puntuation":3.7,"address":"2742 Atwood Pass","date":"1/8/2024","time":"11:33 PM","tarifa_moto":5197,"tarifa_carro":6220},
{"id":478,"name":"Clifford","lat":59.3473789,"lon":18.0975334,"puntuation":3.8,"address":"82 Park Meadow Lane","date":"4/29/2023","time":"5:20 AM","tarifa_moto":8329,"tarifa_carro":8996},
{"id":479,"name":"Devinne","lat":13.5936254,"lon":100.324002,"puntuation":3.3,"address":"98121 Hintze Lane","date":"10/13/2023","time":"10:31 PM","tarifa_moto":8751,"tarifa_carro":9423},
{"id":480,"name":"Nathalie","lat":26.82808,"lon":114.835777,"puntuation":3.2,"address":"5 Oak Valley Court","date":"6/28/2023","time":"9:28 PM","tarifa_moto":8953,"tarifa_carro":7967},
{"id":481,"name":"Holmes","lat":57.1714821,"lon":26.7522536,"puntuation":3.5,"address":"53 Muir Trail","date":"1/31/2024","time":"12:56 AM","tarifa_moto":4491,"tarifa_carro":7595},
{"id":482,"name":"Brittaney","lat":19.3851705,"lon":-99.1837453,"puntuation":2.7,"address":"59 Porter Junction","date":"8/3/2023","time":"7:46 AM","tarifa_moto":6758,"tarifa_carro":8394},
{"id":483,"name":"Ronny","lat":51.05359,"lon":18.4535,"puntuation":5.0,"address":"6824 Maple Wood Place","date":"3/24/2023","time":"11:57 AM","tarifa_moto":8058,"tarifa_carro":7267},
{"id":484,"name":"Jess","lat":-2.2233633,"lon":-80.958462,"puntuation":1.2,"address":"84887 Stang Court","date":"10/30/2023","time":"10:46 PM","tarifa_moto":5741,"tarifa_carro":6992},
{"id":485,"name":"Colette","lat":38.5597722,"lon":68.7870384,"puntuation":4.3,"address":"4 East Point","date":"12/27/2023","time":"11:36 AM","tarifa_moto":8501,"tarifa_carro":9875},
{"id":486,"name":"Alyosha","lat":15.9052069,"lon":120.8017163,"puntuation":4.9,"address":"07 Lerdahl Junction","date":"7/20/2023","time":"1:58 PM","tarifa_moto":7243,"tarifa_carro":8470},
{"id":487,"name":"Ermin","lat":30.89205,"lon":121.770149,"puntuation":1.6,"address":"0958 Eagle Crest Circle","date":"10/5/2023","time":"3:47 PM","tarifa_moto":5898,"tarifa_carro":8485},
{"id":488,"name":"Xena","lat":7.99917,"lon":7.58361,"puntuation":4.7,"address":"3 Bartelt Point","date":"11/10/2023","time":"5:11 AM","tarifa_moto":7065,"tarifa_carro":6213},
{"id":489,"name":"Myrtia","lat":-34.610303,"lon":-58.410092,"puntuation":3.2,"address":"6 Summer Ridge Plaza","date":"8/15/2023","time":"10:32 AM","tarifa_moto":5075,"tarifa_carro":6391},
{"id":490,"name":"Lissa","lat":5.7316058,"lon":19.0869316,"puntuation":1.4,"address":"1 Kingsford Place","date":"12/16/2023","time":"12:05 AM","tarifa_moto":4863,"tarifa_carro":9806},
{"id":491,"name":"Frankie","lat":4.566637,"lon":-75.75012,"puntuation":3.2,"address":"52 Ridge Oak Point","date":"8/15/2023","time":"6:14 PM","tarifa_moto":9720,"tarifa_carro":7816},
{"id":492,"name":"Welby","lat":51.5004971,"lon":4.2864439,"puntuation":3.5,"address":"5 Dahle Way","date":"10/6/2023","time":"10:59 AM","tarifa_moto":7877,"tarifa_carro":8896},
{"id":493,"name":"Karlis","lat":-2.7529366,"lon":33.9164563,"puntuation":2.1,"address":"7953 Atwood Lane","date":"10/17/2023","time":"4:20 PM","tarifa_moto":4935,"tarifa_carro":7151},
{"id":494,"name":"Nathalie","lat":28.80901,"lon":120.26121,"puntuation":2.1,"address":"7 Summer Ridge Road","date":"4/13/2023","time":"12:29 AM","tarifa_moto":8673,"tarifa_carro":9475},
{"id":495,"name":"Filbert","lat":32.45461,"lon":35.26076,"puntuation":4.2,"address":"3 Thierer Road","date":"7/11/2023","time":"9:01 PM","tarifa_moto":9293,"tarifa_carro":7727},
{"id":496,"name":"Diarmid","lat":15.787298,"lon":120.604649,"puntuation":3.0,"address":"354 Summit Way","date":"6/23/2023","time":"10:16 AM","tarifa_moto":4596,"tarifa_carro":9396},
{"id":497,"name":"Allix","lat":9.8287393,"lon":122.6384628,"puntuation":1.7,"address":"805 Roxbury Point","date":"6/19/2023","time":"5:55 AM","tarifa_moto":5934,"tarifa_carro":8041},
{"id":498,"name":"Marrissa","lat":27.568278,"lon":117.562238,"puntuation":1.4,"address":"9 Acker Circle","date":"1/7/2024","time":"2:40 PM","tarifa_moto":9753,"tarifa_carro":7919},
{"id":499,"name":"Arvin","lat":-16.025181,"lon":-73.170822,"puntuation":2.2,"address":"23184 Coleman Circle","date":"9/22/2023","time":"11:01 PM","tarifa_moto":7341,"tarifa_carro":6452},
{"id":500,"name":"Kelvin","lat":9.9046941,"lon":-83.6858571,"puntuation":3.4,"address":"7 Manley Crossing","date":"4/7/2023","time":"4:52 AM","tarifa_moto":8020,"tarifa_carro":8020},
{"id":501,"name":"Ken","lat":23.802044,"lon":116.932436,"puntuation":2.9,"address":"02734 Manley Point","date":"12/25/2023","time":"6:39 AM","tarifa_moto":9491,"tarifa_carro":9493},
{"id":502,"name":"Nelly","lat":-6.8370422,"lon":-47.2142417,"puntuation":2.6,"address":"38560 Quincy Pass","date":"7/10/2023","time":"7:17 AM","tarifa_moto":6823,"tarifa_carro":8379},
{"id":503,"name":"Edvard","lat":54.9295907,"lon":19.9482276,"puntuation":1.2,"address":"52418 Blue Bill Park Street","date":"7/9/2023","time":"7:51 PM","tarifa_moto":6016,"tarifa_carro":6820},
{"id":504,"name":"Pietro","lat":32.421701,"lon":35.386433,"puntuation":4.7,"address":"3791 Service Point","date":"9/26/2023","time":"9:36 PM","tarifa_moto":9909,"tarifa_carro":9613},
{"id":505,"name":"Patin","lat":10.9070312,"lon":106.3905338,"puntuation":2.0,"address":"06584 Sullivan Way","date":"12/1/2023","time":"12:42 AM","tarifa_moto":5696,"tarifa_carro":7155},
{"id":506,"name":"Baryram","lat":37.807809,"lon":-25.541625,"puntuation":4.9,"address":"79166 Hermina Junction","date":"4/14/2023","time":"4:49 AM","tarifa_moto":8266,"tarifa_carro":9059},
{"id":507,"name":"Den","lat":39.9368237,"lon":116.4442945,"puntuation":3.6,"address":"15712 Old Gate Park","date":"8/27/2023","time":"11:47 PM","tarifa_moto":8541,"tarifa_carro":6379},
{"id":508,"name":"Belle","lat":14.6014909,"lon":103.0933171,"puntuation":1.1,"address":"3 Iowa Avenue","date":"12/2/2023","time":"1:24 AM","tarifa_moto":6416,"tarifa_carro":9956},
{"id":509,"name":"Hendrika","lat":40.0231325,"lon":44.5918627,"puntuation":2.8,"address":"7738 Hayes Park","date":"7/24/2023","time":"4:04 AM","tarifa_moto":4370,"tarifa_carro":7587},
{"id":510,"name":"Lukas","lat":16.0173268,"lon":-85.9585544,"puntuation":3.7,"address":"5 Mitchell Plaza","date":"3/7/2024","time":"9:24 PM","tarifa_moto":6553,"tarifa_carro":6520},
{"id":511,"name":"Park","lat":30.3039275,"lon":120.3376132,"puntuation":3.3,"address":"12 Pine View Junction","date":"7/5/2023","time":"11:30 PM","tarifa_moto":5250,"tarifa_carro":7318},
{"id":512,"name":"Analise","lat":35.7642515,"lon":10.8112885,"puntuation":4.0,"address":"84995 Westridge Junction","date":"9/15/2023","time":"10:13 AM","tarifa_moto":4353,"tarifa_carro":6582},
{"id":513,"name":"Prudy","lat":-2.6488408,"lon":115.328206,"puntuation":2.1,"address":"50 Pearson Plaza","date":"11/1/2023","time":"3:54 AM","tarifa_moto":9460,"tarifa_carro":9634},
{"id":514,"name":"Jeno","lat":45.521777,"lon":4.2552114,"puntuation":2.2,"address":"002 4th Point","date":"10/9/2023","time":"7:58 AM","tarifa_moto":4970,"tarifa_carro":9006},
{"id":515,"name":"Benjie","lat":-19.6818529,"lon":-49.0817124,"puntuation":4.8,"address":"520 Surrey Way","date":"9/13/2023","time":"7:26 AM","tarifa_moto":5365,"tarifa_carro":9038},
{"id":516,"name":"Skipp","lat":39.959953,"lon":116.298326,"puntuation":4.4,"address":"613 Grasskamp Avenue","date":"9/24/2023","time":"9:31 AM","tarifa_moto":4085,"tarifa_carro":9729},
{"id":517,"name":"Angelica","lat":23.107793,"lon":113.269292,"puntuation":4.6,"address":"807 Westend Point","date":"4/7/2023","time":"7:26 AM","tarifa_moto":9328,"tarifa_carro":7386},
{"id":518,"name":"Ashia","lat":52.4874765,"lon":15.7562659,"puntuation":2.7,"address":"246 Hoffman Terrace","date":"11/3/2023","time":"8:18 AM","tarifa_moto":6473,"tarifa_carro":6407},
{"id":519,"name":"Tony","lat":29.000347,"lon":101.507294,"puntuation":4.1,"address":"235 Paget Road","date":"4/22/2023","time":"3:37 AM","tarifa_moto":5931,"tarifa_carro":6858},
{"id":520,"name":"Ag","lat":59.3192962,"lon":13.5389591,"puntuation":3.2,"address":"0739 Lillian Terrace","date":"12/26/2023","time":"4:43 AM","tarifa_moto":5579,"tarifa_carro":7810},
{"id":521,"name":"Leisha","lat":5.5864963,"lon":95.3514016,"puntuation":4.9,"address":"1098 West Terrace","date":"6/28/2023","time":"4:45 AM","tarifa_moto":9054,"tarifa_carro":6664},
{"id":522,"name":"Inessa","lat":43.4945737,"lon":5.8978018,"puntuation":2.2,"address":"7 Cascade Hill","date":"3/23/2023","time":"12:46 AM","tarifa_moto":5993,"tarifa_carro":8476},
{"id":523,"name":"Vilma","lat":11.4496002,"lon":124.9415553,"puntuation":2.8,"address":"89585 Warner Parkway","date":"7/16/2023","time":"10:30 AM","tarifa_moto":8934,"tarifa_carro":9587},
{"id":524,"name":"Ciro","lat":24.44218,"lon":114.938684,"puntuation":3.0,"address":"26961 Golf View Road","date":"4/26/2023","time":"4:25 PM","tarifa_moto":9481,"tarifa_carro":8922},
{"id":525,"name":"Carolyne","lat":42.34,"lon":-71.05,"puntuation":2.6,"address":"4090 Hagan Center","date":"3/24/2023","time":"8:00 AM","tarifa_moto":7886,"tarifa_carro":6587},
{"id":526,"name":"Karna","lat":45.8235836,"lon":20.1844504,"puntuation":1.7,"address":"51941 Northland Alley","date":"6/13/2023","time":"8:00 AM","tarifa_moto":6851,"tarifa_carro":8038},
{"id":527,"name":"Shelli","lat":52.7251027,"lon":17.6532993,"puntuation":4.0,"address":"5559 Magdeline Alley","date":"8/19/2023","time":"9:31 AM","tarifa_moto":4965,"tarifa_carro":9686},
{"id":528,"name":"Raina","lat":14.4392961,"lon":121.3345633,"puntuation":4.3,"address":"7 Schurz Trail","date":"11/22/2023","time":"8:38 PM","tarifa_moto":4207,"tarifa_carro":7683},
{"id":529,"name":"Brear","lat":-18.617781,"lon":47.709942,"puntuation":4.9,"address":"363 Village Avenue","date":"7/8/2023","time":"12:34 PM","tarifa_moto":5743,"tarifa_carro":7525},
{"id":530,"name":"Crysta","lat":-7.3825,"lon":108.16,"puntuation":2.8,"address":"668 Pleasure Junction","date":"1/29/2024","time":"3:25 PM","tarifa_moto":5424,"tarifa_carro":9614},
{"id":531,"name":"Andy","lat":9.0796794,"lon":6.0097018,"puntuation":1.5,"address":"09872 Maple Plaza","date":"3/23/2023","time":"11:43 AM","tarifa_moto":8803,"tarifa_carro":7567},
{"id":532,"name":"Pattie","lat":20.8444995,"lon":104.6412925,"puntuation":4.0,"address":"550 North Circle","date":"5/26/2023","time":"5:37 AM","tarifa_moto":8789,"tarifa_carro":8581},
{"id":533,"name":"Grenville","lat":29.985295,"lon":122.207215,"puntuation":2.4,"address":"98 Union Place","date":"12/21/2023","time":"8:45 AM","tarifa_moto":9846,"tarifa_carro":6743},
{"id":534,"name":"Rhianna","lat":-36.9532166,"lon":-73.017378,"puntuation":2.9,"address":"21431 Michigan Court","date":"2/21/2024","time":"3:06 AM","tarifa_moto":6128,"tarifa_carro":8649},
{"id":535,"name":"Barn","lat":49.0720139,"lon":142.049308,"puntuation":1.2,"address":"21 Sherman Way","date":"3/24/2023","time":"3:34 PM","tarifa_moto":4673,"tarifa_carro":7984},
{"id":536,"name":"Fransisco","lat":60.4079862,"lon":5.3151044,"puntuation":2.0,"address":"362 Laurel Pass","date":"7/2/2023","time":"4:18 AM","tarifa_moto":6683,"tarifa_carro":9750},
{"id":537,"name":"Halie","lat":22.4033272,"lon":103.393389,"puntuation":2.2,"address":"558 Monica Road","date":"3/25/2023","time":"1:10 AM","tarifa_moto":6800,"tarifa_carro":8785},
{"id":538,"name":"Jessica","lat":-31.7436794,"lon":-65.0052144,"puntuation":1.3,"address":"65107 Leroy Alley","date":"12/25/2023","time":"4:53 AM","tarifa_moto":4524,"tarifa_carro":8070},
{"id":539,"name":"Pascale","lat":36.650038,"lon":101.766228,"puntuation":2.2,"address":"9 Northwestern Court","date":"12/26/2023","time":"3:41 PM","tarifa_moto":5188,"tarifa_carro":9470},
{"id":540,"name":"Emma","lat":19.4052965,"lon":-99.1504583,"puntuation":1.4,"address":"698 Toban Crossing","date":"2/8/2024","time":"3:49 AM","tarifa_moto":6500,"tarifa_carro":7594},
{"id":541,"name":"Uri","lat":46.3367995,"lon":16.6150167,"puntuation":1.8,"address":"3 Prairieview Parkway","date":"8/7/2023","time":"1:06 AM","tarifa_moto":9744,"tarifa_carro":8729},
{"id":542,"name":"Ingra","lat":35.2531076,"lon":58.2890043,"puntuation":1.4,"address":"43 Crescent Oaks Lane","date":"7/13/2023","time":"1:45 AM","tarifa_moto":4211,"tarifa_carro":6845},
{"id":543,"name":"Paige","lat":31.499202,"lon":98.21843,"puntuation":2.2,"address":"0343 Anhalt Drive","date":"12/19/2023","time":"3:38 PM","tarifa_moto":4759,"tarifa_carro":7465},
{"id":544,"name":"Melisandra","lat":59.4033695,"lon":17.9443213,"puntuation":3.1,"address":"204 Goodland Circle","date":"4/18/2023","time":"2:40 PM","tarifa_moto":8693,"tarifa_carro":7974},
{"id":545,"name":"Orv","lat":16.2864333,"lon":95.4018087,"puntuation":1.0,"address":"30 Spohn Parkway","date":"6/7/2023","time":"3:12 AM","tarifa_moto":6562,"tarifa_carro":9665},
{"id":546,"name":"Jenny","lat":8.5974451,"lon":-70.3197015,"puntuation":1.9,"address":"47598 Rockefeller Road","date":"1/14/2024","time":"5:34 PM","tarifa_moto":5763,"tarifa_carro":6414},
{"id":547,"name":"Hynda","lat":54.875414,"lon":37.2052788,"puntuation":2.3,"address":"40356 Sutteridge Junction","date":"8/5/2023","time":"3:07 PM","tarifa_moto":5769,"tarifa_carro":6137},
{"id":548,"name":"Kaylyn","lat":57.3529283,"lon":37.5917237,"puntuation":2.4,"address":"479 Burning Wood Place","date":"10/19/2023","time":"8:29 AM","tarifa_moto":5660,"tarifa_carro":7463},
{"id":549,"name":"Blythe","lat":28.906106,"lon":111.970514,"puntuation":2.4,"address":"94194 Melody Parkway","date":"11/8/2023","time":"9:56 PM","tarifa_moto":4684,"tarifa_carro":7795},
{"id":550,"name":"Nero","lat":-25.6684553,"lon":28.5158257,"puntuation":4.9,"address":"40 Sheridan Avenue","date":"7/28/2023","time":"2:29 AM","tarifa_moto":8146,"tarifa_carro":9592},
{"id":551,"name":"Pandora","lat":57.6938555,"lon":11.9704401,"puntuation":1.3,"address":"1489 Anniversary Lane","date":"11/19/2023","time":"2:19 AM","tarifa_moto":6118,"tarifa_carro":8963},
{"id":552,"name":"Mathew","lat":35.0298547,"lon":71.3542319,"puntuation":1.8,"address":"074 Delladonna Drive","date":"7/23/2023","time":"7:59 AM","tarifa_moto":8152,"tarifa_carro":9827},
{"id":553,"name":"Rolf","lat":-28.292455,"lon":-49.9375873,"puntuation":2.6,"address":"0739 Kipling Street","date":"6/19/2023","time":"9:56 PM","tarifa_moto":8641,"tarifa_carro":9821},
{"id":554,"name":"Quill","lat":37.22351,"lon":120.560079,"puntuation":3.8,"address":"5425 Lien Court","date":"4/28/2023","time":"3:04 PM","tarifa_moto":8443,"tarifa_carro":7029},
{"id":555,"name":"Patrizius","lat":24.84662,"lon":116.746096,"puntuation":4.1,"address":"8 Glendale Plaza","date":"7/26/2023","time":"12:45 PM","tarifa_moto":5510,"tarifa_carro":9665},
{"id":556,"name":"Whit","lat":38.35,"lon":-81.64,"puntuation":1.1,"address":"5261 Namekagon Terrace","date":"3/7/2024","time":"7:33 PM","tarifa_moto":4457,"tarifa_carro":9661},
{"id":557,"name":"Waldemar","lat":-6.9789789,"lon":111.3888358,"puntuation":3.1,"address":"2986 Golf View Plaza","date":"8/26/2023","time":"5:18 PM","tarifa_moto":4152,"tarifa_carro":6854},
{"id":558,"name":"Yelena","lat":47.5868157,"lon":1.3305567,"puntuation":3.2,"address":"4 Spaight Circle","date":"6/9/2023","time":"2:02 PM","tarifa_moto":6153,"tarifa_carro":8464},
{"id":559,"name":"Carmina","lat":-26.58333,"lon":-59.8,"puntuation":5.0,"address":"1 Independence Center","date":"5/9/2023","time":"2:27 AM","tarifa_moto":9325,"tarifa_carro":9232},
{"id":560,"name":"Tammara","lat":19.40552,"lon":-70.37985,"puntuation":3.6,"address":"564 Lindbergh Way","date":"11/6/2023","time":"7:37 AM","tarifa_moto":6005,"tarifa_carro":9971},
{"id":561,"name":"Mercy","lat":41.1846097,"lon":80.3038321,"puntuation":2.5,"address":"6845 Moland Court","date":"4/23/2023","time":"2:43 PM","tarifa_moto":6978,"tarifa_carro":7586},
{"id":562,"name":"Siward","lat":49.3203637,"lon":15.3266695,"puntuation":4.1,"address":"4 Mosinee Point","date":"4/12/2023","time":"9:25 PM","tarifa_moto":5469,"tarifa_carro":7933},
{"id":563,"name":"Beitris","lat":41.880872,"lon":123.957208,"puntuation":3.9,"address":"69 Pawling Court","date":"7/12/2023","time":"10:14 AM","tarifa_moto":8064,"tarifa_carro":6951},
{"id":564,"name":"Hamlen","lat":38.5067706,"lon":-90.3766634,"puntuation":1.4,"address":"7143 Oak Trail","date":"5/21/2023","time":"11:18 PM","tarifa_moto":7949,"tarifa_carro":9541},
{"id":565,"name":"Rutherford","lat":16.2569214,"lon":43.9436788,"puntuation":2.5,"address":"6119 Pond Junction","date":"9/21/2023","time":"10:04 AM","tarifa_moto":5681,"tarifa_carro":8829},
{"id":566,"name":"Dianemarie","lat":16.0501738,"lon":103.5899733,"puntuation":2.5,"address":"02059 Graedel Road","date":"3/21/2023","time":"6:46 AM","tarifa_moto":4304,"tarifa_carro":9726},
{"id":567,"name":"Chalmers","lat":45.2821109,"lon":19.5712204,"puntuation":1.7,"address":"13523 Goodland Lane","date":"1/14/2024","time":"10:45 AM","tarifa_moto":7766,"tarifa_carro":7490},
{"id":568,"name":"Maynard","lat":-12.0971829,"lon":-77.032585,"puntuation":1.3,"address":"23 Reindahl Parkway","date":"10/8/2023","time":"5:34 PM","tarifa_moto":5838,"tarifa_carro":8501},
{"id":569,"name":"Dani","lat":59.1499143,"lon":9.6586061,"puntuation":2.2,"address":"70 Cascade Plaza","date":"1/7/2024","time":"2:06 PM","tarifa_moto":8590,"tarifa_carro":8094},
{"id":570,"name":"Denni","lat":39.505925,"lon":106.726099,"puntuation":3.1,"address":"719 Blackbird Place","date":"8/20/2023","time":"8:44 AM","tarifa_moto":9327,"tarifa_carro":9210},
{"id":571,"name":"Maxine","lat":47.931513,"lon":1.920754,"puntuation":2.3,"address":"65405 Nancy Trail","date":"10/28/2023","time":"4:53 PM","tarifa_moto":4305,"tarifa_carro":7150},
{"id":572,"name":"Julianne","lat":-34.5128294,"lon":-58.5125025,"puntuation":4.0,"address":"01 Alpine Drive","date":"1/16/2024","time":"11:53 PM","tarifa_moto":4313,"tarifa_carro":7372},
{"id":573,"name":"Loria","lat":49.72276,"lon":18.76207,"puntuation":3.2,"address":"9284 2nd Way","date":"7/20/2023","time":"12:15 AM","tarifa_moto":4228,"tarifa_carro":9337},
{"id":574,"name":"Tymon","lat":32.838202,"lon":35.079523,"puntuation":2.4,"address":"263 Sunfield Court","date":"8/4/2023","time":"9:36 AM","tarifa_moto":4253,"tarifa_carro":7015},
{"id":575,"name":"Cointon","lat":48.659828,"lon":102.625198,"puntuation":1.5,"address":"602 8th Court","date":"7/29/2023","time":"6:02 PM","tarifa_moto":6389,"tarifa_carro":6030},
{"id":576,"name":"Stefano","lat":32.8616618,"lon":-8.0547019,"puntuation":2.0,"address":"2992 Russell Circle","date":"5/22/2023","time":"5:42 AM","tarifa_moto":9963,"tarifa_carro":6885},
{"id":577,"name":"Rodolph","lat":26.82808,"lon":114.835777,"puntuation":4.0,"address":"465 Ilene Park","date":"1/29/2024","time":"9:33 PM","tarifa_moto":7668,"tarifa_carro":9899},
{"id":578,"name":"Brenda","lat":16.5909145,"lon":100.2992789,"puntuation":3.0,"address":"516 Spenser Alley","date":"4/27/2023","time":"12:55 PM","tarifa_moto":8529,"tarifa_carro":7512},
{"id":579,"name":"Stan","lat":21.662991,"lon":110.925439,"puntuation":4.8,"address":"24 Village Road","date":"2/2/2024","time":"11:14 AM","tarifa_moto":6176,"tarifa_carro":6641},
{"id":580,"name":"Catherin","lat":-7.268358,"lon":108.3237655,"puntuation":2.2,"address":"3890 Debra Crossing","date":"9/20/2023","time":"3:02 PM","tarifa_moto":4748,"tarifa_carro":6132},
{"id":581,"name":"Pierrette","lat":14.6411839,"lon":121.0469082,"puntuation":4.7,"address":"68247 Golf Course Street","date":"3/16/2024","time":"2:13 PM","tarifa_moto":7508,"tarifa_carro":7791},
{"id":582,"name":"Noel","lat":50.8476148,"lon":70.8264733,"puntuation":2.5,"address":"10 Springs Way","date":"11/21/2023","time":"11:25 AM","tarifa_moto":8995,"tarifa_carro":8093},
{"id":583,"name":"Lishe","lat":-7.9110809,"lon":111.4253892,"puntuation":3.7,"address":"1498 High Crossing Pass","date":"7/9/2023","time":"8:25 PM","tarifa_moto":6182,"tarifa_carro":7036},
{"id":584,"name":"Dynah","lat":31.4057897,"lon":73.1228958,"puntuation":1.1,"address":"02 Stoughton Center","date":"10/30/2023","time":"3:52 AM","tarifa_moto":7002,"tarifa_carro":8793},
{"id":585,"name":"Ambros","lat":10.9991938,"lon":122.6717828,"puntuation":2.6,"address":"00585 Dovetail Pass","date":"8/7/2023","time":"5:53 PM","tarifa_moto":4226,"tarifa_carro":6847},
{"id":586,"name":"Lester","lat":-10.9427774,"lon":34.983731,"puntuation":2.8,"address":"61 Boyd Park","date":"5/9/2023","time":"11:38 AM","tarifa_moto":9678,"tarifa_carro":8899},
{"id":587,"name":"Fred","lat":48.8967143,"lon":2.1955586,"puntuation":3.2,"address":"86604 Cherokee Point","date":"5/17/2023","time":"9:16 AM","tarifa_moto":6376,"tarifa_carro":8362},
{"id":588,"name":"Florry","lat":-25.9480519,"lon":31.1338071,"puntuation":3.3,"address":"54 Troy Pass","date":"7/31/2023","time":"2:11 AM","tarifa_moto":9503,"tarifa_carro":8081},
{"id":589,"name":"Modestine","lat":50.1752701,"lon":13.4331372,"puntuation":4.3,"address":"6 Mccormick Hill","date":"12/1/2023","time":"9:49 PM","tarifa_moto":4107,"tarifa_carro":8750},
{"id":590,"name":"Molli","lat":-7.2087854,"lon":112.7479862,"puntuation":3.8,"address":"0 Cordelia Avenue","date":"8/23/2023","time":"7:39 PM","tarifa_moto":5252,"tarifa_carro":9194},
{"id":591,"name":"Darryl","lat":25.386379,"lon":114.922922,"puntuation":2.5,"address":"7 Forest Point","date":"3/17/2024","time":"6:43 AM","tarifa_moto":4241,"tarifa_carro":7976},
{"id":592,"name":"Trip","lat":10.37418,"lon":11.69541,"puntuation":3.9,"address":"9 Kedzie Avenue","date":"6/6/2023","time":"4:04 PM","tarifa_moto":7582,"tarifa_carro":6914},
{"id":593,"name":"Mariam","lat":30.3608801,"lon":31.3793398,"puntuation":4.4,"address":"594 Scott Pass","date":"6/13/2023","time":"5:50 AM","tarifa_moto":8977,"tarifa_carro":9731},
{"id":594,"name":"Jazmin","lat":-5.0173504,"lon":122.8704925,"puntuation":4.4,"address":"1834 Eliot Street","date":"12/17/2023","time":"8:39 PM","tarifa_moto":5244,"tarifa_carro":7732},
{"id":595,"name":"Robenia","lat":19.2874648,"lon":-99.6494479,"puntuation":3.7,"address":"4782 Bowman Junction","date":"4/14/2023","time":"2:26 PM","tarifa_moto":9378,"tarifa_carro":8821},
{"id":596,"name":"Karyn","lat":50.350705,"lon":31.3188908,"puntuation":4.3,"address":"01 Carpenter Avenue","date":"1/17/2024","time":"12:38 AM","tarifa_moto":4782,"tarifa_carro":6480},
{"id":597,"name":"Tony","lat":35.8082177,"lon":37.2530686,"puntuation":1.5,"address":"0545 Packers Trail","date":"12/4/2023","time":"2:33 AM","tarifa_moto":7402,"tarifa_carro":8972},
{"id":598,"name":"Inesita","lat":27.870166,"lon":102.2581459,"puntuation":1.6,"address":"8048 Loomis Crossing","date":"4/8/2023","time":"5:22 AM","tarifa_moto":6584,"tarifa_carro":9225},
{"id":599,"name":"Giordano","lat":28.424415,"lon":110.1808,"puntuation":3.1,"address":"058 Lotheville Park","date":"7/29/2023","time":"7:01 PM","tarifa_moto":6518,"tarifa_carro":8406},
{"id":600,"name":"Jase","lat":31.476202,"lon":92.051239,"puntuation":3.0,"address":"677 Burning Wood Terrace","date":"11/30/2023","time":"2:40 PM","tarifa_moto":7782,"tarifa_carro":7454},
{"id":601,"name":"Yulma","lat":26.647661,"lon":106.630153,"puntuation":3.1,"address":"69 Pawling Junction","date":"7/31/2023","time":"4:24 PM","tarifa_moto":6046,"tarifa_carro":9022},
{"id":602,"name":"Gare","lat":37.955893,"lon":23.7020975,"puntuation":3.0,"address":"183 Bultman Pass","date":"9/28/2023","time":"9:12 AM","tarifa_moto":9643,"tarifa_carro":6580},
{"id":603,"name":"Randall","lat":14.024307,"lon":35.3685679,"puntuation":4.3,"address":"71092 Melrose Place","date":"8/7/2023","time":"12:21 PM","tarifa_moto":7650,"tarifa_carro":8873},
{"id":604,"name":"Tresa","lat":-10.7397921,"lon":-37.809338,"puntuation":4.2,"address":"3 Hoard Crossing","date":"8/31/2023","time":"1:08 PM","tarifa_moto":9857,"tarifa_carro":6048},
{"id":605,"name":"Celine","lat":41.620793,"lon":-8.488318,"puntuation":1.0,"address":"3 Blue Bill Park Court","date":"8/5/2023","time":"7:52 PM","tarifa_moto":8847,"tarifa_carro":7004},
{"id":606,"name":"Free","lat":45.9199884,"lon":13.6295806,"puntuation":4.1,"address":"951 Dorton Pass","date":"9/26/2023","time":"1:21 AM","tarifa_moto":6320,"tarifa_carro":7075},
{"id":607,"name":"Garrett","lat":23.201636,"lon":99.330641,"puntuation":1.5,"address":"18 Towne Court","date":"10/21/2023","time":"4:33 AM","tarifa_moto":4620,"tarifa_carro":9508},
{"id":608,"name":"Bryna","lat":-3.7901775,"lon":114.7380385,"puntuation":1.1,"address":"15 Debs Parkway","date":"8/30/2023","time":"9:02 PM","tarifa_moto":4024,"tarifa_carro":8815},
{"id":609,"name":"Lilian","lat":13.7829673,"lon":109.2196634,"puntuation":3.1,"address":"92 Florence Avenue","date":"10/28/2023","time":"7:18 PM","tarifa_moto":6744,"tarifa_carro":8694},
{"id":610,"name":"Lida","lat":13.9702519,"lon":100.6035503,"puntuation":3.9,"address":"6 American Parkway","date":"1/28/2024","time":"7:14 PM","tarifa_moto":9914,"tarifa_carro":9075},
{"id":611,"name":"Munroe","lat":-16.4443537,"lon":-39.0653656,"puntuation":4.9,"address":"4 Barby Junction","date":"5/7/2023","time":"1:28 AM","tarifa_moto":8798,"tarifa_carro":9599},
{"id":612,"name":"Douglas","lat":-8.5068536,"lon":115.2624778,"puntuation":2.2,"address":"09 Amoth Trail","date":"10/21/2023","time":"7:33 PM","tarifa_moto":8596,"tarifa_carro":6333},
{"id":613,"name":"Vaclav","lat":-7.066667,"lon":108.416667,"puntuation":1.4,"address":"46 Reinke Way","date":"6/16/2023","time":"10:16 PM","tarifa_moto":5041,"tarifa_carro":6838},
{"id":614,"name":"Kirstyn","lat":51.7204294,"lon":94.442401,"puntuation":2.6,"address":"831 Continental Avenue","date":"10/3/2023","time":"4:57 AM","tarifa_moto":6265,"tarifa_carro":7517},
{"id":615,"name":"Hendrika","lat":40.97465,"lon":117.943348,"puntuation":4.5,"address":"43 Luster Alley","date":"12/30/2023","time":"10:18 PM","tarifa_moto":8585,"tarifa_carro":8694},
{"id":616,"name":"Nananne","lat":48.659828,"lon":102.625198,"puntuation":4.8,"address":"3 Lighthouse Bay Drive","date":"1/19/2024","time":"11:23 PM","tarifa_moto":6643,"tarifa_carro":7210},
{"id":617,"name":"Daniela","lat":31.298974,"lon":120.585289,"puntuation":1.6,"address":"5938 Schmedeman Drive","date":"10/7/2023","time":"4:35 PM","tarifa_moto":9301,"tarifa_carro":9634},
{"id":618,"name":"Beatrix","lat":32.244032,"lon":35.064616,"puntuation":1.1,"address":"94 Eastwood Terrace","date":"11/11/2023","time":"10:24 AM","tarifa_moto":8385,"tarifa_carro":9833},
{"id":619,"name":"Branden","lat":31.018498,"lon":109.463987,"puntuation":3.3,"address":"9 Lakewood Way","date":"2/19/2024","time":"9:08 AM","tarifa_moto":6292,"tarifa_carro":8829},
{"id":620,"name":"Trudy","lat":-21.6110027,"lon":-55.168269,"puntuation":1.1,"address":"80 Forster Pass","date":"12/16/2023","time":"7:24 AM","tarifa_moto":7850,"tarifa_carro":8358},
{"id":621,"name":"Paola","lat":53.169971,"lon":-6.9140788,"puntuation":1.8,"address":"69 Burrows Court","date":"5/27/2023","time":"1:09 PM","tarifa_moto":9374,"tarifa_carro":8988},
{"id":622,"name":"Olwen","lat":28.285873,"lon":113.794351,"puntuation":3.7,"address":"7 Talmadge Alley","date":"1/17/2024","time":"9:43 AM","tarifa_moto":6614,"tarifa_carro":7021},
{"id":623,"name":"Michel","lat":26.6732151,"lon":-81.8181961,"puntuation":1.6,"address":"5 Stephen Court","date":"7/17/2023","time":"12:28 PM","tarifa_moto":7639,"tarifa_carro":9527},
{"id":624,"name":"Pen","lat":53.7683238,"lon":18.1130662,"puntuation":2.2,"address":"71816 Gina Trail","date":"5/8/2023","time":"4:01 AM","tarifa_moto":7422,"tarifa_carro":8045},
{"id":625,"name":"Dosi","lat":-7.2929068,"lon":107.2666396,"puntuation":1.9,"address":"452 Randy Hill","date":"8/12/2023","time":"4:02 AM","tarifa_moto":4012,"tarifa_carro":6402},
{"id":626,"name":"Lavena","lat":22.555259,"lon":113.884019,"puntuation":4.2,"address":"23976 Huxley Plaza","date":"7/5/2023","time":"1:09 PM","tarifa_moto":5382,"tarifa_carro":8077},
{"id":627,"name":"Randi","lat":49.7769817,"lon":16.9194672,"puntuation":4.7,"address":"408 Crownhardt Crossing","date":"8/3/2023","time":"5:16 AM","tarifa_moto":8036,"tarifa_carro":9136},
{"id":628,"name":"Paul","lat":58.0275087,"lon":15.0052213,"puntuation":2.6,"address":"36 Center Crossing","date":"7/23/2023","time":"1:39 AM","tarifa_moto":7754,"tarifa_carro":9734},
{"id":629,"name":"Clemente","lat":25.8749206,"lon":116.0386902,"puntuation":2.7,"address":"892 Magdeline Lane","date":"8/18/2023","time":"12:26 PM","tarifa_moto":5539,"tarifa_carro":7886},
{"id":630,"name":"Lonnard","lat":6.027632,"lon":-75.431596,"puntuation":3.2,"address":"58786 Farwell Street","date":"11/25/2023","time":"4:44 PM","tarifa_moto":4412,"tarifa_carro":9309},
{"id":631,"name":"Petronella","lat":37.7349927,"lon":-25.3022791,"puntuation":1.3,"address":"16 Nevada Plaza","date":"9/3/2023","time":"6:35 PM","tarifa_moto":5232,"tarifa_carro":8348},
{"id":632,"name":"Zollie","lat":-35.6767854,"lon":174.3471899,"puntuation":1.2,"address":"3999 Blue Bill Park Road","date":"4/26/2023","time":"9:14 PM","tarifa_moto":6952,"tarifa_carro":8178},
{"id":633,"name":"Essie","lat":45.4381658,"lon":4.3868779,"puntuation":1.3,"address":"131 Delladonna Avenue","date":"3/23/2023","time":"8:59 PM","tarifa_moto":8159,"tarifa_carro":6626},
{"id":634,"name":"Jack","lat":-7.293851,"lon":107.8151785,"puntuation":3.3,"address":"5138 Kedzie Street","date":"7/6/2023","time":"7:53 AM","tarifa_moto":4695,"tarifa_carro":7492},
{"id":635,"name":"Conrad","lat":31.6095648,"lon":64.4082082,"puntuation":4.1,"address":"94316 Declaration Crossing","date":"11/13/2023","time":"5:20 AM","tarifa_moto":8469,"tarifa_carro":9314},
{"id":636,"name":"Renae","lat":35.963912,"lon":105.729085,"puntuation":1.1,"address":"94878 Laurel Junction","date":"6/10/2023","time":"8:33 AM","tarifa_moto":6324,"tarifa_carro":8614},
{"id":637,"name":"Jenifer","lat":52.0393765,"lon":4.3161176,"puntuation":2.5,"address":"86 Oriole Avenue","date":"6/17/2023","time":"6:35 PM","tarifa_moto":6011,"tarifa_carro":8879},
{"id":638,"name":"Vite","lat":-7.0116198,"lon":113.8510375,"puntuation":4.1,"address":"3124 Homewood Trail","date":"11/7/2023","time":"10:20 PM","tarifa_moto":7423,"tarifa_carro":8938},
{"id":639,"name":"Shirl","lat":39.772554,"lon":98.289419,"puntuation":2.7,"address":"689 Calypso Way","date":"4/17/2023","time":"6:11 PM","tarifa_moto":5919,"tarifa_carro":7464},
{"id":640,"name":"Selby","lat":3.2443317,"lon":99.4976356,"puntuation":2.9,"address":"61 Ilene Street","date":"12/25/2023","time":"2:49 AM","tarifa_moto":7091,"tarifa_carro":9548},
{"id":641,"name":"Christoper","lat":40.231962,"lon":116.857837,"puntuation":3.2,"address":"0460 Arapahoe Center","date":"10/19/2023","time":"8:48 AM","tarifa_moto":6786,"tarifa_carro":9019},
{"id":642,"name":"Lauritz","lat":-31.3317595,"lon":-54.1038619,"puntuation":4.2,"address":"4240 Wayridge Plaza","date":"1/13/2024","time":"7:11 PM","tarifa_moto":4236,"tarifa_carro":9247},
{"id":643,"name":"Ulrica","lat":39.3253135,"lon":-9.232542,"puntuation":4.9,"address":"89 Glacier Hill Trail","date":"9/24/2023","time":"2:24 AM","tarifa_moto":8110,"tarifa_carro":6641},
{"id":644,"name":"Chryste","lat":39.3960229,"lon":68.533658,"puntuation":5.0,"address":"425 Butternut Point","date":"10/5/2023","time":"9:40 AM","tarifa_moto":4023,"tarifa_carro":8865},
{"id":645,"name":"Jory","lat":11.5346745,"lon":108.0954351,"puntuation":1.5,"address":"51 Fremont Trail","date":"8/20/2023","time":"6:34 PM","tarifa_moto":4096,"tarifa_carro":9846},
{"id":646,"name":"Jesus","lat":29.137138,"lon":89.499642,"puntuation":2.6,"address":"05 Meadow Valley Hill","date":"2/22/2024","time":"7:52 PM","tarifa_moto":9118,"tarifa_carro":6875},
{"id":647,"name":"Aurelie","lat":53.2065166,"lon":5.8271439,"puntuation":3.1,"address":"50 Briar Crest Trail","date":"8/20/2023","time":"1:57 AM","tarifa_moto":7698,"tarifa_carro":8632},
{"id":648,"name":"Kerstin","lat":59.8664826,"lon":48.0119891,"puntuation":1.4,"address":"56485 Harper Plaza","date":"11/22/2023","time":"10:33 PM","tarifa_moto":9786,"tarifa_carro":7758},
{"id":649,"name":"Rudiger","lat":30.601966,"lon":115.438847,"puntuation":3.4,"address":"252 Farwell Point","date":"6/29/2023","time":"7:19 AM","tarifa_moto":9525,"tarifa_carro":6202},
{"id":650,"name":"Darbee","lat":29.9668343,"lon":32.5498069,"puntuation":4.0,"address":"745 Del Sol Point","date":"10/20/2023","time":"10:37 AM","tarifa_moto":6541,"tarifa_carro":8810},
{"id":651,"name":"Feliza","lat":59.538889,"lon":29.9194439,"puntuation":1.4,"address":"3954 Commercial Point","date":"6/1/2023","time":"6:33 PM","tarifa_moto":4177,"tarifa_carro":9185},
{"id":652,"name":"Marna","lat":30.044164,"lon":120.772494,"puntuation":2.4,"address":"12 Esch Center","date":"3/8/2024","time":"9:47 AM","tarifa_moto":8041,"tarifa_carro":8864},
{"id":653,"name":"Bernadene","lat":23.3854292,"lon":113.4895468,"puntuation":4.8,"address":"0955 Dwight Lane","date":"3/30/2023","time":"12:53 PM","tarifa_moto":4032,"tarifa_carro":9206},
{"id":654,"name":"Anthia","lat":-9.4511841,"lon":120.0496593,"puntuation":1.5,"address":"682 Acker Center","date":"2/23/2024","time":"2:13 PM","tarifa_moto":7126,"tarifa_carro":9787},
{"id":655,"name":"Hillard","lat":-7.025202,"lon":107.5259078,"puntuation":4.2,"address":"19 Harper Parkway","date":"10/29/2023","time":"3:14 PM","tarifa_moto":7878,"tarifa_carro":7923},
{"id":656,"name":"Ram","lat":14.5560877,"lon":121.0155081,"puntuation":2.5,"address":"300 Armistice Pass","date":"12/25/2023","time":"12:48 PM","tarifa_moto":9117,"tarifa_carro":7234},
{"id":657,"name":"Dynah","lat":61.1870241,"lon":-149.8822186,"puntuation":1.5,"address":"5 Jay Circle","date":"2/2/2024","time":"3:40 AM","tarifa_moto":8430,"tarifa_carro":8841},
{"id":658,"name":"Barnard","lat":53.2492381,"lon":-6.6633404,"puntuation":4.7,"address":"823 Farwell Junction","date":"1/30/2024","time":"9:09 AM","tarifa_moto":8534,"tarifa_carro":9099},
{"id":659,"name":"Masha","lat":-31.4505323,"lon":-64.1847851,"puntuation":1.8,"address":"76093 Debs Way","date":"7/26/2023","time":"7:42 AM","tarifa_moto":8970,"tarifa_carro":7398},
{"id":660,"name":"Juliane","lat":16.877,"lon":43.52499,"puntuation":3.2,"address":"5 Artisan Court","date":"11/1/2023","time":"4:56 PM","tarifa_moto":6776,"tarifa_carro":7687},
{"id":661,"name":"Darn","lat":35.939466,"lon":118.520324,"puntuation":2.3,"address":"03580 Loeprich Road","date":"3/20/2023","time":"6:07 PM","tarifa_moto":9129,"tarifa_carro":8701},
{"id":662,"name":"Frasco","lat":48.007399,"lon":-66.6722057,"puntuation":2.2,"address":"2376 Artisan Street","date":"3/9/2024","time":"11:34 PM","tarifa_moto":5470,"tarifa_carro":9401},
{"id":663,"name":"Emmett","lat":40.4187499,"lon":20.5535753,"puntuation":1.8,"address":"525 Esker Court","date":"9/19/2023","time":"11:28 PM","tarifa_moto":8761,"tarifa_carro":7127},
{"id":664,"name":"Nickola","lat":12.6612116,"lon":-0.5683399,"puntuation":1.1,"address":"63 Macpherson Court","date":"5/15/2023","time":"6:44 AM","tarifa_moto":8174,"tarifa_carro":6294},
{"id":665,"name":"Titos","lat":23.7221111,"lon":-15.9347384,"puntuation":3.1,"address":"2 Larry Way","date":"5/24/2023","time":"11:29 AM","tarifa_moto":9267,"tarifa_carro":6070},
{"id":666,"name":"Chas","lat":39.6185297,"lon":19.8966576,"puntuation":2.7,"address":"3782 Summerview Terrace","date":"5/3/2023","time":"7:52 PM","tarifa_moto":5761,"tarifa_carro":6071},
{"id":667,"name":"Dollie","lat":-26.7109399,"lon":27.10086,"puntuation":4.1,"address":"6245 Commercial Lane","date":"4/14/2023","time":"7:13 PM","tarifa_moto":7255,"tarifa_carro":6941},
{"id":668,"name":"Flori","lat":57.6540663,"lon":59.5033087,"puntuation":2.8,"address":"27 Menomonie Street","date":"12/26/2023","time":"5:29 AM","tarifa_moto":5368,"tarifa_carro":9812},
{"id":669,"name":"Mata","lat":12.0601649,"lon":0.3654204,"puntuation":2.8,"address":"816 Transport Road","date":"5/17/2023","time":"9:44 AM","tarifa_moto":6736,"tarifa_carro":7561},
{"id":670,"name":"Rickey","lat":9.8657623,"lon":123.9891483,"puntuation":3.5,"address":"854 Union Junction","date":"12/6/2023","time":"1:36 AM","tarifa_moto":6008,"tarifa_carro":8959},
{"id":671,"name":"Douglass","lat":14.7793575,"lon":121.0489884,"puntuation":1.1,"address":"86 Bowman Parkway","date":"7/18/2023","time":"3:53 PM","tarifa_moto":7439,"tarifa_carro":8632},
{"id":672,"name":"Faulkner","lat":45.05752,"lon":-77.85702,"puntuation":4.5,"address":"19 Florence Place","date":"8/30/2023","time":"12:21 AM","tarifa_moto":9650,"tarifa_carro":7009},
{"id":673,"name":"Marta","lat":25.24748,"lon":119.286606,"puntuation":2.6,"address":"0 Pepper Wood Circle","date":"10/21/2023","time":"2:30 AM","tarifa_moto":9815,"tarifa_carro":9195},
{"id":674,"name":"Austina","lat":44.0407757,"lon":16.1964988,"puntuation":4.1,"address":"21966 Butterfield Point","date":"7/22/2023","time":"7:58 PM","tarifa_moto":7265,"tarifa_carro":7812},
{"id":675,"name":"Sarina","lat":14.3618606,"lon":100.6685901,"puntuation":4.3,"address":"4 Oakridge Trail","date":"2/18/2024","time":"11:08 PM","tarifa_moto":4484,"tarifa_carro":6756},
{"id":676,"name":"Ulla","lat":54.2195351,"lon":-4.4012575,"puntuation":1.8,"address":"000 Kim Place","date":"8/2/2023","time":"2:58 PM","tarifa_moto":9036,"tarifa_carro":7222},
{"id":677,"name":"Sharona","lat":47.93,"lon":-97.03,"puntuation":1.8,"address":"96200 Clove Alley","date":"6/21/2023","time":"8:07 AM","tarifa_moto":5924,"tarifa_carro":9245},
{"id":678,"name":"Jacinthe","lat":22.239478,"lon":111.549105,"puntuation":4.0,"address":"4 Cambridge Lane","date":"3/31/2023","time":"11:44 AM","tarifa_moto":5819,"tarifa_carro":8112},
{"id":679,"name":"Maximilian","lat":27.106637,"lon":114.964086,"puntuation":4.6,"address":"6152 Pankratz Court","date":"2/4/2024","time":"9:19 PM","tarifa_moto":4162,"tarifa_carro":6809},
{"id":680,"name":"Fidela","lat":14.1586723,"lon":121.2408815,"puntuation":1.9,"address":"424 1st Point","date":"11/29/2023","time":"6:13 AM","tarifa_moto":9798,"tarifa_carro":9169},
{"id":681,"name":"Sansone","lat":14.2512158,"lon":121.0499837,"puntuation":2.9,"address":"930 American Ash Alley","date":"3/2/2024","time":"2:04 PM","tarifa_moto":4715,"tarifa_carro":9212},
{"id":682,"name":"Gregoor","lat":14.49052,"lon":44.13108,"puntuation":1.7,"address":"60 Bashford Avenue","date":"2/15/2024","time":"2:22 PM","tarifa_moto":7306,"tarifa_carro":9013},
{"id":683,"name":"Donny","lat":-6.5643956,"lon":106.2522143,"puntuation":2.8,"address":"321 Brickson Park Road","date":"7/30/2023","time":"5:07 AM","tarifa_moto":5312,"tarifa_carro":6721},
{"id":684,"name":"Elihu","lat":25.962888,"lon":119.523266,"puntuation":1.9,"address":"4726 Hermina Point","date":"8/21/2023","time":"8:43 AM","tarifa_moto":9048,"tarifa_carro":8229},
{"id":685,"name":"Katina","lat":28.988133,"lon":110.206177,"puntuation":4.1,"address":"6 Meadow Vale Parkway","date":"11/27/2023","time":"7:43 PM","tarifa_moto":9228,"tarifa_carro":7650},
{"id":686,"name":"Ax","lat":-7.7595897,"lon":110.8344302,"puntuation":1.4,"address":"81 Sauthoff Drive","date":"12/3/2023","time":"8:32 AM","tarifa_moto":5232,"tarifa_carro":6861},
{"id":687,"name":"Imogene","lat":47.517115,"lon":19.053701,"puntuation":4.0,"address":"41 Straubel Center","date":"12/18/2023","time":"11:45 AM","tarifa_moto":6656,"tarifa_carro":9832},
{"id":688,"name":"Dorisa","lat":52.0379571,"lon":43.2923971,"puntuation":3.5,"address":"5335 Granby Plaza","date":"2/25/2024","time":"9:01 AM","tarifa_moto":7670,"tarifa_carro":7657},
{"id":689,"name":"Cordell","lat":14.5590365,"lon":121.0409808,"puntuation":1.9,"address":"0154 1st Pass","date":"2/11/2024","time":"5:24 AM","tarifa_moto":5774,"tarifa_carro":6361},
{"id":690,"name":"Zia","lat":59.4609192,"lon":28.0395999,"puntuation":4.9,"address":"51 Tennessee Drive","date":"3/8/2024","time":"3:33 AM","tarifa_moto":9128,"tarifa_carro":6214},
{"id":691,"name":"Boniface","lat":60.3763373,"lon":25.2708919,"puntuation":4.2,"address":"1082 Brickson Park Street","date":"8/19/2023","time":"6:47 PM","tarifa_moto":8034,"tarifa_carro":7182},
{"id":692,"name":"Xever","lat":30.835511,"lon":120.281653,"puntuation":3.0,"address":"0 Johnson Terrace","date":"9/4/2023","time":"5:43 PM","tarifa_moto":7169,"tarifa_carro":8491},
{"id":693,"name":"Mackenzie","lat":14.1137718,"lon":122.0496521,"puntuation":1.1,"address":"43 Truax Court","date":"6/20/2023","time":"9:05 PM","tarifa_moto":6180,"tarifa_carro":6975},
{"id":694,"name":"Chalmers","lat":15.016667,"lon":49.35,"puntuation":1.3,"address":"0364 Bluejay Road","date":"4/24/2023","time":"5:49 AM","tarifa_moto":7908,"tarifa_carro":8565},
{"id":695,"name":"Randi","lat":57.7806567,"lon":11.9694396,"puntuation":3.0,"address":"04 Old Shore Pass","date":"8/10/2023","time":"1:15 PM","tarifa_moto":5281,"tarifa_carro":6635},
{"id":696,"name":"Brose","lat":54.70972,"lon":-7.74208,"puntuation":3.9,"address":"38 Dixon Point","date":"6/27/2023","time":"2:46 AM","tarifa_moto":6050,"tarifa_carro":6595},
{"id":697,"name":"Afton","lat":28.805453,"lon":104.802326,"puntuation":1.3,"address":"261 Novick Road","date":"9/26/2023","time":"12:33 AM","tarifa_moto":4063,"tarifa_carro":7020},
{"id":698,"name":"Burke","lat":13.4292207,"lon":-88.5945715,"puntuation":2.3,"address":"4 Everett Crossing","date":"3/25/2023","time":"4:28 AM","tarifa_moto":8354,"tarifa_carro":7019},
{"id":699,"name":"Samson","lat":13.6224855,"lon":100.8512816,"puntuation":3.3,"address":"46926 Forest Run Drive","date":"5/15/2023","time":"3:03 AM","tarifa_moto":9136,"tarifa_carro":6876},
{"id":700,"name":"Ange","lat":37.335794,"lon":116.576092,"puntuation":3.2,"address":"50 Straubel Street","date":"6/10/2023","time":"11:05 PM","tarifa_moto":8646,"tarifa_carro":9300},
{"id":701,"name":"Alexei","lat":-20.4438418,"lon":-44.7653198,"puntuation":4.3,"address":"3962 Corben Road","date":"8/14/2023","time":"1:17 PM","tarifa_moto":7891,"tarifa_carro":7564},
{"id":702,"name":"Bibbye","lat":33.6160293,"lon":-111.8926303,"puntuation":1.2,"address":"18 Daystar Lane","date":"11/17/2023","time":"1:33 AM","tarifa_moto":4765,"tarifa_carro":9383},
{"id":703,"name":"Wilma","lat":60.00029,"lon":-111.88543,"puntuation":1.2,"address":"6367 Luster Park","date":"2/10/2024","time":"9:48 AM","tarifa_moto":9979,"tarifa_carro":6295},
{"id":704,"name":"Lorelle","lat":50.043163,"lon":22.555595,"puntuation":4.2,"address":"33095 Petterle Way","date":"3/2/2024","time":"5:50 AM","tarifa_moto":7258,"tarifa_carro":8680},
{"id":705,"name":"Lay","lat":12.4894021,"lon":-13.3067562,"puntuation":2.3,"address":"10291 Parkside Road","date":"1/13/2024","time":"3:44 AM","tarifa_moto":5284,"tarifa_carro":9038},
{"id":706,"name":"Dehlia","lat":31.778022,"lon":104.745823,"puntuation":4.5,"address":"37 Superior Place","date":"4/4/2023","time":"12:53 AM","tarifa_moto":6659,"tarifa_carro":9193},
{"id":707,"name":"Marti","lat":56.7279731,"lon":41.0643386,"puntuation":1.1,"address":"3696 Longview Street","date":"8/12/2023","time":"2:52 AM","tarifa_moto":8709,"tarifa_carro":9010},
{"id":708,"name":"Katine","lat":-7.204,"lon":108.5127,"puntuation":1.5,"address":"213 Arapahoe Avenue","date":"4/11/2023","time":"3:22 AM","tarifa_moto":7931,"tarifa_carro":9619},
{"id":709,"name":"Raeann","lat":22.342771,"lon":106.854376,"puntuation":4.3,"address":"6 Glendale Trail","date":"2/26/2024","time":"2:07 PM","tarifa_moto":4539,"tarifa_carro":6123},
{"id":710,"name":"Nicholas","lat":13.3041159,"lon":-14.3864656,"puntuation":1.5,"address":"42 Prairie Rose Junction","date":"7/19/2023","time":"6:18 PM","tarifa_moto":9203,"tarifa_carro":9256},
{"id":711,"name":"Rolland","lat":-26.8191146,"lon":-55.0182151,"puntuation":1.5,"address":"76 Bellgrove Place","date":"2/12/2024","time":"2:57 AM","tarifa_moto":4876,"tarifa_carro":6094},
{"id":712,"name":"Saloma","lat":50.6398985,"lon":15.8196702,"puntuation":2.5,"address":"03 Scoville Crossing","date":"9/21/2023","time":"7:23 PM","tarifa_moto":8148,"tarifa_carro":7943},
{"id":713,"name":"Larine","lat":26.8626548,"lon":85.5560635,"puntuation":4.3,"address":"62035 Graceland Plaza","date":"1/21/2024","time":"5:07 PM","tarifa_moto":8841,"tarifa_carro":7765},
{"id":714,"name":"Kerwin","lat":13.5218669,"lon":120.9617948,"puntuation":3.6,"address":"06753 Mifflin Terrace","date":"10/22/2023","time":"6:01 PM","tarifa_moto":8843,"tarifa_carro":9186},
{"id":715,"name":"Roselin","lat":54.2388118,"lon":17.2312846,"puntuation":3.1,"address":"93 High Crossing Road","date":"1/8/2024","time":"1:14 AM","tarifa_moto":8669,"tarifa_carro":9947},
{"id":716,"name":"Grant","lat":-7.7403739,"lon":110.0330554,"puntuation":1.2,"address":"5377 Sachtjen Lane","date":"1/19/2024","time":"2:27 PM","tarifa_moto":4104,"tarifa_carro":8192},
{"id":717,"name":"Bentley","lat":56.0467,"lon":59.6086,"puntuation":2.2,"address":"044 Esker Hill","date":"10/18/2023","time":"2:07 PM","tarifa_moto":7258,"tarifa_carro":6774},
{"id":718,"name":"Thibaud","lat":38.7946533,"lon":-9.1792392,"puntuation":2.6,"address":"652 Bunting Parkway","date":"7/21/2023","time":"6:00 AM","tarifa_moto":9005,"tarifa_carro":9587},
{"id":719,"name":"Kizzie","lat":-8.0604,"lon":111.5793,"puntuation":4.6,"address":"55 Huxley Street","date":"7/19/2023","time":"8:57 AM","tarifa_moto":5622,"tarifa_carro":9317},
{"id":720,"name":"Prudence","lat":28.918207,"lon":120.001353,"puntuation":2.9,"address":"0280 Holy Cross Circle","date":"2/6/2024","time":"9:56 AM","tarifa_moto":9956,"tarifa_carro":7546},
{"id":721,"name":"Monica","lat":50.8294542,"lon":19.2859852,"puntuation":3.8,"address":"93523 8th Alley","date":"2/2/2024","time":"3:11 AM","tarifa_moto":7662,"tarifa_carro":8658},
{"id":722,"name":"Adara","lat":56.7478077,"lon":37.520581,"puntuation":2.7,"address":"71 Victoria Center","date":"5/29/2023","time":"8:58 PM","tarifa_moto":4659,"tarifa_carro":9492},
{"id":723,"name":"Devi","lat":31.2278735,"lon":121.5194667,"puntuation":1.4,"address":"02465 Sloan Drive","date":"7/27/2023","time":"9:12 PM","tarifa_moto":5805,"tarifa_carro":8015},
{"id":724,"name":"Brennan","lat":22.916134,"lon":114.1002135,"puntuation":2.6,"address":"75 Fulton Parkway","date":"6/28/2023","time":"8:00 AM","tarifa_moto":9959,"tarifa_carro":6950},
{"id":725,"name":"Mac","lat":4.7442679,"lon":119.402976,"puntuation":2.1,"address":"88 Rowland Circle","date":"2/23/2024","time":"8:55 PM","tarifa_moto":5421,"tarifa_carro":6152},
{"id":726,"name":"Hillard","lat":50.7576138,"lon":14.5555639,"puntuation":4.1,"address":"22 Burning Wood Terrace","date":"1/18/2024","time":"2:31 AM","tarifa_moto":8590,"tarifa_carro":8258},
{"id":727,"name":"Ruthann","lat":-15.3238828,"lon":-70.0737598,"puntuation":3.5,"address":"4382 Milwaukee Place","date":"8/1/2023","time":"7:12 PM","tarifa_moto":5870,"tarifa_carro":6663},
{"id":728,"name":"Patrice","lat":14.6306039,"lon":121.0056925,"puntuation":2.8,"address":"3544 Welch Avenue","date":"4/19/2023","time":"7:15 PM","tarifa_moto":4409,"tarifa_carro":8196},
{"id":729,"name":"Waly","lat":36.15,"lon":-96,"puntuation":2.7,"address":"9 Heath Point","date":"4/11/2023","time":"12:53 AM","tarifa_moto":6101,"tarifa_carro":7642},
{"id":730,"name":"Trisha","lat":30.3321838,"lon":-81.655651,"puntuation":1.9,"address":"39 Sheridan Trail","date":"11/15/2023","time":"7:31 PM","tarifa_moto":4439,"tarifa_carro":8430},
{"id":731,"name":"Finn","lat":40.1271927,"lon":-8.8576516,"puntuation":2.3,"address":"5681 Russell Crossing","date":"8/21/2023","time":"11:20 PM","tarifa_moto":8023,"tarifa_carro":9043},
{"id":732,"name":"Caleb","lat":22.0080725,"lon":113.3785933,"puntuation":4.2,"address":"165 Hoepker Terrace","date":"8/13/2023","time":"8:31 PM","tarifa_moto":8477,"tarifa_carro":8823},
{"id":733,"name":"Alikee","lat":22.63964,"lon":114.020922,"puntuation":2.0,"address":"5597 Drewry Trail","date":"1/7/2024","time":"4:50 PM","tarifa_moto":7464,"tarifa_carro":6200},
{"id":734,"name":"Babara","lat":58.9108802,"lon":17.9314968,"puntuation":4.0,"address":"16 Cody Pass","date":"7/16/2023","time":"7:33 AM","tarifa_moto":8324,"tarifa_carro":9355},
{"id":735,"name":"Ardith","lat":31.026394,"lon":103.757315,"puntuation":2.1,"address":"55 Arkansas Crossing","date":"7/15/2023","time":"11:35 PM","tarifa_moto":8224,"tarifa_carro":8805},
{"id":736,"name":"Jobyna","lat":36.1093631,"lon":103.694265,"puntuation":5.0,"address":"32 Crest Line Parkway","date":"11/9/2023","time":"10:50 AM","tarifa_moto":7200,"tarifa_carro":6900},
{"id":737,"name":"Rosco","lat":30.3312397,"lon":120.1534039,"puntuation":3.5,"address":"69 Mariners Cove Court","date":"10/3/2023","time":"3:58 PM","tarifa_moto":9199,"tarifa_carro":9112},
{"id":738,"name":"Gannon","lat":-6.9158643,"lon":112.4351068,"puntuation":4.9,"address":"3797 Esch Park","date":"3/18/2024","time":"7:06 AM","tarifa_moto":9433,"tarifa_carro":7432},
{"id":739,"name":"Ugo","lat":31.434625,"lon":120.004045,"puntuation":1.5,"address":"3 Clarendon Pass","date":"5/6/2023","time":"8:12 AM","tarifa_moto":4545,"tarifa_carro":8406},
{"id":740,"name":"Oralia","lat":16.5245838,"lon":121.5194596,"puntuation":4.9,"address":"1574 Prairieview Parkway","date":"8/24/2023","time":"6:26 PM","tarifa_moto":6185,"tarifa_carro":8588},
{"id":741,"name":"Ferd","lat":35.99,"lon":-78.9,"puntuation":4.5,"address":"31787 Porter Street","date":"7/23/2023","time":"12:08 PM","tarifa_moto":7143,"tarifa_carro":8393},
{"id":742,"name":"Doro","lat":48.8466523,"lon":2.2582125,"puntuation":1.5,"address":"8017 Parkside Circle","date":"1/13/2024","time":"2:07 PM","tarifa_moto":7427,"tarifa_carro":6823},
{"id":743,"name":"Nelie","lat":48.9088164,"lon":13.8865743,"puntuation":4.9,"address":"4 Mosinee Pass","date":"2/17/2024","time":"9:20 PM","tarifa_moto":7466,"tarifa_carro":8191},
{"id":744,"name":"Rudiger","lat":54.3843215,"lon":44.8151638,"puntuation":2.3,"address":"99639 David Place","date":"2/10/2024","time":"9:00 AM","tarifa_moto":4678,"tarifa_carro":6933},
{"id":745,"name":"Dru","lat":48.635763,"lon":124.7681779,"puntuation":1.2,"address":"31 Charing Cross Lane","date":"5/28/2023","time":"6:58 PM","tarifa_moto":8459,"tarifa_carro":8888},
{"id":746,"name":"Baily","lat":-8.4774,"lon":115.597,"puntuation":4.9,"address":"7 Sloan Street","date":"4/2/2023","time":"1:06 AM","tarifa_moto":9441,"tarifa_carro":9465},
{"id":747,"name":"Dyann","lat":31.463475,"lon":120.649341,"puntuation":1.4,"address":"977 Hallows Drive","date":"5/27/2023","time":"4:38 AM","tarifa_moto":7523,"tarifa_carro":7841},
{"id":748,"name":"Elmira","lat":32.235466,"lon":34.950506,"puntuation":2.9,"address":"9 Cordelia Avenue","date":"3/27/2023","time":"5:49 PM","tarifa_moto":5534,"tarifa_carro":6086},
{"id":749,"name":"Terry","lat":-26.8214685,"lon":-55.0199394,"puntuation":2.5,"address":"671 South Pass","date":"6/25/2023","time":"9:54 AM","tarifa_moto":9319,"tarifa_carro":9164},
{"id":750,"name":"Gabbi","lat":44.2006496,"lon":43.4273768,"puntuation":4.7,"address":"817 Killdeer Pass","date":"4/24/2023","time":"6:18 AM","tarifa_moto":8192,"tarifa_carro":7055},
{"id":751,"name":"Michal","lat":52.4977237,"lon":20.5022109,"puntuation":2.0,"address":"4 Spohn Point","date":"6/3/2023","time":"8:32 AM","tarifa_moto":5811,"tarifa_carro":7074},
{"id":752,"name":"Lorettalorna","lat":49.9386129,"lon":6.0839611,"puntuation":2.6,"address":"5 Thompson Drive","date":"9/16/2023","time":"8:15 PM","tarifa_moto":7415,"tarifa_carro":7724},
{"id":753,"name":"Ingamar","lat":33.5138073,"lon":36.2765279,"puntuation":3.5,"address":"22 Kensington Avenue","date":"7/8/2023","time":"2:24 AM","tarifa_moto":6678,"tarifa_carro":6726},
{"id":754,"name":"Ardyth","lat":-8.8512,"lon":121.6439,"puntuation":4.4,"address":"44 Morrow Crossing","date":"4/6/2023","time":"4:31 AM","tarifa_moto":6950,"tarifa_carro":9220},
{"id":755,"name":"Hammad","lat":53.506761,"lon":28.1527803,"puntuation":3.9,"address":"2 Logan Street","date":"9/20/2023","time":"8:19 PM","tarifa_moto":7417,"tarifa_carro":8309},
{"id":756,"name":"Augustine","lat":48.8373554,"lon":2.2682399,"puntuation":1.2,"address":"7948 Bunker Hill Park","date":"8/20/2023","time":"6:09 AM","tarifa_moto":8749,"tarifa_carro":6381},
{"id":757,"name":"Piggy","lat":47.1601577,"lon":40.224989,"puntuation":3.4,"address":"863 Arapahoe Terrace","date":"11/25/2023","time":"2:59 PM","tarifa_moto":8277,"tarifa_carro":8923},
{"id":758,"name":"Cordell","lat":-18.2074524,"lon":-65.1847957,"puntuation":4.5,"address":"76052 Jana Terrace","date":"10/6/2023","time":"8:57 PM","tarifa_moto":4263,"tarifa_carro":7831},
{"id":759,"name":"Birdie","lat":40.9166667,"lon":19.8833333,"puntuation":2.4,"address":"34826 Buhler Circle","date":"11/23/2023","time":"2:17 PM","tarifa_moto":4456,"tarifa_carro":6850},
{"id":760,"name":"Persis","lat":7.5521655,"lon":125.7343514,"puntuation":3.5,"address":"359 American Street","date":"4/23/2023","time":"6:30 AM","tarifa_moto":5147,"tarifa_carro":8875},
{"id":761,"name":"Kristoforo","lat":30.2977417,"lon":30.9783805,"puntuation":1.5,"address":"48 Dorton Court","date":"12/29/2023","time":"11:27 AM","tarifa_moto":7239,"tarifa_carro":9872},
{"id":762,"name":"Robin","lat":49.5642187,"lon":13.5559769,"puntuation":1.1,"address":"12723 Rigney Alley","date":"6/20/2023","time":"5:33 PM","tarifa_moto":8121,"tarifa_carro":8147},
{"id":763,"name":"Kamila","lat":57.056336,"lon":64.6282995,"puntuation":2.5,"address":"63 Division Court","date":"2/2/2024","time":"5:33 PM","tarifa_moto":4541,"tarifa_carro":6820},
{"id":764,"name":"Clay","lat":49.794097,"lon":12.5783985,"puntuation":1.8,"address":"3 Artisan Place","date":"4/10/2023","time":"6:03 PM","tarifa_moto":9366,"tarifa_carro":8348},
{"id":765,"name":"Merola","lat":43.653169,"lon":111.977943,"puntuation":2.1,"address":"20977 Nevada Circle","date":"3/21/2023","time":"2:52 AM","tarifa_moto":8665,"tarifa_carro":9576},
{"id":766,"name":"Vivianne","lat":52.56166,"lon":17.82264,"puntuation":2.0,"address":"11 Forster Terrace","date":"3/18/2024","time":"5:35 PM","tarifa_moto":9754,"tarifa_carro":8715},
{"id":767,"name":"Dugald","lat":31.491169,"lon":120.31191,"puntuation":4.3,"address":"50 4th Street","date":"3/12/2024","time":"11:09 AM","tarifa_moto":7683,"tarifa_carro":9176},
{"id":768,"name":"Betty","lat":53.8750218,"lon":17.6581823,"puntuation":3.4,"address":"5476 Ruskin Parkway","date":"12/1/2023","time":"7:09 AM","tarifa_moto":9901,"tarifa_carro":8851},
{"id":769,"name":"Helsa","lat":8.6899208,"lon":6.663812,"puntuation":3.9,"address":"9126 Mandrake Court","date":"1/14/2024","time":"5:02 PM","tarifa_moto":9525,"tarifa_carro":6279},
{"id":770,"name":"Dorothy","lat":28.791929,"lon":116.844706,"puntuation":1.6,"address":"98541 Butterfield Lane","date":"7/19/2023","time":"9:54 AM","tarifa_moto":7246,"tarifa_carro":8961},
{"id":771,"name":"Pennie","lat":49.10307,"lon":23.59099,"puntuation":2.7,"address":"433 Donald Trail","date":"9/24/2023","time":"8:20 PM","tarifa_moto":4187,"tarifa_carro":7054},
{"id":772,"name":"Harvey","lat":-46.5409005,"lon":-71.7222795,"puntuation":3.0,"address":"8487 Monica Circle","date":"4/6/2023","time":"9:19 AM","tarifa_moto":4797,"tarifa_carro":9497},
{"id":773,"name":"Pierre","lat":19.9104798,"lon":99.840576,"puntuation":1.4,"address":"717 Glendale Trail","date":"5/28/2023","time":"3:03 AM","tarifa_moto":7311,"tarifa_carro":8660},
{"id":774,"name":"Johannah","lat":10.1794092,"lon":-66.7248247,"puntuation":1.6,"address":"6596 Talisman Road","date":"8/17/2023","time":"11:35 PM","tarifa_moto":8553,"tarifa_carro":6037},
{"id":775,"name":"Cammy","lat":9.3568025,"lon":1.248195,"puntuation":3.2,"address":"24 Oak Circle","date":"9/8/2023","time":"7:59 PM","tarifa_moto":8715,"tarifa_carro":8542},
{"id":776,"name":"Darius","lat":51.8071084,"lon":16.3164767,"puntuation":1.4,"address":"3897 Parkside Court","date":"12/5/2023","time":"10:22 AM","tarifa_moto":6473,"tarifa_carro":8740},
{"id":777,"name":"Killy","lat":-10.0055535,"lon":124.458641,"puntuation":2.0,"address":"1 Beilfuss Street","date":"3/27/2023","time":"1:34 AM","tarifa_moto":9092,"tarifa_carro":6783},
{"id":778,"name":"Kendra","lat":3.9671435,"lon":103.40391,"puntuation":1.6,"address":"62 Vermont Parkway","date":"1/2/2024","time":"8:33 PM","tarifa_moto":7045,"tarifa_carro":9025},
{"id":779,"name":"Madelon","lat":-13.4554688,"lon":-72.300772,"puntuation":3.8,"address":"3 Grim Terrace","date":"8/12/2023","time":"9:53 PM","tarifa_moto":8767,"tarifa_carro":9996},
{"id":780,"name":"Estelle","lat":22.669716,"lon":114.026395,"puntuation":4.0,"address":"7924 Eagan Circle","date":"7/5/2023","time":"3:37 PM","tarifa_moto":7378,"tarifa_carro":6076},
{"id":781,"name":"Paule","lat":-8.8221596,"lon":33.8425243,"puntuation":2.1,"address":"6032 Coolidge Pass","date":"10/14/2023","time":"7:36 PM","tarifa_moto":5519,"tarifa_carro":6208},
{"id":782,"name":"Trefor","lat":49.895309,"lon":6.0925959,"puntuation":2.1,"address":"1980 La Follette Avenue","date":"3/3/2024","time":"2:06 AM","tarifa_moto":9820,"tarifa_carro":9491},
{"id":783,"name":"Callie","lat":22.280436,"lon":114.157935,"puntuation":1.3,"address":"84982 Sachtjen Court","date":"5/24/2023","time":"2:46 AM","tarifa_moto":6812,"tarifa_carro":7913},
{"id":784,"name":"Tony","lat":43.267167,"lon":129.618208,"puntuation":4.6,"address":"0 Bunker Hill Circle","date":"4/30/2023","time":"3:02 PM","tarifa_moto":6252,"tarifa_carro":8392},
{"id":785,"name":"Adrea","lat":36.8517527,"lon":138.3628039,"puntuation":4.3,"address":"919 Maywood Alley","date":"6/4/2023","time":"8:01 AM","tarifa_moto":4093,"tarifa_carro":6627},
{"id":786,"name":"Rikki","lat":4.9404494,"lon":8.317343,"puntuation":4.0,"address":"9 Parkside Park","date":"5/10/2023","time":"8:49 AM","tarifa_moto":7051,"tarifa_carro":8158},
{"id":787,"name":"Nathanial","lat":8.305925,"lon":-73.611665,"puntuation":3.7,"address":"65945 Ronald Regan Terrace","date":"5/8/2023","time":"9:28 PM","tarifa_moto":6414,"tarifa_carro":8685},
{"id":788,"name":"Cynthea","lat":16.85836,"lon":43.19781,"puntuation":1.1,"address":"42712 Elgar Court","date":"9/15/2023","time":"5:20 AM","tarifa_moto":6588,"tarifa_carro":8424},
{"id":789,"name":"Cammi","lat":40.0820173,"lon":113.2828702,"puntuation":1.3,"address":"4452 Hintze Hill","date":"1/23/2024","time":"12:28 PM","tarifa_moto":7260,"tarifa_carro":9862},
{"id":790,"name":"Luce","lat":-14.1968614,"lon":-41.6809724,"puntuation":4.7,"address":"7 Trailsway Pass","date":"4/22/2023","time":"12:15 PM","tarifa_moto":9864,"tarifa_carro":6819},
{"id":791,"name":"Georas","lat":-29.0563937,"lon":167.959588,"puntuation":4.3,"address":"202 Oak Road","date":"5/3/2023","time":"11:57 PM","tarifa_moto":5819,"tarifa_carro":6117},
{"id":792,"name":"Cull","lat":41.37536,"lon":-8.0186953,"puntuation":3.6,"address":"2 Helena Crossing","date":"11/26/2023","time":"10:10 AM","tarifa_moto":5526,"tarifa_carro":6191},
{"id":793,"name":"Kermie","lat":4.6096768,"lon":101.1064003,"puntuation":4.0,"address":"89 Duke Place","date":"2/24/2024","time":"1:13 AM","tarifa_moto":7395,"tarifa_carro":9838},
{"id":794,"name":"Ailee","lat":-7.3933814,"lon":112.7330892,"puntuation":4.1,"address":"1 Ridgeview Park","date":"4/5/2023","time":"3:51 AM","tarifa_moto":6488,"tarifa_carro":7597},
{"id":795,"name":"Dorelia","lat":32.0467278,"lon":118.7864923,"puntuation":3.0,"address":"9693 Duke Parkway","date":"7/18/2023","time":"3:44 PM","tarifa_moto":9532,"tarifa_carro":8243},
{"id":796,"name":"Fionnula","lat":32.331765,"lon":121.185201,"puntuation":1.5,"address":"9 Cottonwood Place","date":"9/6/2023","time":"12:29 PM","tarifa_moto":8617,"tarifa_carro":8277},
{"id":797,"name":"Osbourne","lat":-7.0370275,"lon":108.2496145,"puntuation":4.1,"address":"57455 Grover Way","date":"6/24/2023","time":"1:11 AM","tarifa_moto":4758,"tarifa_carro":7069},
{"id":798,"name":"Romy","lat":42.3840829,"lon":-83.0415078,"puntuation":1.8,"address":"505 Brickson Park Avenue","date":"1/7/2024","time":"5:01 PM","tarifa_moto":5500,"tarifa_carro":9596},
{"id":799,"name":"Clemence","lat":39.9175385,"lon":-75.1136721,"puntuation":2.1,"address":"2877 Claremont Lane","date":"5/2/2023","time":"3:41 PM","tarifa_moto":4617,"tarifa_carro":7333},
{"id":800,"name":"Eddy","lat":-6.9828037,"lon":109.5568089,"puntuation":4.6,"address":"70 Mockingbird Terrace","date":"11/30/2023","time":"9:19 PM","tarifa_moto":7997,"tarifa_carro":8905},
{"id":801,"name":"Corey","lat":53.180879,"lon":17.0835566,"puntuation":1.8,"address":"9 Golf Avenue","date":"9/30/2023","time":"8:30 AM","tarifa_moto":6777,"tarifa_carro":8639},
{"id":802,"name":"Horton","lat":29.4779861,"lon":30.961645,"puntuation":3.3,"address":"2474 Laurel Avenue","date":"9/11/2023","time":"12:25 PM","tarifa_moto":6313,"tarifa_carro":6652},
{"id":803,"name":"Kira","lat":19.4392516,"lon":-99.1636051,"puntuation":4.8,"address":"486 Welch Avenue","date":"1/26/2024","time":"4:05 AM","tarifa_moto":4334,"tarifa_carro":8699},
{"id":804,"name":"Hillard","lat":35.36674,"lon":36.39359,"puntuation":1.1,"address":"65632 American Ash Parkway","date":"7/27/2023","time":"10:53 AM","tarifa_moto":5914,"tarifa_carro":8237},
{"id":805,"name":"Reiko","lat":-0.5107264,"lon":-78.5717631,"puntuation":1.2,"address":"260 Aberg Plaza","date":"6/26/2023","time":"11:50 AM","tarifa_moto":9674,"tarifa_carro":7943},
{"id":806,"name":"Abbi","lat":40.4304275,"lon":50.0347608,"puntuation":4.9,"address":"011 David Pass","date":"11/17/2023","time":"9:53 AM","tarifa_moto":6261,"tarifa_carro":8038},
{"id":807,"name":"Monah","lat":31.7284972,"lon":-106.4899163,"puntuation":1.7,"address":"7695 Anniversary Center","date":"1/30/2024","time":"11:38 PM","tarifa_moto":7187,"tarifa_carro":6425},
{"id":808,"name":"Renado","lat":37.6837922,"lon":138.8825459,"puntuation":1.1,"address":"63 Summit Crossing","date":"12/12/2023","time":"9:26 AM","tarifa_moto":8631,"tarifa_carro":9908},
{"id":809,"name":"Rosaleen","lat":-6.866705,"lon":107.6626743,"puntuation":3.1,"address":"884 Northfield Drive","date":"12/15/2023","time":"1:58 PM","tarifa_moto":7862,"tarifa_carro":9650},
{"id":810,"name":"Ignaz","lat":28.915608,"lon":118.579936,"puntuation":1.6,"address":"057 Bowman Junction","date":"5/7/2023","time":"4:58 AM","tarifa_moto":9647,"tarifa_carro":8925},
{"id":811,"name":"Myrvyn","lat":40.5369108,"lon":21.2582079,"puntuation":3.9,"address":"7774 Upham Center","date":"4/27/2023","time":"3:24 PM","tarifa_moto":8647,"tarifa_carro":8286},
{"id":812,"name":"Elinor","lat":25.456453,"lon":103.240546,"puntuation":3.2,"address":"62 Riverside Lane","date":"12/9/2023","time":"9:22 AM","tarifa_moto":7760,"tarifa_carro":8070},
{"id":813,"name":"Minnaminnie","lat":-3.755635,"lon":114.8033337,"puntuation":3.3,"address":"3 Stone Corner Way","date":"1/28/2024","time":"11:07 PM","tarifa_moto":6239,"tarifa_carro":9655},
{"id":814,"name":"Yalonda","lat":51.0031913,"lon":14.4423662,"puntuation":2.6,"address":"611 Columbus Center","date":"6/19/2023","time":"7:45 AM","tarifa_moto":5213,"tarifa_carro":8288},
{"id":815,"name":"Dukie","lat":-8.584571,"lon":116.1245642,"puntuation":3.6,"address":"9223 Cottonwood Street","date":"7/7/2023","time":"10:39 AM","tarifa_moto":4642,"tarifa_carro":8988},
{"id":816,"name":"Thatch","lat":37.7181398,"lon":-122.4863492,"puntuation":1.3,"address":"9050 Dennis Street","date":"8/21/2023","time":"6:59 PM","tarifa_moto":8815,"tarifa_carro":7502},
{"id":817,"name":"Gunter","lat":29.528923,"lon":104.990101,"puntuation":3.2,"address":"4 Stoughton Street","date":"5/31/2023","time":"10:54 PM","tarifa_moto":4336,"tarifa_carro":7769},
{"id":818,"name":"Myrtie","lat":33.025433,"lon":119.020584,"puntuation":1.5,"address":"9 Holy Cross Lane","date":"1/1/2024","time":"1:48 PM","tarifa_moto":7672,"tarifa_carro":7268},
{"id":819,"name":"Antonetta","lat":32.81236,"lon":35.258613,"puntuation":4.5,"address":"903 Helena Place","date":"9/24/2023","time":"4:21 AM","tarifa_moto":5638,"tarifa_carro":7588},
{"id":820,"name":"Ashlie","lat":56.2340628,"lon":37.5182622,"puntuation":1.3,"address":"1067 Mayfield Avenue","date":"11/2/2023","time":"5:55 AM","tarifa_moto":6088,"tarifa_carro":8679},
{"id":821,"name":"Portia","lat":57.7230813,"lon":13.1033798,"puntuation":3.3,"address":"227 Fulton Hill","date":"12/9/2023","time":"7:52 PM","tarifa_moto":8074,"tarifa_carro":7235},
{"id":822,"name":"Raf","lat":-7.3733703,"lon":108.2822389,"puntuation":4.6,"address":"4318 Hintze Way","date":"3/8/2024","time":"5:31 PM","tarifa_moto":4916,"tarifa_carro":6647},
{"id":823,"name":"Willa","lat":31.1853497,"lon":35.7047733,"puntuation":2.4,"address":"27 Meadow Ridge Hill","date":"9/7/2023","time":"4:25 AM","tarifa_moto":9567,"tarifa_carro":8113},
{"id":824,"name":"Gianina","lat":39.864867,"lon":79.069332,"puntuation":1.3,"address":"88 La Follette Park","date":"7/11/2023","time":"2:49 PM","tarifa_moto":5356,"tarifa_carro":9859},
{"id":825,"name":"Lemmy","lat":38.9475624,"lon":-77.3295728,"puntuation":1.8,"address":"25628 Blaine Terrace","date":"10/15/2023","time":"10:08 PM","tarifa_moto":4260,"tarifa_carro":7987},
{"id":826,"name":"Mortimer","lat":37.2746124,"lon":9.8627243,"puntuation":1.3,"address":"448 Center Pass","date":"3/3/2024","time":"12:17 AM","tarifa_moto":5953,"tarifa_carro":6495},
{"id":827,"name":"Siward","lat":8.508983,"lon":125.969667,"puntuation":2.3,"address":"437 Morrow Lane","date":"3/29/2023","time":"1:18 AM","tarifa_moto":6995,"tarifa_carro":8170},
{"id":828,"name":"Drucy","lat":-15.7311162,"lon":-41.5212742,"puntuation":4.5,"address":"496 Elmside Park","date":"2/6/2024","time":"10:54 PM","tarifa_moto":7800,"tarifa_carro":9813},
{"id":829,"name":"Debbi","lat":-11.2122554,"lon":13.8477121,"puntuation":2.4,"address":"6699 Vahlen Parkway","date":"6/3/2023","time":"4:13 PM","tarifa_moto":4483,"tarifa_carro":6424},
{"id":830,"name":"Cleopatra","lat":53.69889,"lon":31.71417,"puntuation":4.2,"address":"825 Golf Course Hill","date":"11/13/2023","time":"9:33 PM","tarifa_moto":4094,"tarifa_carro":7658},
{"id":831,"name":"Minni","lat":28.650072,"lon":121.261886,"puntuation":4.6,"address":"55 Homewood Street","date":"6/12/2023","time":"4:21 AM","tarifa_moto":5669,"tarifa_carro":6722},
{"id":832,"name":"Rolf","lat":50.3676821,"lon":25.8233821,"puntuation":4.6,"address":"1 Myrtle Place","date":"6/15/2023","time":"10:13 AM","tarifa_moto":5176,"tarifa_carro":7044},
{"id":833,"name":"Rubin","lat":-34.6504677,"lon":-58.5613439,"puntuation":4.8,"address":"899 Judy Center","date":"10/15/2023","time":"9:26 AM","tarifa_moto":9639,"tarifa_carro":7863},
{"id":834,"name":"Babbie","lat":35.3113485,"lon":25.313023,"puntuation":2.5,"address":"75007 Mcbride Hill","date":"10/12/2023","time":"3:10 AM","tarifa_moto":8043,"tarifa_carro":7336},
{"id":835,"name":"Alfy","lat":64.0615492,"lon":23.6542166,"puntuation":2.4,"address":"91 Spaight Way","date":"5/25/2023","time":"10:23 PM","tarifa_moto":7571,"tarifa_carro":9961},
{"id":836,"name":"Don","lat":2.6378061,"lon":98.7150831,"puntuation":1.3,"address":"04 Coleman Street","date":"9/25/2023","time":"10:52 PM","tarifa_moto":8061,"tarifa_carro":6436},
{"id":837,"name":"Dallis","lat":56.2533676,"lon":43.1585921,"puntuation":4.0,"address":"969 Hoepker Place","date":"11/5/2023","time":"3:02 PM","tarifa_moto":8926,"tarifa_carro":8650},
{"id":838,"name":"Frazer","lat":55.7557791,"lon":37.5709037,"puntuation":3.9,"address":"3 Becker Way","date":"11/25/2023","time":"5:40 PM","tarifa_moto":5226,"tarifa_carro":9015},
{"id":839,"name":"Frasquito","lat":43.7728532,"lon":26.5290794,"puntuation":4.7,"address":"09998 Lake View Road","date":"2/21/2024","time":"10:27 AM","tarifa_moto":6349,"tarifa_carro":9599},
{"id":840,"name":"Darn","lat":31.364902,"lon":108.249509,"puntuation":1.5,"address":"8337 Packers Way","date":"11/20/2023","time":"4:26 AM","tarifa_moto":7214,"tarifa_carro":9204},
{"id":841,"name":"Adele","lat":65.4026,"lon":21.1886684,"puntuation":2.9,"address":"36 Drewry Road","date":"4/20/2023","time":"10:28 AM","tarifa_moto":5549,"tarifa_carro":9286},
{"id":842,"name":"Arnuad","lat":52.5112898,"lon":6.092908,"puntuation":3.0,"address":"2 Michigan Place","date":"5/13/2023","time":"1:09 PM","tarifa_moto":5498,"tarifa_carro":8627},
{"id":843,"name":"Ninette","lat":-8.2192422,"lon":112.3665609,"puntuation":1.9,"address":"47 Darwin Center","date":"8/2/2023","time":"3:50 PM","tarifa_moto":5395,"tarifa_carro":7542},
{"id":844,"name":"Weber","lat":13.8608665,"lon":121.221138,"puntuation":3.4,"address":"0185 Maple Circle","date":"3/16/2024","time":"12:58 AM","tarifa_moto":5393,"tarifa_carro":6703},
{"id":845,"name":"Corinna","lat":23.802044,"lon":116.932436,"puntuation":4.7,"address":"2174 Union Place","date":"4/10/2023","time":"4:17 AM","tarifa_moto":6329,"tarifa_carro":7516},
{"id":846,"name":"Jacquelyn","lat":55.1536343,"lon":72.6937323,"puntuation":3.5,"address":"4 West Circle","date":"10/18/2023","time":"4:21 AM","tarifa_moto":4597,"tarifa_carro":8548},
{"id":847,"name":"Alfreda","lat":-8.5309777,"lon":-37.1239897,"puntuation":3.0,"address":"8 Gerald Parkway","date":"12/28/2023","time":"8:14 AM","tarifa_moto":6418,"tarifa_carro":8447},
{"id":848,"name":"Felicia","lat":7.8806888,"lon":-67.4695307,"puntuation":1.4,"address":"00 Grayhawk Avenue","date":"5/15/2023","time":"4:30 AM","tarifa_moto":6228,"tarifa_carro":9139},
{"id":849,"name":"Aharon","lat":-3.3186067,"lon":114.5943784,"puntuation":2.3,"address":"99 Buell Pass","date":"4/2/2023","time":"6:35 AM","tarifa_moto":5620,"tarifa_carro":9756},
{"id":850,"name":"Marcela","lat":56.1357417,"lon":13.1119454,"puntuation":2.6,"address":"91504 Ohio Street","date":"3/3/2024","time":"2:14 PM","tarifa_moto":6431,"tarifa_carro":9964},
{"id":851,"name":"Ardis","lat":51.6083,"lon":38.9102,"puntuation":2.3,"address":"378 Becker Junction","date":"5/6/2023","time":"6:59 AM","tarifa_moto":4492,"tarifa_carro":9062},
{"id":852,"name":"Armando","lat":31.231121,"lon":121.466039,"puntuation":3.5,"address":"9 Norway Maple Road","date":"5/23/2023","time":"5:05 AM","tarifa_moto":4069,"tarifa_carro":6815},
{"id":853,"name":"Pet","lat":47.2243648,"lon":1.7394788,"puntuation":3.0,"address":"33834 7th Way","date":"6/19/2023","time":"9:56 AM","tarifa_moto":4302,"tarifa_carro":8216},
{"id":854,"name":"Jarad","lat":-23.5198964,"lon":-46.3408798,"puntuation":3.8,"address":"3 Sage Crossing","date":"3/3/2024","time":"6:36 PM","tarifa_moto":8954,"tarifa_carro":9815},
{"id":855,"name":"Papagena","lat":35.1855659,"lon":33.3822764,"puntuation":3.4,"address":"899 Elka Way","date":"8/8/2023","time":"3:24 PM","tarifa_moto":9739,"tarifa_carro":7751},
{"id":856,"name":"Prent","lat":43.8317876,"lon":4.3686291,"puntuation":3.1,"address":"38 Sunbrook Park","date":"1/28/2024","time":"6:29 AM","tarifa_moto":7010,"tarifa_carro":6708},
{"id":857,"name":"Dulcinea","lat":9.3730352,"lon":122.7631154,"puntuation":4.0,"address":"9961 Lakewood Gardens Plaza","date":"5/1/2023","time":"8:07 AM","tarifa_moto":7819,"tarifa_carro":6598},
{"id":858,"name":"Leila","lat":37.2094994,"lon":68.775115,"puntuation":3.2,"address":"6299 Spenser Terrace","date":"11/13/2023","time":"10:27 PM","tarifa_moto":9928,"tarifa_carro":7589},
{"id":859,"name":"Caralie","lat":39.3822864,"lon":48.3501725,"puntuation":2.9,"address":"813 Meadow Ridge Trail","date":"6/1/2023","time":"9:00 AM","tarifa_moto":7220,"tarifa_carro":7896},
{"id":860,"name":"Wallas","lat":-34.6761,"lon":-58.5404623,"puntuation":1.5,"address":"1 Monica Place","date":"12/2/2023","time":"3:59 AM","tarifa_moto":9803,"tarifa_carro":7859},
{"id":861,"name":"Krysta","lat":37.4784878,"lon":126.8642888,"puntuation":4.3,"address":"17 Oriole Place","date":"9/1/2023","time":"5:26 PM","tarifa_moto":7228,"tarifa_carro":9163},
{"id":862,"name":"Rosemary","lat":29.26917,"lon":47.97806,"puntuation":1.6,"address":"8 Prentice Junction","date":"11/25/2023","time":"6:43 AM","tarifa_moto":7985,"tarifa_carro":8470},
{"id":863,"name":"Tracie","lat":50.5374971,"lon":16.0198605,"puntuation":4.7,"address":"38 Spenser Plaza","date":"12/2/2023","time":"3:40 AM","tarifa_moto":5322,"tarifa_carro":7019},
{"id":864,"name":"Bartholomew","lat":44.1498975,"lon":-81.0202533,"puntuation":1.3,"address":"7 Di Loreto Terrace","date":"3/17/2024","time":"5:24 PM","tarifa_moto":4847,"tarifa_carro":6061},
{"id":865,"name":"Duncan","lat":37.347409,"lon":115.965874,"puntuation":3.7,"address":"8 Graedel Point","date":"8/24/2023","time":"2:32 PM","tarifa_moto":7340,"tarifa_carro":7646},
{"id":866,"name":"Cy","lat":56.907241,"lon":24.0317249,"puntuation":4.1,"address":"1170 Truax Road","date":"2/17/2024","time":"11:56 PM","tarifa_moto":6158,"tarifa_carro":8041},
{"id":867,"name":"Iorgos","lat":30.4231682,"lon":31.5654425,"puntuation":4.0,"address":"94416 Browning Point","date":"4/3/2023","time":"5:41 AM","tarifa_moto":7227,"tarifa_carro":8202},
{"id":868,"name":"Miran","lat":50.3539812,"lon":13.8033551,"puntuation":2.0,"address":"91 Union Parkway","date":"2/9/2024","time":"12:12 AM","tarifa_moto":6592,"tarifa_carro":6864},
{"id":869,"name":"Kassi","lat":-19.7963816,"lon":34.8844867,"puntuation":2.7,"address":"47767 Forster Road","date":"3/12/2024","time":"7:15 AM","tarifa_moto":8343,"tarifa_carro":8397},
{"id":870,"name":"Chrysa","lat":53.3046353,"lon":-6.1979853,"puntuation":3.4,"address":"72959 Schlimgen Plaza","date":"10/12/2023","time":"5:59 AM","tarifa_moto":4275,"tarifa_carro":9509},
{"id":871,"name":"Glennie","lat":41.005341,"lon":71.236153,"puntuation":1.9,"address":"3654 Sheridan Circle","date":"3/19/2023","time":"7:36 PM","tarifa_moto":6016,"tarifa_carro":8511},
{"id":872,"name":"Margy","lat":36.8199022,"lon":21.7063018,"puntuation":3.8,"address":"17 Butternut Junction","date":"7/5/2023","time":"8:01 PM","tarifa_moto":9255,"tarifa_carro":8451},
{"id":873,"name":"Chrysler","lat":20.6574573,"lon":-74.9501034,"puntuation":2.4,"address":"26856 Delladonna Way","date":"1/25/2024","time":"8:19 PM","tarifa_moto":8025,"tarifa_carro":8761},
{"id":874,"name":"Berke","lat":41.548437,"lon":82.433337,"puntuation":3.1,"address":"17 Dexter Center","date":"7/31/2023","time":"6:21 AM","tarifa_moto":5482,"tarifa_carro":6979},
{"id":875,"name":"Gerladina","lat":-1.1748105,"lon":36.8304102,"puntuation":1.3,"address":"104 Lukken Hill","date":"6/24/2023","time":"11:49 AM","tarifa_moto":4372,"tarifa_carro":9696},
{"id":876,"name":"Myrilla","lat":20.003169,"lon":110.353972,"puntuation":2.5,"address":"4116 Oak Place","date":"6/20/2023","time":"11:54 PM","tarifa_moto":9540,"tarifa_carro":6075},
{"id":877,"name":"Wilmette","lat":-8.7916488,"lon":121.0392436,"puntuation":4.3,"address":"01 Glacier Hill Drive","date":"12/6/2023","time":"1:04 PM","tarifa_moto":5758,"tarifa_carro":8627},
{"id":878,"name":"Morgan","lat":31.1447,"lon":61.7925,"puntuation":2.5,"address":"09175 Porter Terrace","date":"4/15/2023","time":"8:18 AM","tarifa_moto":9114,"tarifa_carro":8098},
{"id":879,"name":"Hazel","lat":56.0463429,"lon":12.7045118,"puntuation":4.5,"address":"9 John Wall Way","date":"8/11/2023","time":"2:38 AM","tarifa_moto":8491,"tarifa_carro":7525},
{"id":880,"name":"Akim","lat":30.2102442,"lon":71.486643,"puntuation":2.3,"address":"31777 Stone Corner Center","date":"1/24/2024","time":"2:52 AM","tarifa_moto":8544,"tarifa_carro":6149},
{"id":881,"name":"Lorilee","lat":4.2100095,"lon":8.9901033,"puntuation":4.0,"address":"75 Manitowish Trail","date":"12/31/2023","time":"11:53 PM","tarifa_moto":6319,"tarifa_carro":9922},
{"id":882,"name":"Betti","lat":-7.0386232,"lon":-42.1572702,"puntuation":1.3,"address":"794 Bluestem Street","date":"6/28/2023","time":"5:33 AM","tarifa_moto":4127,"tarifa_carro":7464},
{"id":883,"name":"Wolfy","lat":23.156045,"lon":112.896606,"puntuation":1.0,"address":"182 Sachs Court","date":"7/30/2023","time":"1:21 PM","tarifa_moto":8746,"tarifa_carro":6268},
{"id":884,"name":"Fianna","lat":49.9527773,"lon":28.8578584,"puntuation":2.5,"address":"68558 Annamark Terrace","date":"7/14/2023","time":"4:49 PM","tarifa_moto":5370,"tarifa_carro":9682},
{"id":885,"name":"Sigrid","lat":12.0375095,"lon":-61.6676857,"puntuation":4.7,"address":"823 Fair Oaks Point","date":"1/3/2024","time":"10:37 PM","tarifa_moto":4476,"tarifa_carro":6912},
{"id":886,"name":"Philippe","lat":53.16972,"lon":83.21333,"puntuation":3.9,"address":"9673 Mariners Cove Point","date":"3/31/2023","time":"2:06 AM","tarifa_moto":5670,"tarifa_carro":8011},
{"id":887,"name":"Barbey","lat":-0.789275,"lon":113.921327,"puntuation":4.4,"address":"5981 Alpine Court","date":"12/6/2023","time":"11:06 PM","tarifa_moto":5794,"tarifa_carro":8593},
{"id":888,"name":"Mattie","lat":35.202503,"lon":102.521807,"puntuation":4.6,"address":"941 Hollow Ridge Circle","date":"6/15/2023","time":"10:07 PM","tarifa_moto":4536,"tarifa_carro":8239},
{"id":889,"name":"Moise","lat":-34.6230015,"lon":-58.5764959,"puntuation":2.8,"address":"50164 Mallard Drive","date":"10/8/2023","time":"8:58 AM","tarifa_moto":4710,"tarifa_carro":6643},
{"id":890,"name":"Bartholomeo","lat":-7.870292,"lon":140.515106,"puntuation":1.0,"address":"87216 Dakota Center","date":"5/21/2023","time":"8:45 AM","tarifa_moto":5020,"tarifa_carro":9590},
{"id":891,"name":"Michelina","lat":-10.2043297,"lon":123.6819029,"puntuation":4.7,"address":"79 Porter Parkway","date":"10/15/2023","time":"3:59 AM","tarifa_moto":6786,"tarifa_carro":7973},
{"id":892,"name":"Ilyssa","lat":53.16972,"lon":83.21333,"puntuation":4.4,"address":"68 Fremont Place","date":"7/1/2023","time":"4:56 AM","tarifa_moto":7662,"tarifa_carro":8597},
{"id":893,"name":"Earle","lat":40.4210295,"lon":20.2616268,"puntuation":4.7,"address":"7 Grasskamp Hill","date":"2/5/2024","time":"7:27 PM","tarifa_moto":9664,"tarifa_carro":7419},
{"id":894,"name":"Cullen","lat":29.205856,"lon":117.11078,"puntuation":4.1,"address":"96146 Burning Wood Park","date":"12/29/2023","time":"8:07 PM","tarifa_moto":5651,"tarifa_carro":8878},
{"id":895,"name":"Adrian","lat":24.865287,"lon":118.578967,"puntuation":1.3,"address":"608 Mitchell Court","date":"9/20/2023","time":"3:15 AM","tarifa_moto":8830,"tarifa_carro":7049},
{"id":896,"name":"Nikolas","lat":45.48338,"lon":-71.66577,"puntuation":1.7,"address":"70003 Monica Center","date":"5/5/2023","time":"3:43 PM","tarifa_moto":4719,"tarifa_carro":8230},
{"id":897,"name":"Giuditta","lat":40.72997,"lon":-73.860733,"puntuation":3.3,"address":"16400 Commercial Circle","date":"9/19/2023","time":"7:33 PM","tarifa_moto":5819,"tarifa_carro":6520},
{"id":898,"name":"Nike","lat":39.761892,"lon":116.420331,"puntuation":4.4,"address":"436 David Pass","date":"2/2/2024","time":"2:55 PM","tarifa_moto":9605,"tarifa_carro":7813},
{"id":899,"name":"Tammara","lat":12.7684177,"lon":-87.1310668,"puntuation":3.8,"address":"1 Pine View Parkway","date":"12/31/2023","time":"12:12 AM","tarifa_moto":5426,"tarifa_carro":9737},
{"id":900,"name":"Burke","lat":59.3517412,"lon":24.6104962,"puntuation":4.6,"address":"9540 Jay Court","date":"8/16/2023","time":"1:47 PM","tarifa_moto":5427,"tarifa_carro":7723},
{"id":901,"name":"Veda","lat":39.9416682,"lon":116.3958807,"puntuation":4.2,"address":"27 Waubesa Avenue","date":"10/28/2023","time":"10:48 PM","tarifa_moto":8130,"tarifa_carro":8131},
{"id":902,"name":"Isidoro","lat":-21.7972251,"lon":-50.879763,"puntuation":4.1,"address":"4954 Ridgeway Parkway","date":"2/24/2024","time":"1:54 AM","tarifa_moto":4471,"tarifa_carro":8766},
{"id":903,"name":"Wrennie","lat":-8.1094987,"lon":115.1618941,"puntuation":4.0,"address":"47 Orin Pass","date":"10/17/2023","time":"8:41 AM","tarifa_moto":6097,"tarifa_carro":8117},
{"id":904,"name":"Robb","lat":-6.9861815,"lon":107.2930419,"puntuation":3.5,"address":"61 Southridge Drive","date":"11/15/2023","time":"8:20 PM","tarifa_moto":4165,"tarifa_carro":9220},
{"id":905,"name":"Tadeo","lat":17.7177253,"lon":102.1175404,"puntuation":3.8,"address":"0306 Forest Drive","date":"6/6/2023","time":"6:45 PM","tarifa_moto":7707,"tarifa_carro":7016},
{"id":906,"name":"Hynda","lat":26.9915774,"lon":31.4155591,"puntuation":3.3,"address":"00 Quincy Lane","date":"4/28/2023","time":"8:04 AM","tarifa_moto":8932,"tarifa_carro":9797},
{"id":907,"name":"Engracia","lat":50.1823264,"lon":19.2871769,"puntuation":3.2,"address":"093 Debs Terrace","date":"6/13/2023","time":"9:29 PM","tarifa_moto":7000,"tarifa_carro":6753},
{"id":908,"name":"Lissi","lat":13.0142682,"lon":31.8733386,"puntuation":1.7,"address":"7544 Kenwood Parkway","date":"1/8/2024","time":"2:44 AM","tarifa_moto":8147,"tarifa_carro":8796},
{"id":909,"name":"Edeline","lat":1.3887283,"lon":125.0167866,"puntuation":2.2,"address":"13 Meadow Ridge Point","date":"9/11/2023","time":"5:46 AM","tarifa_moto":6282,"tarifa_carro":9291},
{"id":910,"name":"Barron","lat":11.5352048,"lon":124.8289296,"puntuation":3.6,"address":"008 American Ash Terrace","date":"9/4/2023","time":"2:49 AM","tarifa_moto":8258,"tarifa_carro":9826},
{"id":911,"name":"Davide","lat":14.3839328,"lon":121.050126,"puntuation":3.3,"address":"9333 Ronald Regan Street","date":"7/17/2023","time":"9:53 AM","tarifa_moto":4311,"tarifa_carro":6348},
{"id":912,"name":"Elane","lat":-4.5699815,"lon":-45.133574,"puntuation":2.5,"address":"06290 Comanche Hill","date":"8/20/2023","time":"7:53 AM","tarifa_moto":4562,"tarifa_carro":9964},
{"id":913,"name":"Husain","lat":2.8590812,"lon":98.7426101,"puntuation":2.4,"address":"2254 Esker Way","date":"2/18/2024","time":"11:15 PM","tarifa_moto":5598,"tarifa_carro":8913},
{"id":914,"name":"Nikkie","lat":11.383932,"lon":107.5386809,"puntuation":4.7,"address":"497 Schmedeman Park","date":"11/22/2023","time":"12:21 AM","tarifa_moto":6040,"tarifa_carro":6591},
{"id":915,"name":"Patrice","lat":63.827461,"lon":20.2599325,"puntuation":4.3,"address":"725 Columbus Center","date":"3/6/2024","time":"10:14 AM","tarifa_moto":9773,"tarifa_carro":6199},
{"id":916,"name":"Shalom","lat":-38.9126083,"lon":-67.976045,"puntuation":1.2,"address":"3726 Autumn Leaf Pass","date":"7/15/2023","time":"9:07 AM","tarifa_moto":9384,"tarifa_carro":6830},
{"id":917,"name":"Millard","lat":1.4092978,"lon":99.2272939,"puntuation":3.5,"address":"4 Meadow Ridge Terrace","date":"5/5/2023","time":"7:30 PM","tarifa_moto":8818,"tarifa_carro":6281},
{"id":918,"name":"Mallissa","lat":-6.921715,"lon":112.054703,"puntuation":3.0,"address":"02 Scofield Trail","date":"8/21/2023","time":"9:53 AM","tarifa_moto":4384,"tarifa_carro":8697},
{"id":919,"name":"Marylin","lat":13.559532,"lon":123.2715608,"puntuation":1.5,"address":"710 Manley Avenue","date":"8/17/2023","time":"4:06 PM","tarifa_moto":9868,"tarifa_carro":8330},
{"id":920,"name":"Kevon","lat":57.6670364,"lon":11.8784699,"puntuation":2.9,"address":"12533 Brickson Park Trail","date":"12/20/2023","time":"3:58 PM","tarifa_moto":7901,"tarifa_carro":6563},
{"id":921,"name":"Guntar","lat":13.6535843,"lon":123.1806689,"puntuation":3.1,"address":"92 Artisan Way","date":"8/18/2023","time":"1:19 PM","tarifa_moto":9654,"tarifa_carro":6827},
{"id":922,"name":"Missie","lat":36.22242,"lon":69.15038,"puntuation":4.1,"address":"2 Everett Junction","date":"4/20/2023","time":"7:26 AM","tarifa_moto":5976,"tarifa_carro":6119},
{"id":923,"name":"Ahmed","lat":49.2176624,"lon":2.121866,"puntuation":3.3,"address":"81253 Dahle Street","date":"7/1/2023","time":"5:58 AM","tarifa_moto":5778,"tarifa_carro":7961},
{"id":924,"name":"Shellie","lat":42.99167,"lon":143.20028,"puntuation":4.8,"address":"669 Cardinal Alley","date":"11/14/2023","time":"1:02 PM","tarifa_moto":5100,"tarifa_carro":9397},
{"id":925,"name":"Arielle","lat":36.8915064,"lon":27.2877228,"puntuation":4.7,"address":"1 School Court","date":"1/29/2024","time":"3:40 AM","tarifa_moto":9913,"tarifa_carro":7477},
{"id":926,"name":"Timmy","lat":59.4527156,"lon":18.091186,"puntuation":2.8,"address":"8875 Sunbrook Court","date":"12/4/2023","time":"8:47 AM","tarifa_moto":4326,"tarifa_carro":6567},
{"id":927,"name":"Osborn","lat":-8.0372299,"lon":112.76878,"puntuation":3.9,"address":"7905 Towne Place","date":"9/16/2023","time":"8:04 PM","tarifa_moto":6294,"tarifa_carro":6986},
{"id":928,"name":"Honey","lat":46.689671,"lon":126.11386,"puntuation":2.2,"address":"66 Oak Valley Way","date":"11/27/2023","time":"11:41 AM","tarifa_moto":6148,"tarifa_carro":6964},
{"id":929,"name":"Maurits","lat":53.5484776,"lon":87.2598304,"puntuation":1.2,"address":"473 Washington Road","date":"9/16/2023","time":"7:04 PM","tarifa_moto":4474,"tarifa_carro":9916},
{"id":930,"name":"Aylmer","lat":-25.5376671,"lon":-55.9901675,"puntuation":2.1,"address":"0 Ruskin Junction","date":"2/22/2024","time":"9:15 AM","tarifa_moto":6794,"tarifa_carro":6538},
{"id":931,"name":"Vincenty","lat":52.4609077,"lon":13.4815474,"puntuation":4.2,"address":"46 East Street","date":"9/2/2023","time":"7:47 AM","tarifa_moto":5026,"tarifa_carro":9608},
{"id":932,"name":"Kristina","lat":-34.6091049,"lon":-58.7005845,"puntuation":2.8,"address":"1168 Maple Street","date":"7/29/2023","time":"9:03 AM","tarifa_moto":9999,"tarifa_carro":7031},
{"id":933,"name":"Elfrieda","lat":41.3641068,"lon":2.133823,"puntuation":1.9,"address":"707 Northwestern Lane","date":"4/3/2023","time":"8:41 PM","tarifa_moto":4582,"tarifa_carro":6484},
{"id":934,"name":"Royall","lat":-7.6359993,"lon":114.0160937,"puntuation":3.2,"address":"276 Sloan Place","date":"6/27/2023","time":"2:27 AM","tarifa_moto":6614,"tarifa_carro":9529},
{"id":935,"name":"Godart","lat":4.1382779,"lon":97.286868,"puntuation":2.6,"address":"0007 Iowa Pass","date":"8/8/2023","time":"1:41 PM","tarifa_moto":9505,"tarifa_carro":9782},
{"id":936,"name":"Felicia","lat":52.2795871,"lon":104.3213093,"puntuation":2.2,"address":"10 Manufacturers Way","date":"9/16/2023","time":"3:28 PM","tarifa_moto":4410,"tarifa_carro":9985},
{"id":937,"name":"Sashenka","lat":58.8781209,"lon":14.9037055,"puntuation":1.7,"address":"1 Cascade Point","date":"7/10/2023","time":"11:04 PM","tarifa_moto":8273,"tarifa_carro":9586},
{"id":938,"name":"Yale","lat":14.10574,"lon":45.44807,"puntuation":4.3,"address":"96 Emmet Park","date":"12/22/2023","time":"12:30 AM","tarifa_moto":5229,"tarifa_carro":6365},
{"id":939,"name":"Levon","lat":40.5470957,"lon":-8.7012507,"puntuation":3.0,"address":"4629 Algoma Crossing","date":"5/27/2023","time":"3:29 AM","tarifa_moto":4303,"tarifa_carro":8937},
{"id":940,"name":"Nicolais","lat":50.5609123,"lon":18.943124,"puntuation":4.3,"address":"8 Village Circle","date":"11/13/2023","time":"11:19 AM","tarifa_moto":9008,"tarifa_carro":6443},
{"id":941,"name":"Vonnie","lat":31.5438478,"lon":130.5387356,"puntuation":4.9,"address":"1 Everett Avenue","date":"8/25/2023","time":"2:09 AM","tarifa_moto":4395,"tarifa_carro":6900},
{"id":942,"name":"Starr","lat":38.67387,"lon":-27.281743,"puntuation":1.2,"address":"5 Oxford Crossing","date":"11/17/2023","time":"2:14 AM","tarifa_moto":6454,"tarifa_carro":8153},
{"id":943,"name":"Kathi","lat":-4.2163479,"lon":104.4694186,"puntuation":1.3,"address":"4144 Loftsgordon Parkway","date":"2/27/2024","time":"11:32 PM","tarifa_moto":5600,"tarifa_carro":9276},
{"id":944,"name":"Thekla","lat":24.5306908,"lon":118.109506,"puntuation":4.2,"address":"8 Thompson Junction","date":"5/22/2023","time":"10:13 AM","tarifa_moto":4366,"tarifa_carro":6783},
{"id":945,"name":"Shermie","lat":41.805699,"lon":123.431472,"puntuation":2.6,"address":"5 Dovetail Avenue","date":"1/22/2024","time":"1:41 PM","tarifa_moto":8489,"tarifa_carro":9898},
{"id":946,"name":"Berti","lat":25.015105,"lon":102.743811,"puntuation":3.0,"address":"682 Fremont Avenue","date":"9/23/2023","time":"10:53 AM","tarifa_moto":6213,"tarifa_carro":8160},
{"id":947,"name":"Evelyn","lat":35.872664,"lon":120.04619,"puntuation":3.4,"address":"388 North Terrace","date":"10/23/2023","time":"3:10 AM","tarifa_moto":7762,"tarifa_carro":8415},
{"id":948,"name":"Adam","lat":37.0827754,"lon":-8.9092899,"puntuation":3.7,"address":"3 Glendale Trail","date":"3/4/2024","time":"2:18 PM","tarifa_moto":5224,"tarifa_carro":7462},
{"id":949,"name":"Rikki","lat":55.6587901,"lon":37.3582146,"puntuation":4.3,"address":"8 Northridge Terrace","date":"5/15/2023","time":"3:00 AM","tarifa_moto":5723,"tarifa_carro":6393},
{"id":950,"name":"Cosimo","lat":53.175543,"lon":21.296838,"puntuation":4.7,"address":"54580 Prairie Rose Circle","date":"2/27/2024","time":"11:04 PM","tarifa_moto":6401,"tarifa_carro":6248},
{"id":951,"name":"Vikky","lat":23.199183,"lon":113.256439,"puntuation":4.8,"address":"311 Towne Drive","date":"2/28/2024","time":"6:18 PM","tarifa_moto":9721,"tarifa_carro":8110},
{"id":952,"name":"Orelia","lat":47.3525565,"lon":127.4199187,"puntuation":4.1,"address":"20 Maryland Crossing","date":"10/3/2023","time":"5:13 PM","tarifa_moto":6998,"tarifa_carro":6997},
{"id":953,"name":"Denys","lat":38.640106,"lon":-9.0560562,"puntuation":3.2,"address":"20 Larry Hill","date":"1/23/2024","time":"11:35 AM","tarifa_moto":4419,"tarifa_carro":7057},
{"id":954,"name":"Celisse","lat":-27.2786239,"lon":28.5155901,"puntuation":4.5,"address":"4431 Dryden Terrace","date":"5/6/2023","time":"7:01 PM","tarifa_moto":6920,"tarifa_carro":9729},
{"id":955,"name":"Cahra","lat":38.9516688,"lon":-9.4027992,"puntuation":4.5,"address":"35 6th Alley","date":"6/19/2023","time":"1:05 AM","tarifa_moto":8578,"tarifa_carro":7731},
{"id":956,"name":"Shaina","lat":45.0775463,"lon":15.3692353,"puntuation":1.7,"address":"35227 Nancy Court","date":"10/16/2023","time":"6:36 PM","tarifa_moto":7048,"tarifa_carro":6957},
{"id":957,"name":"Cort","lat":-7.2125883,"lon":107.9205937,"puntuation":4.2,"address":"5 Gina Hill","date":"7/21/2023","time":"1:14 PM","tarifa_moto":5428,"tarifa_carro":8919},
{"id":958,"name":"Saxe","lat":33.30992,"lon":108.307889,"puntuation":3.9,"address":"850 Sage Circle","date":"3/16/2024","time":"6:19 AM","tarifa_moto":7695,"tarifa_carro":7123},
{"id":959,"name":"Harriett","lat":29.9460643,"lon":122.3032914,"puntuation":2.5,"address":"9 Eagan Circle","date":"9/20/2023","time":"6:08 PM","tarifa_moto":7635,"tarifa_carro":8275},
{"id":960,"name":"Kelley","lat":38.7360496,"lon":-9.1418159,"puntuation":3.4,"address":"2 Eliot Pass","date":"8/4/2023","time":"1:33 AM","tarifa_moto":5416,"tarifa_carro":7886},
{"id":961,"name":"Annadiane","lat":40.104785,"lon":117.116756,"puntuation":4.1,"address":"3 Redwing Plaza","date":"9/2/2023","time":"11:05 AM","tarifa_moto":4278,"tarifa_carro":7662},
{"id":962,"name":"Dallas","lat":46.6678978,"lon":-1.4087525,"puntuation":4.2,"address":"4 Bayside Plaza","date":"11/7/2023","time":"10:45 AM","tarifa_moto":7295,"tarifa_carro":6608},
{"id":963,"name":"Culley","lat":6.942106,"lon":125.141496,"puntuation":1.3,"address":"933 Kim Avenue","date":"6/2/2023","time":"9:39 AM","tarifa_moto":4906,"tarifa_carro":7307},
{"id":964,"name":"Malissia","lat":42.26667,"lon":24.55,"puntuation":4.2,"address":"0 Daystar Street","date":"7/21/2023","time":"6:53 PM","tarifa_moto":9020,"tarifa_carro":9394},
{"id":965,"name":"Natalie","lat":30.7603427,"lon":120.7556573,"puntuation":3.5,"address":"0055 Hermina Parkway","date":"1/2/2024","time":"2:37 AM","tarifa_moto":4120,"tarifa_carro":8210},
{"id":966,"name":"Leontine","lat":42.5420213,"lon":-91.1118075,"puntuation":2.3,"address":"54549 Butternut Circle","date":"10/18/2023","time":"12:25 PM","tarifa_moto":8589,"tarifa_carro":9094},
{"id":967,"name":"Tandie","lat":22.2016816,"lon":-97.8367954,"puntuation":2.0,"address":"46 Kennedy Crossing","date":"12/7/2023","time":"4:23 AM","tarifa_moto":6567,"tarifa_carro":9848},
{"id":968,"name":"Britte","lat":-9.016667,"lon":34.8,"puntuation":2.8,"address":"3 Rutledge Place","date":"8/2/2023","time":"11:02 AM","tarifa_moto":4635,"tarifa_carro":9585},
{"id":969,"name":"Lemuel","lat":56.0396207,"lon":14.1636617,"puntuation":1.5,"address":"9948 Oakridge Junction","date":"11/25/2023","time":"9:48 AM","tarifa_moto":8794,"tarifa_carro":7902},
{"id":970,"name":"Phineas","lat":42.57495,"lon":123.16525,"puntuation":1.2,"address":"447 Moland Drive","date":"12/25/2023","time":"2:59 AM","tarifa_moto":4229,"tarifa_carro":9519},
{"id":971,"name":"Germaine","lat":42.5442603,"lon":22.9616227,"puntuation":1.4,"address":"309 Sunfield Circle","date":"10/22/2023","time":"9:17 AM","tarifa_moto":7564,"tarifa_carro":6915},
{"id":972,"name":"Merrielle","lat":63.8223321,"lon":20.2753893,"puntuation":2.3,"address":"4893 Arizona Park","date":"11/5/2023","time":"11:05 PM","tarifa_moto":4415,"tarifa_carro":9151},
{"id":973,"name":"Corine","lat":13.8758656,"lon":-89.3582599,"puntuation":2.6,"address":"037 Vernon Way","date":"7/14/2023","time":"6:17 PM","tarifa_moto":6736,"tarifa_carro":7762},
{"id":974,"name":"Natalina","lat":41.99427,"lon":21.574625,"puntuation":4.1,"address":"7566 Northwestern Junction","date":"11/30/2023","time":"10:13 AM","tarifa_moto":8668,"tarifa_carro":6559},
{"id":975,"name":"Kermy","lat":48.2162668,"lon":23.3302946,"puntuation":2.7,"address":"5 Maple Court","date":"11/16/2023","time":"4:01 AM","tarifa_moto":9151,"tarifa_carro":8233},
{"id":976,"name":"Cosette","lat":-2.5398781,"lon":14.7550108,"puntuation":3.7,"address":"45 Memorial Plaza","date":"1/8/2024","time":"6:18 AM","tarifa_moto":7257,"tarifa_carro":6210},
{"id":977,"name":"Yurik","lat":29.644609,"lon":106.792686,"puntuation":3.9,"address":"206 Summerview Point","date":"6/6/2023","time":"7:27 PM","tarifa_moto":6017,"tarifa_carro":9870},
{"id":978,"name":"Lotta","lat":50.9742202,"lon":18.2111759,"puntuation":1.1,"address":"486 International Court","date":"4/18/2023","time":"8:55 PM","tarifa_moto":8757,"tarifa_carro":8765},
{"id":979,"name":"Aron","lat":-17.308611,"lon":-48.278112,"puntuation":4.9,"address":"7 School Street","date":"1/9/2024","time":"7:12 PM","tarifa_moto":9031,"tarifa_carro":8808},
{"id":980,"name":"Karlyn","lat":51.1879547,"lon":6.8173593,"puntuation":2.1,"address":"04647 Hansons Avenue","date":"7/7/2023","time":"2:37 AM","tarifa_moto":6701,"tarifa_carro":9791},
{"id":981,"name":"Rocky","lat":14.2157645,"lon":109.1166566,"puntuation":1.3,"address":"1686 Algoma Road","date":"3/1/2024","time":"7:53 AM","tarifa_moto":5774,"tarifa_carro":6269},
{"id":982,"name":"Carmelina","lat":56.9940675,"lon":13.209918,"puntuation":4.2,"address":"22 Park Meadow Avenue","date":"9/2/2023","time":"11:10 AM","tarifa_moto":8408,"tarifa_carro":9759},
{"id":983,"name":"Trace","lat":36.929749,"lon":98.480195,"puntuation":4.9,"address":"590 Corry Road","date":"10/11/2023","time":"3:27 PM","tarifa_moto":4398,"tarifa_carro":6537},
{"id":984,"name":"Fredric","lat":43.4554,"lon":43.5944,"puntuation":1.4,"address":"4426 Forster Terrace","date":"4/26/2023","time":"11:53 PM","tarifa_moto":7679,"tarifa_carro":7535},
{"id":985,"name":"Rogers","lat":58.5812006,"lon":16.1481061,"puntuation":2.5,"address":"47298 Dryden Road","date":"12/12/2023","time":"4:24 PM","tarifa_moto":8625,"tarifa_carro":9127},
{"id":986,"name":"Kahlil","lat":39.9799992,"lon":-105.248737,"puntuation":4.9,"address":"6741 Glacier Hill Place","date":"7/13/2023","time":"1:38 PM","tarifa_moto":4881,"tarifa_carro":7971},
{"id":987,"name":"Salome","lat":56.290878,"lon":26.721958,"puntuation":1.9,"address":"09062 Dwight Terrace","date":"6/1/2023","time":"2:26 AM","tarifa_moto":4645,"tarifa_carro":9879},
{"id":988,"name":"Charmain","lat":40.0383706,"lon":44.5657164,"puntuation":4.9,"address":"6546 Lawn Court","date":"11/5/2023","time":"11:06 PM","tarifa_moto":6201,"tarifa_carro":9641},
{"id":989,"name":"Michaela","lat":-23.4819846,"lon":-49.2435998,"puntuation":1.8,"address":"5 Badeau Avenue","date":"5/3/2023","time":"1:12 AM","tarifa_moto":9278,"tarifa_carro":6978},
{"id":990,"name":"Jade","lat":30.920727,"lon":116.670173,"puntuation":2.9,"address":"5 Brentwood Parkway","date":"12/29/2023","time":"11:07 AM","tarifa_moto":8633,"tarifa_carro":7938},
{"id":991,"name":"Dierdre","lat":40.4520266,"lon":49.9324113,"puntuation":1.3,"address":"950 Petterle Trail","date":"2/18/2024","time":"3:28 AM","tarifa_moto":5760,"tarifa_carro":9003},
{"id":992,"name":"Baillie","lat":13.7740651,"lon":104.9856176,"puntuation":1.5,"address":"006 Veith Way","date":"9/22/2023","time":"5:12 PM","tarifa_moto":5807,"tarifa_carro":8658},
{"id":993,"name":"Micaela","lat":11.825138,"lon":42.590275,"puntuation":1.6,"address":"7 Everett Court","date":"3/31/2023","time":"1:01 PM","tarifa_moto":7842,"tarifa_carro":6945},
{"id":994,"name":"Deerdre","lat":18.298167,"lon":109.452379,"puntuation":2.2,"address":"968 Thompson Junction","date":"10/15/2023","time":"3:37 PM","tarifa_moto":4228,"tarifa_carro":9892},
{"id":995,"name":"Joletta","lat":49.9176763,"lon":18.3509727,"puntuation":1.8,"address":"44751 Bay Park","date":"9/23/2023","time":"9:45 AM","tarifa_moto":5308,"tarifa_carro":7428},
{"id":996,"name":"Aurilia","lat":60.3734699,"lon":21.9469705,"puntuation":4.0,"address":"67948 Texas Crossing","date":"9/17/2023","time":"1:08 PM","tarifa_moto":7807,"tarifa_carro":7340},
{"id":997,"name":"Kimbell","lat":-13.6824359,"lon":-71.6228355,"puntuation":4.5,"address":"1 Grim Road","date":"11/21/2023","time":"9:35 AM","tarifa_moto":7859,"tarifa_carro":9514},
{"id":998,"name":"Fabien","lat":39.9912749,"lon":116.4717334,"puntuation":2.2,"address":"73 Marquette Trail","date":"3/14/2024","time":"3:02 AM","tarifa_moto":4134,"tarifa_carro":6268},
{"id":999,"name":"Trixy","lat":13.4253347,"lon":123.2648166,"puntuation":2.5,"address":"90 Holmberg Place","date":"6/16/2023","time":"5:21 AM","tarifa_moto":9022,"tarifa_carro":7164},
{"id":1000,"name":"Karna","lat":20.9874938,"lon":-77.4185584,"puntuation":1.7,"address":"92 Stoughton Point","date":"10/19/2023","time":"10:46 AM","tarifa_moto":4467,"tarifa_carro":8659}]