[{"id":1,"name":"Dominic","lat":-17.6059721,"lon":-149.3023702,"puntuation":2.7,"address":"57 Old Shore Point","cierre":"11:39 PM","apertura":"7:30 AM","tarifa_moto":5694,"tarifa_carro":8511},
{"id":2,"name":"Wylma","lat":1.6408734,"lon":-75.4111644,"puntuation":4.6,"address":"4938 Springs Drive","cierre":"9:47 PM","apertura":"6:22 AM","tarifa_moto":7599,"tarifa_carro":7033},
{"id":3,"name":"Gregoor","lat":29.060527,"lon":87.762163,"puntuation":3.6,"address":"609 Porter Alley","cierre":"10:24 PM","apertura":"5:04 AM","tarifa_moto":4746,"tarifa_carro":9935},
{"id":4,"name":"Curr","lat":31.5255021,"lon":45.2009362,"puntuation":1.8,"address":"4 Elka Junction","cierre":"7:20 PM","apertura":"12:54 AM","tarifa_moto":7348,"tarifa_carro":7134},
{"id":5,"name":"Tremain","lat":19.309169,"lon":-70.6977162,"puntuation":1.6,"address":"9180 Anthes Alley","cierre":"9:30 PM","apertura":"3:39 AM","tarifa_moto":7541,"tarifa_carro":7448},
{"id":6,"name":"Jone","lat":-7.0621,"lon":113.6886,"puntuation":1.2,"address":"3 Sommers Point","cierre":"8:25 PM","apertura":"6:08 AM","tarifa_moto":6903,"tarifa_carro":6918},
{"id":7,"name":"Ranice","lat":12.7854969,"lon":45.0186548,"puntuation":1.8,"address":"19 Crowley Hill","cierre":"10:52 PM","apertura":"10:45 AM","tarifa_moto":7773,"tarifa_carro":9881},
{"id":8,"name":"Di","lat":18.5614891,"lon":-74.4195864,"puntuation":3.6,"address":"743 Esker Road","cierre":"7:48 PM","apertura":"10:42 AM","tarifa_moto":9147,"tarifa_carro":9268},
{"id":9,"name":"Joell","lat":33.8941622,"lon":133.1395202,"puntuation":1.6,"address":"64903 Red Cloud Drive","cierre":"11:23 PM","apertura":"10:08 AM","tarifa_moto":9465,"tarifa_carro":9470},
{"id":10,"name":"Abbye","lat":27.171779,"lon":111.62224,"puntuation":4.3,"address":"47484 Green Park","cierre":"10:57 PM","apertura":"10:42 AM","tarifa_moto":6879,"tarifa_carro":8396},
{"id":11,"name":"Robinette","lat":45.4146244,"lon":18.6959162,"puntuation":3.5,"address":"1621 South Point","cierre":"9:33 PM","apertura":"10:50 AM","tarifa_moto":8881,"tarifa_carro":7900},
{"id":12,"name":"Diahann","lat":34.8015007,"lon":135.5624945,"puntuation":2.2,"address":"745 Dennis Plaza","cierre":"6:29 PM","apertura":"9:33 AM","tarifa_moto":5234,"tarifa_carro":8929},
{"id":13,"name":"Solly","lat":-22.868411,"lon":-42.462843,"puntuation":1.9,"address":"8 Clyde Gallagher Avenue","cierre":"6:17 PM","apertura":"10:32 AM","tarifa_moto":9793,"tarifa_carro":8983},
{"id":14,"name":"Mariejeanne","lat":50.98709,"lon":14.5696066,"puntuation":3.6,"address":"24575 Golf Park","cierre":"8:26 PM","apertura":"5:00 AM","tarifa_moto":6682,"tarifa_carro":9286},
{"id":15,"name":"Torrance","lat":39.6454395,"lon":-8.8259105,"puntuation":3.1,"address":"18 Mosinee Way","cierre":"6:41 PM","apertura":"1:30 AM","tarifa_moto":4503,"tarifa_carro":7641},
{"id":16,"name":"Belita","lat":-5.6935288,"lon":105.5826123,"puntuation":1.0,"address":"59 Old Gate Drive","cierre":"10:46 PM","apertura":"11:39 AM","tarifa_moto":4591,"tarifa_carro":7198},
{"id":17,"name":"Maximilian","lat":-0.7911388,"lon":29.924903,"puntuation":4.3,"address":"2 Fieldstone Plaza","cierre":"6:39 PM","apertura":"9:45 AM","tarifa_moto":5193,"tarifa_carro":9282},
{"id":18,"name":"Jerrie","lat":34.302131,"lon":-6.302078,"puntuation":3.8,"address":"4564 Bluestem Point","cierre":"8:04 PM","apertura":"9:44 AM","tarifa_moto":4775,"tarifa_carro":7277},
{"id":19,"name":"Archer","lat":16.4306671,"lon":100.1255164,"puntuation":1.9,"address":"0 Luster Drive","cierre":"9:36 PM","apertura":"10:57 AM","tarifa_moto":6891,"tarifa_carro":8494},
{"id":20,"name":"Analiese","lat":11.0124684,"lon":-63.9379244,"puntuation":3.6,"address":"5129 Vidon Pass","cierre":"7:42 PM","apertura":"6:44 AM","tarifa_moto":5434,"tarifa_carro":7710},
{"id":21,"name":"Avictor","lat":54.875414,"lon":37.2052788,"puntuation":1.0,"address":"3392 Atwood Junction","cierre":"10:21 PM","apertura":"12:31 AM","tarifa_moto":7106,"tarifa_carro":9544},
{"id":22,"name":"Lindon","lat":5.2306075,"lon":95.8670405,"puntuation":4.3,"address":"31 Northport Hill","cierre":"10:11 PM","apertura":"4:36 AM","tarifa_moto":6704,"tarifa_carro":9970},
{"id":23,"name":"Thatch","lat":59.9028865,"lon":30.3175834,"puntuation":1.7,"address":"0753 Dunning Trail","cierre":"10:35 PM","apertura":"10:26 AM","tarifa_moto":7322,"tarifa_carro":6973},
{"id":24,"name":"Ardelia","lat":41.6517775,"lon":-83.5016887,"puntuation":3.5,"address":"0853 Thompson Court","cierre":"6:08 PM","apertura":"6:25 AM","tarifa_moto":6139,"tarifa_carro":6712},
{"id":25,"name":"Marje","lat":19.3579802,"lon":-99.0806088,"puntuation":3.9,"address":"93070 Melody Junction","cierre":"7:40 PM","apertura":"10:48 AM","tarifa_moto":7455,"tarifa_carro":9499},
{"id":26,"name":"Gussy","lat":32.916287,"lon":117.389719,"puntuation":2.3,"address":"7 Crowley Drive","cierre":"6:32 PM","apertura":"3:56 AM","tarifa_moto":6953,"tarifa_carro":8678},
{"id":27,"name":"Bone","lat":-6.4610391,"lon":106.6989632,"puntuation":3.5,"address":"216 Dwight Park","cierre":"9:21 PM","apertura":"6:14 AM","tarifa_moto":6364,"tarifa_carro":6928},
{"id":28,"name":"Sheena","lat":4.2743779,"lon":-75.931004,"puntuation":4.8,"address":"0 Anzinger Trail","cierre":"6:50 PM","apertura":"6:26 AM","tarifa_moto":8098,"tarifa_carro":9618},
{"id":29,"name":"Paquito","lat":3.6085862,"lon":96.9309771,"puntuation":4.6,"address":"9885 Westridge Hill","cierre":"8:44 PM","apertura":"4:46 AM","tarifa_moto":5075,"tarifa_carro":7985},
{"id":30,"name":"Freedman","lat":-8.4636,"lon":120.5128,"puntuation":3.7,"address":"5 Cardinal Place","cierre":"11:27 PM","apertura":"10:21 AM","tarifa_moto":8515,"tarifa_carro":6522},
{"id":31,"name":"Marcellina","lat":7.7521794,"lon":123.1436468,"puntuation":4.0,"address":"03280 Lien Street","cierre":"10:47 PM","apertura":"12:26 AM","tarifa_moto":6005,"tarifa_carro":9934},
{"id":32,"name":"Suzanna","lat":36.608183,"lon":101.808485,"puntuation":3.3,"address":"450 Holy Cross Park","cierre":"10:49 PM","apertura":"11:12 AM","tarifa_moto":8933,"tarifa_carro":9240},
{"id":33,"name":"Pearla","lat":-7.2035144,"lon":106.5241371,"puntuation":1.8,"address":"399 American Road","cierre":"10:00 PM","apertura":"10:50 AM","tarifa_moto":8484,"tarifa_carro":8825},
{"id":34,"name":"Clemmy","lat":56.031038,"lon":47.2957582,"puntuation":4.7,"address":"0259 Moose Pass","cierre":"7:43 PM","apertura":"4:53 AM","tarifa_moto":9881,"tarifa_carro":9906},
{"id":35,"name":"Oralee","lat":-23.6818396,"lon":-46.620967,"puntuation":3.8,"address":"77585 Golf View Pass","cierre":"7:28 PM","apertura":"3:01 AM","tarifa_moto":9145,"tarifa_carro":8614},
{"id":36,"name":"Cullin","lat":41.7644599,"lon":-72.6729522,"puntuation":2.6,"address":"9 Lighthouse Bay Alley","cierre":"11:18 PM","apertura":"5:13 AM","tarifa_moto":7913,"tarifa_carro":6775},
{"id":37,"name":"Kaylyn","lat":14.7512576,"lon":121.0758172,"puntuation":4.6,"address":"64 Pearson Alley","cierre":"8:56 PM","apertura":"2:37 AM","tarifa_moto":8766,"tarifa_carro":6457},
{"id":38,"name":"Timmy","lat":57.9289181,"lon":12.5332741,"puntuation":4.2,"address":"69673 North Terrace","cierre":"9:40 PM","apertura":"12:45 AM","tarifa_moto":6480,"tarifa_carro":9820},
{"id":39,"name":"Danielle","lat":40.6785202,"lon":-8.2792695,"puntuation":3.0,"address":"39 Stone Corner Crossing","cierre":"9:15 PM","apertura":"8:40 AM","tarifa_moto":9969,"tarifa_carro":7968},
{"id":40,"name":"Barry","lat":50.3047644,"lon":15.1696238,"puntuation":2.3,"address":"2893 Lawn Pass","cierre":"7:47 PM","apertura":"3:22 AM","tarifa_moto":4315,"tarifa_carro":6668},
{"id":41,"name":"Dian","lat":-5.0559352,"lon":39.7291837,"puntuation":2.2,"address":"445 Mcguire Lane","cierre":"7:33 PM","apertura":"10:35 AM","tarifa_moto":6044,"tarifa_carro":6426},
{"id":42,"name":"Vinnie","lat":1.932389,"lon":-76.214046,"puntuation":2.5,"address":"80 7th Terrace","cierre":"7:36 PM","apertura":"2:34 AM","tarifa_moto":4124,"tarifa_carro":6183},
{"id":43,"name":"Phillipe","lat":40.5152444,"lon":50.0969652,"puntuation":4.1,"address":"18 Waywood Parkway","cierre":"10:40 PM","apertura":"8:20 AM","tarifa_moto":5660,"tarifa_carro":9320},
{"id":44,"name":"Jessie","lat":40.4222843,"lon":-80.0367259,"puntuation":1.2,"address":"678 Schiller Center","cierre":"10:48 PM","apertura":"10:26 AM","tarifa_moto":4218,"tarifa_carro":9439},
{"id":45,"name":"Jerrilyn","lat":29.507848,"lon":106.513904,"puntuation":1.9,"address":"5 Kropf Place","cierre":"10:21 PM","apertura":"1:47 AM","tarifa_moto":4555,"tarifa_carro":9562},
{"id":46,"name":"Brewer","lat":14.5643857,"lon":121.1293312,"puntuation":3.5,"address":"1 Elmside Crossing","cierre":"7:32 PM","apertura":"1:03 AM","tarifa_moto":5125,"tarifa_carro":8388},
{"id":47,"name":"Jolene","lat":49.2063442,"lon":15.5089055,"puntuation":3.6,"address":"2509 Sloan Trail","cierre":"8:42 PM","apertura":"7:11 AM","tarifa_moto":8639,"tarifa_carro":8055},
{"id":48,"name":"Willey","lat":36.2145292,"lon":28.116926,"puntuation":1.5,"address":"507 Grover Parkway","cierre":"10:32 PM","apertura":"4:49 AM","tarifa_moto":9764,"tarifa_carro":9489},
{"id":49,"name":"Marshall","lat":41.4954461,"lon":-8.575938,"puntuation":3.9,"address":"5 Blue Bill Park Avenue","cierre":"11:12 PM","apertura":"1:53 AM","tarifa_moto":7663,"tarifa_carro":6747},
{"id":50,"name":"Tiffy","lat":49.4875115,"lon":16.6599761,"puntuation":1.9,"address":"9 Johnson Point","cierre":"6:16 PM","apertura":"1:28 AM","tarifa_moto":9372,"tarifa_carro":7746},
{"id":51,"name":"Franzen","lat":2.3815417,"lon":11.2665498,"puntuation":1.7,"address":"557 Amoth Park","cierre":"10:35 PM","apertura":"10:46 AM","tarifa_moto":4318,"tarifa_carro":7099},
{"id":52,"name":"Zelig","lat":-7.3788331,"lon":112.8165095,"puntuation":4.0,"address":"9926 Alpine Alley","cierre":"8:45 PM","apertura":"1:58 AM","tarifa_moto":7438,"tarifa_carro":9743},
{"id":53,"name":"Roz","lat":62.3946271,"lon":17.2842162,"puntuation":1.3,"address":"40625 Spohn Park","cierre":"8:12 PM","apertura":"9:46 AM","tarifa_moto":5932,"tarifa_carro":6293},
{"id":54,"name":"Leonie","lat":50.109938,"lon":30.6298846,"puntuation":4.3,"address":"59459 Lakeland Lane","cierre":"11:58 PM","apertura":"6:13 AM","tarifa_moto":4777,"tarifa_carro":8862},
{"id":55,"name":"Vince","lat":15.6122706,"lon":-86.0784459,"puntuation":1.4,"address":"0565 Morning Hill","cierre":"7:32 PM","apertura":"1:02 AM","tarifa_moto":5454,"tarifa_carro":6682},
{"id":56,"name":"Arthur","lat":19.1527452,"lon":101.1539414,"puntuation":3.6,"address":"238 Crescent Oaks Crossing","cierre":"11:32 PM","apertura":"5:54 AM","tarifa_moto":7295,"tarifa_carro":7225},
{"id":57,"name":"Marys","lat":1.1752216,"lon":109.9973244,"puntuation":2.0,"address":"76062 Granby Circle","cierre":"8:11 PM","apertura":"12:24 AM","tarifa_moto":8696,"tarifa_carro":8136},
{"id":58,"name":"Viviene","lat":-27.4308908,"lon":-65.6147813,"puntuation":3.6,"address":"86338 Graedel Drive","cierre":"7:13 PM","apertura":"5:44 AM","tarifa_moto":5147,"tarifa_carro":6444},
{"id":59,"name":"Ellery","lat":41.3263905,"lon":-8.2207204,"puntuation":1.5,"address":"66 Everett Court","cierre":"8:56 PM","apertura":"2:54 AM","tarifa_moto":5349,"tarifa_carro":6428},
{"id":60,"name":"Meyer","lat":39.9368237,"lon":116.4442945,"puntuation":3.9,"address":"2 Brentwood Terrace","cierre":"9:10 PM","apertura":"8:19 AM","tarifa_moto":8569,"tarifa_carro":9733},
{"id":61,"name":"Adolphus","lat":49.039076,"lon":2.074954,"puntuation":3.1,"address":"07 Gina Point","cierre":"11:07 PM","apertura":"4:51 AM","tarifa_moto":5676,"tarifa_carro":9069},
{"id":62,"name":"Vidovik","lat":30.292001,"lon":71.6657348,"puntuation":3.2,"address":"78 Algoma Park","cierre":"11:34 PM","apertura":"2:22 AM","tarifa_moto":7490,"tarifa_carro":9030},
{"id":63,"name":"Laurel","lat":45.4815563,"lon":4.3637137,"puntuation":3.1,"address":"0 Sullivan Crossing","cierre":"7:55 PM","apertura":"7:25 AM","tarifa_moto":9535,"tarifa_carro":8654},
{"id":64,"name":"Eduard","lat":27.939395,"lon":104.622995,"puntuation":1.6,"address":"3 Artisan Drive","cierre":"7:32 PM","apertura":"6:50 AM","tarifa_moto":6052,"tarifa_carro":6826},
{"id":65,"name":"Devina","lat":29.985295,"lon":122.207215,"puntuation":4.2,"address":"6 Carpenter Parkway","cierre":"6:48 PM","apertura":"1:35 AM","tarifa_moto":9622,"tarifa_carro":8675},
{"id":66,"name":"Gib","lat":31.021461,"lon":121.3128539,"puntuation":2.1,"address":"767 Killdeer Court","cierre":"11:03 PM","apertura":"12:21 AM","tarifa_moto":9459,"tarifa_carro":7324},
{"id":67,"name":"Debora","lat":33.5810958,"lon":71.4303404,"puntuation":1.3,"address":"03 Roxbury Court","cierre":"8:48 PM","apertura":"11:12 AM","tarifa_moto":6577,"tarifa_carro":9276},
{"id":68,"name":"Benny","lat":56.3464983,"lon":21.065493,"puntuation":2.9,"address":"6 Corry Plaza","cierre":"8:01 PM","apertura":"11:34 AM","tarifa_moto":4869,"tarifa_carro":9716},
{"id":69,"name":"Ayn","lat":35.7255757,"lon":10.5802503,"puntuation":4.2,"address":"067 Sommers Trail","cierre":"6:40 PM","apertura":"8:16 AM","tarifa_moto":8148,"tarifa_carro":6781},
{"id":70,"name":"Temp","lat":24.3401994,"lon":124.1578052,"puntuation":4.0,"address":"1318 Goodland Crossing","cierre":"11:54 PM","apertura":"8:09 AM","tarifa_moto":8629,"tarifa_carro":9486},
{"id":71,"name":"Ardene","lat":55.0868852,"lon":82.6436105,"puntuation":4.7,"address":"4 Muir Park","cierre":"6:10 PM","apertura":"4:11 AM","tarifa_moto":6254,"tarifa_carro":8662},
{"id":72,"name":"Zane","lat":-6.7992297,"lon":106.7620174,"puntuation":1.1,"address":"2726 Kropf Street","cierre":"10:43 PM","apertura":"7:22 AM","tarifa_moto":4775,"tarifa_carro":8638},
{"id":73,"name":"Alika","lat":12.8764967,"lon":11.0315823,"puntuation":1.2,"address":"18523 Randy Way","cierre":"6:35 PM","apertura":"7:13 AM","tarifa_moto":9151,"tarifa_carro":6387},
{"id":74,"name":"Camella","lat":-34.7942024,"lon":-58.2622254,"puntuation":3.0,"address":"39 Novick Street","cierre":"9:06 PM","apertura":"4:30 AM","tarifa_moto":9633,"tarifa_carro":6910},
{"id":75,"name":"Lurlene","lat":-8.4164207,"lon":115.3459831,"puntuation":1.4,"address":"76 Dorton Circle","cierre":"9:36 PM","apertura":"9:14 AM","tarifa_moto":8297,"tarifa_carro":8046},
{"id":76,"name":"Thomasine","lat":38.5274257,"lon":22.2033742,"puntuation":4.8,"address":"1588 Sachtjen Drive","cierre":"9:22 PM","apertura":"2:25 AM","tarifa_moto":8797,"tarifa_carro":7212},
{"id":77,"name":"Othilia","lat":-43.3937074,"lon":147.2679116,"puntuation":3.2,"address":"6 Judy Terrace","cierre":"8:10 PM","apertura":"1:22 AM","tarifa_moto":4101,"tarifa_carro":9621},
{"id":78,"name":"Vern","lat":44.0570174,"lon":4.0057868,"puntuation":1.6,"address":"928 Hoard Way","cierre":"11:20 PM","apertura":"7:04 AM","tarifa_moto":7344,"tarifa_carro":7400},
{"id":79,"name":"Riki","lat":7.4951158,"lon":134.6336896,"puntuation":2.7,"address":"08 Acker Road","cierre":"8:48 PM","apertura":"4:24 AM","tarifa_moto":7704,"tarifa_carro":6367},
{"id":80,"name":"Brandie","lat":38.6580874,"lon":-8.7698425,"puntuation":1.3,"address":"4082 Mcbride Way","cierre":"9:39 PM","apertura":"8:51 AM","tarifa_moto":5215,"tarifa_carro":8674},
{"id":81,"name":"Dannie","lat":-12.930823,"lon":-75.7803892,"puntuation":4.0,"address":"1739 Johnson Pass","cierre":"9:38 PM","apertura":"10:42 AM","tarifa_moto":7160,"tarifa_carro":8350},
{"id":82,"name":"Kali","lat":-31.4317582,"lon":-64.1276288,"puntuation":2.7,"address":"10 Alpine Avenue","cierre":"7:03 PM","apertura":"12:05 AM","tarifa_moto":7262,"tarifa_carro":6360},
{"id":83,"name":"Errick","lat":26.015959,"lon":116.602435,"puntuation":2.9,"address":"98 Grover Terrace","cierre":"9:23 PM","apertura":"4:28 AM","tarifa_moto":9755,"tarifa_carro":8380},
{"id":84,"name":"Jeniece","lat":18.3999996,"lon":121.5166702,"puntuation":4.5,"address":"0 Eagle Crest Alley","cierre":"6:25 PM","apertura":"2:39 AM","tarifa_moto":8639,"tarifa_carro":9408},
{"id":85,"name":"Bernardo","lat":-6.6111441,"lon":106.8473377,"puntuation":4.5,"address":"71 Arrowood Junction","cierre":"10:02 PM","apertura":"1:05 AM","tarifa_moto":4202,"tarifa_carro":6927},
{"id":86,"name":"Honoria","lat":6.6103028,"lon":-73.8889499,"puntuation":4.6,"address":"229 Lerdahl Point","cierre":"8:40 PM","apertura":"11:42 AM","tarifa_moto":7647,"tarifa_carro":7152},
{"id":87,"name":"Wenona","lat":7.9306264,"lon":80.7207444,"puntuation":3.8,"address":"126 Schurz Park","cierre":"8:58 PM","apertura":"12:04 AM","tarifa_moto":7372,"tarifa_carro":6570},
{"id":88,"name":"Nicoli","lat":30.66974,"lon":120.79411,"puntuation":3.6,"address":"787 Annamark Plaza","cierre":"7:46 PM","apertura":"6:31 AM","tarifa_moto":6013,"tarifa_carro":8744},
{"id":89,"name":"Elvira","lat":21.9588282,"lon":96.0891032,"puntuation":4.4,"address":"93105 Evergreen Alley","cierre":"8:43 PM","apertura":"9:14 AM","tarifa_moto":6908,"tarifa_carro":7191},
{"id":90,"name":"Keven","lat":-38.0752295,"lon":-57.5554058,"puntuation":2.9,"address":"15907 Carpenter Way","cierre":"9:03 PM","apertura":"10:57 AM","tarifa_moto":7790,"tarifa_carro":8277},
{"id":91,"name":"Shaylah","lat":54.4026022,"lon":22.0193739,"puntuation":1.9,"address":"5 Laurel Alley","cierre":"9:42 PM","apertura":"11:38 AM","tarifa_moto":4041,"tarifa_carro":7275},
{"id":92,"name":"Janelle","lat":48.0778483,"lon":39.7955373,"puntuation":4.9,"address":"260 Goodland Avenue","cierre":"10:33 PM","apertura":"5:14 AM","tarifa_moto":6062,"tarifa_carro":7728},
{"id":93,"name":"Hermia","lat":40.3172129,"lon":-8.7543161,"puntuation":2.9,"address":"69706 Valley Edge Park","cierre":"11:15 PM","apertura":"7:58 AM","tarifa_moto":9585,"tarifa_carro":7447},
{"id":94,"name":"Gwendolen","lat":54.2388118,"lon":17.2312846,"puntuation":1.6,"address":"87 Redwing Point","cierre":"11:40 PM","apertura":"7:42 AM","tarifa_moto":9938,"tarifa_carro":9725},
{"id":95,"name":"Etty","lat":40.0316754,"lon":20.1789757,"puntuation":1.8,"address":"4258 Troy Way","cierre":"7:31 PM","apertura":"10:09 AM","tarifa_moto":6899,"tarifa_carro":6846},
{"id":96,"name":"Annis","lat":16.9126068,"lon":121.622089,"puntuation":4.2,"address":"51 Rowland Plaza","cierre":"10:30 PM","apertura":"10:08 AM","tarifa_moto":7139,"tarifa_carro":7912},
{"id":97,"name":"Jacintha","lat":16.8759704,"lon":120.8934263,"puntuation":2.7,"address":"566 Melby Terrace","cierre":"8:20 PM","apertura":"10:05 AM","tarifa_moto":5020,"tarifa_carro":6221},
{"id":98,"name":"Bobbie","lat":-9.8529,"lon":124.2342,"puntuation":1.8,"address":"6 Merrick Drive","cierre":"10:43 PM","apertura":"2:16 AM","tarifa_moto":7870,"tarifa_carro":8505},
{"id":99,"name":"My","lat":4.2571092,"lon":15.7879371,"puntuation":2.0,"address":"25 John Wall Avenue","cierre":"8:16 PM","apertura":"3:19 AM","tarifa_moto":8453,"tarifa_carro":6364},
{"id":100,"name":"Barbra","lat":42.669195,"lon":23.2885096,"puntuation":1.6,"address":"47 Sunnyside Street","cierre":"6:35 PM","apertura":"11:52 AM","tarifa_moto":9662,"tarifa_carro":8841},
{"id":101,"name":"Carlene","lat":18.26196,"lon":33.90812,"puntuation":4.4,"address":"799 Fairfield Road","cierre":"7:50 PM","apertura":"9:04 AM","tarifa_moto":7557,"tarifa_carro":9941},
{"id":102,"name":"Liliane","lat":-8.1018542,"lon":112.0922743,"puntuation":1.3,"address":"9 Sherman Lane","cierre":"11:04 PM","apertura":"4:29 AM","tarifa_moto":4123,"tarifa_carro":9120},
{"id":103,"name":"Rosette","lat":41.6412644,"lon":19.705595,"puntuation":3.8,"address":"76970 Clyde Gallagher Park","cierre":"11:23 PM","apertura":"9:19 AM","tarifa_moto":6153,"tarifa_carro":8885},
{"id":104,"name":"Kellen","lat":4.2157,"lon":-73.81476,"puntuation":4.6,"address":"8 Magdeline Park","cierre":"11:05 PM","apertura":"5:55 AM","tarifa_moto":5130,"tarifa_carro":8567},
{"id":105,"name":"Cammy","lat":49.4715988,"lon":22.4496086,"puntuation":4.1,"address":"453 Northwestern Junction","cierre":"8:39 PM","apertura":"4:52 AM","tarifa_moto":7104,"tarifa_carro":7201},
{"id":106,"name":"Rozalie","lat":44.025555,"lon":1.378056,"puntuation":4.8,"address":"64008 Shopko Point","cierre":"9:30 PM","apertura":"6:14 AM","tarifa_moto":6181,"tarifa_carro":6339},
{"id":107,"name":"Rosa","lat":7.6392002,"lon":123.3058014,"puntuation":4.9,"address":"38 Dovetail Pass","cierre":"11:00 PM","apertura":"3:00 AM","tarifa_moto":4581,"tarifa_carro":7613},
{"id":108,"name":"Kingston","lat":-34.4753246,"lon":-58.586937,"puntuation":2.6,"address":"423 Dennis Junction","cierre":"7:09 PM","apertura":"3:41 AM","tarifa_moto":4555,"tarifa_carro":6091},
{"id":109,"name":"Em","lat":30.5619807,"lon":49.1727178,"puntuation":3.1,"address":"46086 Old Shore Lane","cierre":"10:37 PM","apertura":"3:48 AM","tarifa_moto":9113,"tarifa_carro":7862},
{"id":110,"name":"Geneva","lat":7.92772,"lon":38.7211079,"puntuation":1.3,"address":"348 Scott Road","cierre":"6:11 PM","apertura":"10:55 AM","tarifa_moto":9571,"tarifa_carro":7286},
{"id":111,"name":"Roma","lat":-8.8229,"lon":121.053,"puntuation":2.5,"address":"57 Summerview Lane","cierre":"10:33 PM","apertura":"3:21 AM","tarifa_moto":6156,"tarifa_carro":7538},
{"id":112,"name":"Elijah","lat":32.4464635,"lon":62.1454133,"puntuation":3.3,"address":"81433 Oneill Trail","cierre":"9:50 PM","apertura":"11:03 AM","tarifa_moto":4945,"tarifa_carro":7553},
{"id":113,"name":"Sabina","lat":-7.8480156,"lon":112.0178286,"puntuation":1.6,"address":"77 Morning Circle","cierre":"9:47 PM","apertura":"3:04 AM","tarifa_moto":5152,"tarifa_carro":9966},
{"id":114,"name":"Hali","lat":-4.4505838,"lon":-38.0631455,"puntuation":3.9,"address":"738 Sutteridge Street","cierre":"6:38 PM","apertura":"10:52 AM","tarifa_moto":8952,"tarifa_carro":7720},
{"id":115,"name":"Augy","lat":42.0807464,"lon":20.4142923,"puntuation":1.2,"address":"069 Annamark Point","cierre":"11:38 PM","apertura":"3:12 AM","tarifa_moto":5497,"tarifa_carro":8414},
{"id":116,"name":"Gifford","lat":29.492402,"lon":118.604556,"puntuation":2.2,"address":"521 Blackbird Terrace","cierre":"7:18 PM","apertura":"7:29 AM","tarifa_moto":6937,"tarifa_carro":7124},
{"id":117,"name":"Sharona","lat":-12.1579355,"lon":44.4146374,"puntuation":2.4,"address":"34450 Randy Terrace","cierre":"7:40 PM","apertura":"12:44 AM","tarifa_moto":7670,"tarifa_carro":8179},
{"id":118,"name":"Amii","lat":34.819583,"lon":32.4608775,"puntuation":1.6,"address":"36 Shelley Hill","cierre":"11:14 PM","apertura":"9:16 AM","tarifa_moto":4543,"tarifa_carro":7185},
{"id":119,"name":"Blane","lat":6.3716474,"lon":2.0763253,"puntuation":1.7,"address":"71284 Burning Wood Junction","cierre":"8:42 PM","apertura":"1:49 AM","tarifa_moto":9687,"tarifa_carro":8932},
{"id":120,"name":"Dorri","lat":38.3541519,"lon":22.7869993,"puntuation":4.6,"address":"96 Arizona Terrace","cierre":"8:13 PM","apertura":"12:10 AM","tarifa_moto":9318,"tarifa_carro":8016},
{"id":121,"name":"Janel","lat":-5.5205551,"lon":-47.4790966,"puntuation":2.6,"address":"36 Twin Pines Point","cierre":"10:04 PM","apertura":"12:27 AM","tarifa_moto":9163,"tarifa_carro":9482},
{"id":122,"name":"Clayborn","lat":1.0357171,"lon":118.0654445,"puntuation":4.0,"address":"298 Redwing Circle","cierre":"6:40 PM","apertura":"1:58 AM","tarifa_moto":4895,"tarifa_carro":9541},
{"id":123,"name":"Kim","lat":59.3042543,"lon":18.0310357,"puntuation":2.4,"address":"835 Homewood Crossing","cierre":"11:31 PM","apertura":"7:33 AM","tarifa_moto":7843,"tarifa_carro":6232},
{"id":124,"name":"Libbey","lat":54.4515199,"lon":101.1756457,"puntuation":3.4,"address":"2700 Grover Crossing","cierre":"11:09 PM","apertura":"11:23 AM","tarifa_moto":6184,"tarifa_carro":6693},
{"id":125,"name":"Hamilton","lat":-1.5697615,"lon":110.5215459,"puntuation":1.5,"address":"55309 Surrey Avenue","cierre":"9:40 PM","apertura":"5:26 AM","tarifa_moto":4103,"tarifa_carro":6262},
{"id":126,"name":"Audrye","lat":-7.25717,"lon":112.67026,"puntuation":1.1,"address":"45925 Rigney Park","cierre":"8:39 PM","apertura":"5:40 AM","tarifa_moto":5500,"tarifa_carro":6655},
{"id":127,"name":"Alexandre","lat":57.4167684,"lon":41.3421757,"puntuation":2.6,"address":"8211 Claremont Drive","cierre":"8:44 PM","apertura":"12:38 AM","tarifa_moto":7728,"tarifa_carro":8349},
{"id":128,"name":"Tadd","lat":26.319938,"lon":113.810157,"puntuation":4.5,"address":"5292 Basil Road","cierre":"9:29 PM","apertura":"5:54 AM","tarifa_moto":5385,"tarifa_carro":7117},
{"id":129,"name":"Edie","lat":23.7318903,"lon":-99.1502962,"puntuation":1.1,"address":"5418 Morrow Junction","cierre":"8:21 PM","apertura":"4:27 AM","tarifa_moto":6580,"tarifa_carro":9390},
{"id":130,"name":"Hermie","lat":44.1580429,"lon":133.2645474,"puntuation":2.2,"address":"7 Wayridge Point","cierre":"9:55 PM","apertura":"2:21 AM","tarifa_moto":7573,"tarifa_carro":6010},
{"id":131,"name":"Rayna","lat":33.6042793,"lon":69.2281531,"puntuation":1.9,"address":"51522 Upham Trail","cierre":"7:44 PM","apertura":"10:28 AM","tarifa_moto":9315,"tarifa_carro":7766},
{"id":132,"name":"Sullivan","lat":56.3153167,"lon":48.2506985,"puntuation":4.0,"address":"3 Loftsgordon Pass","cierre":"6:37 PM","apertura":"4:20 AM","tarifa_moto":5382,"tarifa_carro":8055},
{"id":133,"name":"Becka","lat":27.756647,"lon":118.035309,"puntuation":1.4,"address":"99 Kinsman Park","cierre":"9:24 PM","apertura":"4:54 AM","tarifa_moto":7374,"tarifa_carro":8042},
{"id":134,"name":"Christi","lat":19.2983328,"lon":-69.5523252,"puntuation":2.3,"address":"72 Glacier Hill Road","cierre":"11:57 PM","apertura":"2:34 AM","tarifa_moto":4819,"tarifa_carro":9084},
{"id":135,"name":"Lorry","lat":0.1429969,"lon":117.4938098,"puntuation":1.5,"address":"5969 Bellgrove Terrace","cierre":"7:53 PM","apertura":"2:06 AM","tarifa_moto":4252,"tarifa_carro":8407},
{"id":136,"name":"Esteban","lat":33.720769,"lon":115.000183,"puntuation":3.7,"address":"0 Shopko Parkway","cierre":"11:46 PM","apertura":"12:40 AM","tarifa_moto":6360,"tarifa_carro":8058},
{"id":137,"name":"Carter","lat":-3.4206623,"lon":104.9856176,"puntuation":4.4,"address":"8394 Ramsey Parkway","cierre":"11:43 PM","apertura":"6:44 AM","tarifa_moto":9539,"tarifa_carro":7213},
{"id":138,"name":"Ryon","lat":10.465258,"lon":16.7337841,"puntuation":2.0,"address":"31 Butterfield Court","cierre":"6:44 PM","apertura":"8:11 AM","tarifa_moto":5866,"tarifa_carro":9796},
{"id":139,"name":"Juliette","lat":37.800886,"lon":-25.6125131,"puntuation":3.5,"address":"7 Waubesa Point","cierre":"8:00 PM","apertura":"6:06 AM","tarifa_moto":8906,"tarifa_carro":7337},
{"id":140,"name":"Harry","lat":31.0507836,"lon":121.7458676,"puntuation":4.9,"address":"8 Melvin Court","cierre":"7:34 PM","apertura":"8:35 AM","tarifa_moto":8329,"tarifa_carro":7694},
{"id":141,"name":"Bette","lat":4.203572,"lon":-74.643383,"puntuation":1.1,"address":"1 Bowman Terrace","cierre":"8:24 PM","apertura":"1:02 AM","tarifa_moto":7249,"tarifa_carro":6641},
{"id":142,"name":"Caddric","lat":5.9840985,"lon":116.0761121,"puntuation":3.9,"address":"5466 Brentwood Alley","cierre":"11:02 PM","apertura":"11:51 AM","tarifa_moto":7473,"tarifa_carro":6898},
{"id":143,"name":"Loy","lat":29.972084,"lon":106.27613,"puntuation":2.5,"address":"023 Mesta Trail","cierre":"9:54 PM","apertura":"12:02 AM","tarifa_moto":6240,"tarifa_carro":7267},
{"id":144,"name":"Vick","lat":20.775698,"lon":-103.6951543,"puntuation":4.7,"address":"6 Claremont Way","cierre":"8:20 PM","apertura":"3:04 AM","tarifa_moto":4116,"tarifa_carro":9460},
{"id":145,"name":"Wren","lat":-3.6846513,"lon":13.3500652,"puntuation":2.0,"address":"5 Hoepker Trail","cierre":"9:48 PM","apertura":"8:47 AM","tarifa_moto":7140,"tarifa_carro":7993},
{"id":146,"name":"Chevalier","lat":9.6389796,"lon":-68.129727,"puntuation":4.2,"address":"7 Judy Trail","cierre":"11:26 PM","apertura":"5:58 AM","tarifa_moto":8600,"tarifa_carro":7118},
{"id":147,"name":"Matthaeus","lat":-6.9001,"lon":113.5144,"puntuation":4.3,"address":"85 Hudson Hill","cierre":"8:00 PM","apertura":"1:55 AM","tarifa_moto":5579,"tarifa_carro":8572},
{"id":148,"name":"Marcille","lat":7.8806888,"lon":-67.4695307,"puntuation":1.5,"address":"694 Glacier Hill Point","cierre":"6:50 PM","apertura":"8:19 AM","tarifa_moto":8380,"tarifa_carro":9217},
{"id":149,"name":"Chet","lat":43.7876733,"lon":18.1512379,"puntuation":3.9,"address":"628 Bunting Place","cierre":"7:05 PM","apertura":"2:20 AM","tarifa_moto":9535,"tarifa_carro":8154},
{"id":150,"name":"Susie","lat":22.915288,"lon":114.003577,"puntuation":2.3,"address":"87 Cherokee Parkway","cierre":"10:45 PM","apertura":"8:30 AM","tarifa_moto":7682,"tarifa_carro":6935},
{"id":151,"name":"Natale","lat":29.8867778,"lon":-95.549054,"puntuation":3.8,"address":"37 Butternut Plaza","cierre":"7:42 PM","apertura":"7:12 AM","tarifa_moto":4319,"tarifa_carro":7183},
{"id":152,"name":"Agnesse","lat":15.5406754,"lon":37.8777561,"puntuation":4.8,"address":"82 Butterfield Place","cierre":"6:35 PM","apertura":"10:16 AM","tarifa_moto":7435,"tarifa_carro":8838},
{"id":153,"name":"Tonye","lat":-7.2157251,"lon":107.901989,"puntuation":1.1,"address":"0238 Hintze Trail","cierre":"11:45 PM","apertura":"1:09 AM","tarifa_moto":6479,"tarifa_carro":6004},
{"id":154,"name":"Krispin","lat":9.6365101,"lon":123.8536209,"puntuation":1.1,"address":"33 Oak Circle","cierre":"10:45 PM","apertura":"1:02 AM","tarifa_moto":9541,"tarifa_carro":8138},
{"id":155,"name":"Elden","lat":39.5001721,"lon":22.8859196,"puntuation":4.5,"address":"893 Menomonie Hill","cierre":"8:51 PM","apertura":"3:57 AM","tarifa_moto":5972,"tarifa_carro":8979},
{"id":156,"name":"Patsy","lat":48.9361342,"lon":24.1594075,"puntuation":1.5,"address":"6 Loeprich Way","cierre":"6:29 PM","apertura":"7:50 AM","tarifa_moto":4237,"tarifa_carro":6304},
{"id":157,"name":"Trace","lat":50.5032152,"lon":14.2856356,"puntuation":1.2,"address":"41 Old Gate Court","cierre":"6:28 PM","apertura":"2:45 AM","tarifa_moto":6543,"tarifa_carro":8432},
{"id":158,"name":"Suellen","lat":-2.4681009,"lon":-66.1415263,"puntuation":1.8,"address":"718 Hansons Street","cierre":"8:22 PM","apertura":"3:18 AM","tarifa_moto":4356,"tarifa_carro":9009},
{"id":159,"name":"Ethelin","lat":34.151624,"lon":109.323479,"puntuation":2.0,"address":"759 Bashford Road","cierre":"10:10 PM","apertura":"7:58 AM","tarifa_moto":4001,"tarifa_carro":8134},
{"id":160,"name":"Abbie","lat":-6.4933318,"lon":106.8809319,"puntuation":3.3,"address":"417 Ridgeway Avenue","cierre":"8:47 PM","apertura":"8:13 AM","tarifa_moto":9766,"tarifa_carro":6017},
{"id":161,"name":"Augustine","lat":-10.1602312,"lon":123.5937933,"puntuation":4.9,"address":"44246 Eastlawn Lane","cierre":"7:32 PM","apertura":"2:24 AM","tarifa_moto":5308,"tarifa_carro":7825},
{"id":162,"name":"Aryn","lat":-19.8502345,"lon":-47.3706554,"puntuation":3.3,"address":"99608 Tennessee Avenue","cierre":"6:16 PM","apertura":"7:02 AM","tarifa_moto":4801,"tarifa_carro":6986},
{"id":163,"name":"Tymon","lat":10.1775604,"lon":106.1125201,"puntuation":4.3,"address":"9 Prairie Rose Drive","cierre":"8:40 PM","apertura":"10:03 AM","tarifa_moto":4885,"tarifa_carro":9666},
{"id":164,"name":"Deeanne","lat":-7.5957387,"lon":108.2881709,"puntuation":3.1,"address":"9478 Carberry Circle","cierre":"8:49 PM","apertura":"10:15 AM","tarifa_moto":4019,"tarifa_carro":6479},
{"id":165,"name":"Melonie","lat":19.602311,"lon":-99.1732936,"puntuation":1.4,"address":"8906 Lake View Road","cierre":"7:39 PM","apertura":"2:24 AM","tarifa_moto":4904,"tarifa_carro":6684},
{"id":166,"name":"Vonny","lat":62.1032048,"lon":25.6487971,"puntuation":1.9,"address":"4 Bunting Trail","cierre":"9:04 PM","apertura":"10:39 AM","tarifa_moto":4117,"tarifa_carro":7795},
{"id":167,"name":"Lucias","lat":48.9292043,"lon":40.3719341,"puntuation":1.1,"address":"161 Debs Trail","cierre":"11:38 PM","apertura":"6:54 AM","tarifa_moto":7636,"tarifa_carro":9622},
{"id":168,"name":"Verne","lat":37.464539,"lon":121.447852,"puntuation":4.3,"address":"334 Thompson Place","cierre":"11:42 PM","apertura":"8:35 AM","tarifa_moto":6084,"tarifa_carro":6872},
{"id":169,"name":"Gisella","lat":54.6567593,"lon":32.1804491,"puntuation":3.7,"address":"2805 Blackbird Point","cierre":"6:47 PM","apertura":"10:46 AM","tarifa_moto":5634,"tarifa_carro":7805},
{"id":170,"name":"Carlie","lat":20.6323938,"lon":-87.0911879,"puntuation":1.7,"address":"39918 Dryden Drive","cierre":"10:54 PM","apertura":"5:00 AM","tarifa_moto":9958,"tarifa_carro":9012},
{"id":171,"name":"Clea","lat":31.352859,"lon":118.432941,"puntuation":1.2,"address":"4 Annamark Center","cierre":"11:48 PM","apertura":"12:01 AM","tarifa_moto":4057,"tarifa_carro":6611},
{"id":172,"name":"Ramsey","lat":39.128502,"lon":113.139828,"puntuation":4.3,"address":"1 Leroy Plaza","cierre":"7:10 PM","apertura":"1:43 AM","tarifa_moto":6032,"tarifa_carro":6974},
{"id":173,"name":"Herold","lat":25.648962,"lon":111.675265,"puntuation":3.3,"address":"9693 Clarendon Center","cierre":"7:22 PM","apertura":"2:58 AM","tarifa_moto":5676,"tarifa_carro":9410},
{"id":174,"name":"Aharon","lat":59.2074845,"lon":37.1181564,"puntuation":4.6,"address":"83368 Calypso Circle","cierre":"7:38 PM","apertura":"1:19 AM","tarifa_moto":8238,"tarifa_carro":7521},
{"id":175,"name":"Regina","lat":30.183806,"lon":120.264253,"puntuation":1.5,"address":"974 Fuller Crossing","cierre":"7:50 PM","apertura":"9:41 AM","tarifa_moto":7532,"tarifa_carro":8050},
{"id":176,"name":"Quincey","lat":2.5282234,"lon":34.6579985,"puntuation":3.4,"address":"88 Westend Road","cierre":"6:47 PM","apertura":"10:34 AM","tarifa_moto":9580,"tarifa_carro":6056},
{"id":177,"name":"Timmy","lat":-5.178204,"lon":-40.6695522,"puntuation":3.3,"address":"1132 Dryden Street","cierre":"8:48 PM","apertura":"11:18 AM","tarifa_moto":4005,"tarifa_carro":9563},
{"id":178,"name":"Port","lat":52.17596,"lon":122.07903,"puntuation":2.1,"address":"7551 Crest Line Plaza","cierre":"11:01 PM","apertura":"8:14 AM","tarifa_moto":7279,"tarifa_carro":6568},
{"id":179,"name":"Marris","lat":11.0574624,"lon":-12.3979431,"puntuation":4.8,"address":"9689 Dwight Lane","cierre":"8:54 PM","apertura":"6:42 AM","tarifa_moto":6323,"tarifa_carro":6261},
{"id":180,"name":"Melodie","lat":38.7063132,"lon":-9.3300248,"puntuation":4.4,"address":"10533 Transport Point","cierre":"7:51 PM","apertura":"7:35 AM","tarifa_moto":7902,"tarifa_carro":7626},
{"id":181,"name":"Lorie","lat":28.590337,"lon":105.697472,"puntuation":4.3,"address":"68113 Michigan Avenue","cierre":"6:50 PM","apertura":"2:47 AM","tarifa_moto":9288,"tarifa_carro":7501},
{"id":182,"name":"Nissie","lat":50.4127137,"lon":22.7432687,"puntuation":3.0,"address":"98191 Carpenter Alley","cierre":"11:07 PM","apertura":"7:58 AM","tarifa_moto":6534,"tarifa_carro":8599},
{"id":183,"name":"Paolo","lat":44.889488,"lon":117.470597,"puntuation":4.5,"address":"7 Mallory Terrace","cierre":"7:00 PM","apertura":"8:30 AM","tarifa_moto":8967,"tarifa_carro":7451},
{"id":184,"name":"Pepita","lat":14.5634196,"lon":121.0307955,"puntuation":2.2,"address":"627 Declaration Street","cierre":"7:13 PM","apertura":"3:05 AM","tarifa_moto":7881,"tarifa_carro":6682},
{"id":185,"name":"Dougy","lat":51.6711341,"lon":20.1795118,"puntuation":3.2,"address":"33 Dahle Junction","cierre":"11:54 PM","apertura":"5:13 AM","tarifa_moto":7548,"tarifa_carro":6068},
{"id":186,"name":"Dorita","lat":30.536294,"lon":114.648658,"puntuation":2.4,"address":"0149 Lillian Road","cierre":"8:54 PM","apertura":"7:10 AM","tarifa_moto":6664,"tarifa_carro":6458},
{"id":187,"name":"Feodora","lat":4.4308445,"lon":8.941094,"puntuation":3.8,"address":"080 Barby Road","cierre":"10:51 PM","apertura":"11:04 AM","tarifa_moto":9311,"tarifa_carro":7435},
{"id":188,"name":"Anneliese","lat":43.4899263,"lon":2.3764372,"puntuation":4.0,"address":"5026 Kingsford Terrace","cierre":"11:24 PM","apertura":"6:24 AM","tarifa_moto":5482,"tarifa_carro":6028},
{"id":189,"name":"Vyky","lat":31.637714,"lon":119.716535,"puntuation":2.1,"address":"25126 Bunting Hill","cierre":"11:24 PM","apertura":"4:06 AM","tarifa_moto":4552,"tarifa_carro":9238},
{"id":190,"name":"Tiffani","lat":-7.3684588,"lon":107.4967147,"puntuation":1.8,"address":"212 Sycamore Court","cierre":"7:37 PM","apertura":"1:07 AM","tarifa_moto":8608,"tarifa_carro":9451},
{"id":191,"name":"Katalin","lat":3.5737543,"lon":-76.01598,"puntuation":3.3,"address":"3160 Carey Junction","cierre":"8:15 PM","apertura":"9:50 AM","tarifa_moto":9975,"tarifa_carro":7393},
{"id":192,"name":"Merridie","lat":34.878483,"lon":113.277504,"puntuation":5.0,"address":"125 Mesta Street","cierre":"9:14 PM","apertura":"6:01 AM","tarifa_moto":4939,"tarifa_carro":7798},
{"id":193,"name":"Olympe","lat":16.7726174,"lon":-93.1905192,"puntuation":3.1,"address":"10 Debra Trail","cierre":"9:43 PM","apertura":"8:07 AM","tarifa_moto":9253,"tarifa_carro":6136},
{"id":194,"name":"Ondrea","lat":51.29579,"lon":18.38073,"puntuation":2.0,"address":"19237 Mifflin Trail","cierre":"7:40 PM","apertura":"5:00 AM","tarifa_moto":9309,"tarifa_carro":9298},
{"id":195,"name":"Raquela","lat":23.774635,"lon":115.084794,"puntuation":1.1,"address":"1959 Anniversary Lane","cierre":"7:21 PM","apertura":"7:22 AM","tarifa_moto":8775,"tarifa_carro":9286},
{"id":196,"name":"Nelli","lat":31.5259047,"lon":121.7614898,"puntuation":4.9,"address":"4 Crowley Point","cierre":"8:09 PM","apertura":"5:45 AM","tarifa_moto":9955,"tarifa_carro":9985},
{"id":197,"name":"Helen","lat":33.0085361,"lon":35.0980514,"puntuation":3.6,"address":"0 Hayes Plaza","cierre":"11:44 PM","apertura":"5:41 AM","tarifa_moto":9852,"tarifa_carro":8618},
{"id":198,"name":"Shelagh","lat":52.2681666,"lon":20.4632209,"puntuation":1.1,"address":"71057 Express Hill","cierre":"11:06 PM","apertura":"10:18 AM","tarifa_moto":6251,"tarifa_carro":6549},
{"id":199,"name":"Win","lat":-7.1396,"lon":114.3272,"puntuation":2.3,"address":"23580 Charing Cross Junction","cierre":"9:21 PM","apertura":"10:08 AM","tarifa_moto":7070,"tarifa_carro":7072},
{"id":200,"name":"Sharyl","lat":49.8545281,"lon":18.6057328,"puntuation":3.6,"address":"5026 Hoepker Road","cierre":"9:52 PM","apertura":"9:16 AM","tarifa_moto":8266,"tarifa_carro":9555},
{"id":201,"name":"Zorana","lat":41.805137,"lon":123.4699481,"puntuation":4.1,"address":"00 Acker Lane","cierre":"7:21 PM","apertura":"2:58 AM","tarifa_moto":9558,"tarifa_carro":7843},
{"id":202,"name":"Red","lat":16.650007,"lon":103.889068,"puntuation":4.5,"address":"16539 Cody Hill","cierre":"6:45 PM","apertura":"1:48 AM","tarifa_moto":9143,"tarifa_carro":6205},
{"id":203,"name":"Floris","lat":39.915412,"lon":116.405478,"puntuation":4.0,"address":"87661 Green Ridge Circle","cierre":"11:30 PM","apertura":"8:31 AM","tarifa_moto":5112,"tarifa_carro":7547},
{"id":204,"name":"Clayton","lat":21.3026143,"lon":105.3014109,"puntuation":1.0,"address":"81835 Ramsey Junction","cierre":"8:18 PM","apertura":"11:35 AM","tarifa_moto":4365,"tarifa_carro":8063},
{"id":205,"name":"Lavinia","lat":48.550372,"lon":24.7466678,"puntuation":2.7,"address":"079 Toban Park","cierre":"7:38 PM","apertura":"11:01 AM","tarifa_moto":8104,"tarifa_carro":9265},
{"id":206,"name":"Hallie","lat":-0.3776854,"lon":100.608395,"puntuation":4.6,"address":"247 Brentwood Avenue","cierre":"11:35 PM","apertura":"3:12 AM","tarifa_moto":6333,"tarifa_carro":9597},
{"id":207,"name":"Aubree","lat":-8.4880061,"lon":117.4703209,"puntuation":2.4,"address":"2415 Hansons Terrace","cierre":"9:03 PM","apertura":"4:09 AM","tarifa_moto":8597,"tarifa_carro":7075},
{"id":208,"name":"Darelle","lat":37.943121,"lon":115.217658,"puntuation":2.0,"address":"5063 Lake View Parkway","cierre":"6:42 PM","apertura":"8:01 AM","tarifa_moto":4699,"tarifa_carro":6020},
{"id":209,"name":"Lil","lat":32.2084468,"lon":130.4001656,"puntuation":1.3,"address":"29139 Oneill Park","cierre":"7:33 PM","apertura":"8:21 AM","tarifa_moto":7666,"tarifa_carro":9456},
{"id":210,"name":"Boot","lat":-23.5328871,"lon":-46.7919978,"puntuation":3.3,"address":"27 Parkside Plaza","cierre":"8:00 PM","apertura":"7:38 AM","tarifa_moto":5930,"tarifa_carro":8975},
{"id":211,"name":"Tabatha","lat":50.0827667,"lon":19.3528069,"puntuation":1.4,"address":"3 Washington Pass","cierre":"11:18 PM","apertura":"8:14 AM","tarifa_moto":7339,"tarifa_carro":6948},
{"id":212,"name":"Laura","lat":13.4734999,"lon":122.6157793,"puntuation":4.1,"address":"5216 Pankratz Drive","cierre":"10:38 PM","apertura":"5:27 AM","tarifa_moto":6807,"tarifa_carro":7835},
{"id":213,"name":"Brian","lat":30.786657,"lon":108.761889,"puntuation":4.4,"address":"761 Arrowood Terrace","cierre":"8:08 PM","apertura":"4:55 AM","tarifa_moto":4245,"tarifa_carro":6710},
{"id":214,"name":"Francene","lat":39.8236368,"lon":20.7283764,"puntuation":2.3,"address":"05495 Old Gate Place","cierre":"11:24 PM","apertura":"4:30 AM","tarifa_moto":4449,"tarifa_carro":7516},
{"id":215,"name":"Emlynne","lat":33.226552,"lon":115.600976,"puntuation":3.5,"address":"20 Utah Way","cierre":"7:51 PM","apertura":"11:09 AM","tarifa_moto":7515,"tarifa_carro":7184},
{"id":216,"name":"Adria","lat":40.0395689,"lon":65.9690392,"puntuation":2.1,"address":"75 Melby Circle","cierre":"8:15 PM","apertura":"6:42 AM","tarifa_moto":8787,"tarifa_carro":8634},
{"id":217,"name":"Spike","lat":-20.2883705,"lon":57.7310666,"puntuation":2.7,"address":"6 Hovde Point","cierre":"10:32 PM","apertura":"1:59 AM","tarifa_moto":8228,"tarifa_carro":7693},
{"id":218,"name":"Stefano","lat":14.0246473,"lon":-0.0233208,"puntuation":4.7,"address":"6 Fisk Pass","cierre":"9:24 PM","apertura":"10:49 AM","tarifa_moto":6810,"tarifa_carro":6226},
{"id":219,"name":"Dukey","lat":28.3102323,"lon":81.4278984,"puntuation":3.1,"address":"9143 Twin Pines Place","cierre":"8:27 PM","apertura":"1:00 AM","tarifa_moto":4435,"tarifa_carro":8481},
{"id":220,"name":"Lindsay","lat":40.7608571,"lon":-73.9681265,"puntuation":1.3,"address":"6450 Grayhawk Court","cierre":"11:40 PM","apertura":"6:12 AM","tarifa_moto":4922,"tarifa_carro":9536},
{"id":221,"name":"Burl","lat":-6.6187563,"lon":110.6647198,"puntuation":4.9,"address":"761 Mendota Parkway","cierre":"10:12 PM","apertura":"8:42 AM","tarifa_moto":7797,"tarifa_carro":7246},
{"id":222,"name":"Feodor","lat":32.3989318,"lon":-86.3224638,"puntuation":1.2,"address":"67170 Veith Way","cierre":"7:32 PM","apertura":"11:30 AM","tarifa_moto":6037,"tarifa_carro":9221},
{"id":223,"name":"Heinrick","lat":40.1667409,"lon":44.2123603,"puntuation":2.0,"address":"9 Talmadge Junction","cierre":"8:54 PM","apertura":"7:53 AM","tarifa_moto":9347,"tarifa_carro":7881},
{"id":224,"name":"Ramon","lat":39.9912749,"lon":116.4717334,"puntuation":2.1,"address":"150 Longview Crossing","cierre":"9:46 PM","apertura":"11:46 AM","tarifa_moto":5621,"tarifa_carro":6314},
{"id":225,"name":"Cacilie","lat":3.7,"lon":98.166667,"puntuation":2.4,"address":"57 Ronald Regan Drive","cierre":"9:20 PM","apertura":"2:24 AM","tarifa_moto":9206,"tarifa_carro":8668},
{"id":226,"name":"Fredericka","lat":-14.1387292,"lon":-71.4091563,"puntuation":3.5,"address":"08 Golf Park","cierre":"11:48 PM","apertura":"9:00 AM","tarifa_moto":8498,"tarifa_carro":7238},
{"id":227,"name":"Carolann","lat":35.7255757,"lon":10.5802503,"puntuation":2.8,"address":"14656 Macpherson Pass","cierre":"8:55 PM","apertura":"9:55 AM","tarifa_moto":8497,"tarifa_carro":6684},
{"id":228,"name":"Kerry","lat":40.2675155,"lon":69.6452877,"puntuation":2.5,"address":"48 Hintze Parkway","cierre":"6:32 PM","apertura":"11:34 AM","tarifa_moto":6566,"tarifa_carro":9465},
{"id":229,"name":"Trueman","lat":34.5200967,"lon":40.9612121,"puntuation":4.2,"address":"0292 Independence Lane","cierre":"6:08 PM","apertura":"2:05 AM","tarifa_moto":8735,"tarifa_carro":6973},
{"id":230,"name":"Tabbitha","lat":43.6296613,"lon":39.705727,"puntuation":2.6,"address":"911 Montana Circle","cierre":"7:55 PM","apertura":"12:28 AM","tarifa_moto":7249,"tarifa_carro":9816},
{"id":231,"name":"Vicky","lat":3.1377116,"lon":-76.5929658,"puntuation":3.9,"address":"398 Dawn Center","cierre":"11:34 PM","apertura":"11:59 AM","tarifa_moto":5534,"tarifa_carro":9161},
{"id":232,"name":"Joellen","lat":-0.9,"lon":30.416667,"puntuation":4.2,"address":"7 Dawn Way","cierre":"6:19 PM","apertura":"2:44 AM","tarifa_moto":5897,"tarifa_carro":9657},
{"id":233,"name":"Sherm","lat":57.4293806,"lon":11.947834,"puntuation":4.7,"address":"8 Dapin Plaza","cierre":"7:20 PM","apertura":"10:38 AM","tarifa_moto":4481,"tarifa_carro":6102},
{"id":234,"name":"Elsa","lat":11.7129451,"lon":122.3630092,"puntuation":2.8,"address":"39911 Mallory Hill","cierre":"9:16 PM","apertura":"9:28 AM","tarifa_moto":6873,"tarifa_carro":6432},
{"id":235,"name":"Cynthea","lat":22.3744371,"lon":31.602771,"puntuation":4.3,"address":"20 Carioca Alley","cierre":"11:25 PM","apertura":"8:23 AM","tarifa_moto":6564,"tarifa_carro":6274},
{"id":236,"name":"Julian","lat":24.44218,"lon":114.938684,"puntuation":1.3,"address":"445 Barnett Plaza","cierre":"9:45 PM","apertura":"12:07 AM","tarifa_moto":8797,"tarifa_carro":6688},
{"id":237,"name":"Elyn","lat":-26.6329034,"lon":-48.6844637,"puntuation":1.7,"address":"55791 Cardinal Park","cierre":"9:42 PM","apertura":"2:43 AM","tarifa_moto":9883,"tarifa_carro":6594},
{"id":238,"name":"Kalina","lat":59.2290118,"lon":18.2180635,"puntuation":2.4,"address":"79860 Eastwood Terrace","cierre":"10:41 PM","apertura":"11:09 AM","tarifa_moto":4413,"tarifa_carro":9780},
{"id":239,"name":"Jennie","lat":40.533557,"lon":19.5954894,"puntuation":3.6,"address":"273 Mallard Crossing","cierre":"10:23 PM","apertura":"2:25 AM","tarifa_moto":4025,"tarifa_carro":9693},
{"id":240,"name":"Bell","lat":-32.0288506,"lon":-53.3936083,"puntuation":2.9,"address":"7 Utah Point","cierre":"8:43 PM","apertura":"2:46 AM","tarifa_moto":8046,"tarifa_carro":7818},
{"id":241,"name":"Saunderson","lat":23.976619,"lon":47.1557087,"puntuation":4.2,"address":"4674 Golf Course Drive","cierre":"7:34 PM","apertura":"12:58 AM","tarifa_moto":7447,"tarifa_carro":9919},
{"id":242,"name":"Lavinie","lat":31.208465,"lon":121.526733,"puntuation":1.8,"address":"1151 Hanover Alley","cierre":"6:32 PM","apertura":"10:20 AM","tarifa_moto":9656,"tarifa_carro":7381},
{"id":243,"name":"Auberta","lat":35.4449242,"lon":-5.0937101,"puntuation":2.2,"address":"5400 Jenifer Street","cierre":"10:05 PM","apertura":"6:24 AM","tarifa_moto":7870,"tarifa_carro":6020},
{"id":244,"name":"Zonda","lat":-17.3079902,"lon":-40.1862129,"puntuation":3.5,"address":"5 Oakridge Court","cierre":"6:50 PM","apertura":"2:18 AM","tarifa_moto":7261,"tarifa_carro":9658},
{"id":245,"name":"Kath","lat":-26.113239,"lon":28.3505779,"puntuation":2.6,"address":"3 Debs Street","cierre":"6:43 PM","apertura":"3:42 AM","tarifa_moto":4507,"tarifa_carro":9459},
{"id":246,"name":"Melodee","lat":-6.898384,"lon":111.885002,"puntuation":3.1,"address":"6398 Troy Court","cierre":"10:27 PM","apertura":"8:54 AM","tarifa_moto":5442,"tarifa_carro":6485},
{"id":247,"name":"Helen-elizabeth","lat":-5.4906936,"lon":22.274168,"puntuation":4.4,"address":"7583 Basil Avenue","cierre":"8:19 PM","apertura":"2:02 AM","tarifa_moto":7882,"tarifa_carro":7498},
{"id":248,"name":"Henka","lat":41.3275459,"lon":19.8186982,"puntuation":2.6,"address":"960 Debs Alley","cierre":"6:32 PM","apertura":"12:24 AM","tarifa_moto":8803,"tarifa_carro":6705},
{"id":249,"name":"Hanna","lat":49.9092319,"lon":18.5234252,"puntuation":3.2,"address":"33 Prairieview Drive","cierre":"11:34 PM","apertura":"5:04 AM","tarifa_moto":8723,"tarifa_carro":6515},
{"id":250,"name":"Gal","lat":51.908209,"lon":-8.259128,"puntuation":1.3,"address":"75162 Bay Hill","cierre":"9:27 PM","apertura":"10:57 AM","tarifa_moto":7117,"tarifa_carro":9175},
{"id":251,"name":"Ruby","lat":39.663147,"lon":116.669972,"puntuation":1.8,"address":"76 Acker Trail","cierre":"6:08 PM","apertura":"5:32 AM","tarifa_moto":6420,"tarifa_carro":9458},
{"id":252,"name":"Bertie","lat":31.1853497,"lon":35.7047733,"puntuation":2.6,"address":"46113 Porter Parkway","cierre":"10:12 PM","apertura":"11:02 AM","tarifa_moto":5543,"tarifa_carro":8340},
{"id":253,"name":"Kellia","lat":-13.9705607,"lon":-71.8326771,"puntuation":2.7,"address":"618 Milwaukee Court","cierre":"11:40 PM","apertura":"1:15 AM","tarifa_moto":9675,"tarifa_carro":9616},
{"id":254,"name":"Reese","lat":31.6095648,"lon":64.4082082,"puntuation":4.0,"address":"4 Lotheville Hill","cierre":"11:10 PM","apertura":"8:54 AM","tarifa_moto":6509,"tarifa_carro":8401},
{"id":255,"name":"Philip","lat":39.7472496,"lon":-75.5917092,"puntuation":2.1,"address":"25648 Florence Center","cierre":"10:32 PM","apertura":"9:34 AM","tarifa_moto":6473,"tarifa_carro":7436},
{"id":256,"name":"Veradis","lat":52.3608501,"lon":22.6229733,"puntuation":3.3,"address":"9204 1st Drive","cierre":"6:27 PM","apertura":"7:16 AM","tarifa_moto":4550,"tarifa_carro":8730},
{"id":257,"name":"Alvy","lat":-51.6977129,"lon":-57.8516627,"puntuation":3.1,"address":"36 Hazelcrest Drive","cierre":"9:31 PM","apertura":"3:13 AM","tarifa_moto":7607,"tarifa_carro":7348},
{"id":258,"name":"Elonore","lat":38.984289,"lon":118.498758,"puntuation":4.7,"address":"37534 Judy Place","cierre":"7:09 PM","apertura":"9:22 AM","tarifa_moto":5744,"tarifa_carro":8618},
{"id":259,"name":"Carlyle","lat":35.1855659,"lon":33.3822764,"puntuation":4.7,"address":"2 Dryden Parkway","cierre":"11:58 PM","apertura":"1:02 AM","tarifa_moto":7829,"tarifa_carro":6732},
{"id":260,"name":"Rawley","lat":33.4316535,"lon":131.3529666,"puntuation":3.6,"address":"788 Spaight Hill","cierre":"8:58 PM","apertura":"6:52 AM","tarifa_moto":4609,"tarifa_carro":6008},
{"id":261,"name":"Daisi","lat":19.5230587,"lon":-71.923832,"puntuation":3.8,"address":"4 Nova Court","cierre":"8:49 PM","apertura":"5:57 AM","tarifa_moto":6853,"tarifa_carro":9406},
{"id":262,"name":"Elka","lat":41.5023719,"lon":-8.5818392,"puntuation":2.2,"address":"168 Farragut Place","cierre":"11:43 PM","apertura":"1:22 AM","tarifa_moto":6892,"tarifa_carro":9258},
{"id":263,"name":"Rolland","lat":55.658365,"lon":37.615691,"puntuation":4.3,"address":"3 Del Sol Place","cierre":"9:09 PM","apertura":"8:38 AM","tarifa_moto":4509,"tarifa_carro":9031},
{"id":264,"name":"Claybourne","lat":47.042758,"lon":142.047615,"puntuation":2.5,"address":"20 Oxford Way","cierre":"8:15 PM","apertura":"12:53 AM","tarifa_moto":9288,"tarifa_carro":6500},
{"id":265,"name":"Nikki","lat":46.5834424,"lon":15.8262125,"puntuation":2.3,"address":"69 Nova Terrace","cierre":"9:03 PM","apertura":"12:44 AM","tarifa_moto":7775,"tarifa_carro":6374},
{"id":266,"name":"Bay","lat":17.9567646,"lon":-102.1943485,"puntuation":3.1,"address":"6 Eagle Crest Pass","cierre":"10:56 PM","apertura":"2:31 AM","tarifa_moto":9473,"tarifa_carro":9115},
{"id":267,"name":"Harriot","lat":39.3960229,"lon":68.533658,"puntuation":1.2,"address":"2 Holmberg Hill","cierre":"10:01 PM","apertura":"6:41 AM","tarifa_moto":5335,"tarifa_carro":7310},
{"id":268,"name":"Gerald","lat":39.10972,"lon":117.246625,"puntuation":4.9,"address":"4 Homewood Place","cierre":"7:23 PM","apertura":"12:01 AM","tarifa_moto":8044,"tarifa_carro":9318},
{"id":269,"name":"Gerti","lat":-8.4422524,"lon":124.1253751,"puntuation":4.8,"address":"8 Waxwing Park","cierre":"6:44 PM","apertura":"7:34 AM","tarifa_moto":7510,"tarifa_carro":7810},
{"id":270,"name":"Urson","lat":-25.250202,"lon":28.1331378,"puntuation":3.0,"address":"4 Hanover Point","cierre":"9:01 PM","apertura":"1:31 AM","tarifa_moto":8209,"tarifa_carro":8994},
{"id":271,"name":"Jacquenette","lat":-15.6442505,"lon":-74.0784785,"puntuation":2.5,"address":"2464 Russell Road","cierre":"9:09 PM","apertura":"9:35 AM","tarifa_moto":7739,"tarifa_carro":9411},
{"id":272,"name":"Rayner","lat":5.650804,"lon":-72.9342451,"puntuation":3.2,"address":"05207 Lunder Point","cierre":"10:01 PM","apertura":"11:00 AM","tarifa_moto":9340,"tarifa_carro":6961},
{"id":273,"name":"Phil","lat":53.213319,"lon":-6.67045,"puntuation":3.6,"address":"98693 Fallview Point","cierre":"10:05 PM","apertura":"10:22 AM","tarifa_moto":5767,"tarifa_carro":7476},
{"id":274,"name":"Zoe","lat":13.60375,"lon":26.68413,"puntuation":2.7,"address":"19 Lawn Park","cierre":"7:11 PM","apertura":"4:25 AM","tarifa_moto":4156,"tarifa_carro":7323},
{"id":275,"name":"Kamila","lat":4.7524091,"lon":-55.0272904,"puntuation":3.5,"address":"7022 Springview Park","cierre":"9:26 PM","apertura":"8:01 AM","tarifa_moto":7535,"tarifa_carro":8688},
{"id":276,"name":"Vite","lat":-6.7708657,"lon":111.1980575,"puntuation":3.1,"address":"18 Kings Point","cierre":"6:37 PM","apertura":"7:40 AM","tarifa_moto":5501,"tarifa_carro":6229},
{"id":277,"name":"Dewain","lat":51.5141668,"lon":-0.1331854,"puntuation":4.3,"address":"745 Mariners Cove Center","cierre":"7:33 PM","apertura":"8:23 AM","tarifa_moto":7655,"tarifa_carro":6582},
{"id":278,"name":"Augusta","lat":51.8370136,"lon":19.8634282,"puntuation":2.3,"address":"14925 Golf Course Pass","cierre":"7:20 PM","apertura":"8:20 AM","tarifa_moto":4305,"tarifa_carro":9375},
{"id":279,"name":"Danita","lat":23.4024253,"lon":117.1166128,"puntuation":1.8,"address":"780 Cottonwood Drive","cierre":"6:52 PM","apertura":"9:30 AM","tarifa_moto":8604,"tarifa_carro":8061},
{"id":280,"name":"Paulita","lat":1.1016277,"lon":33.9303991,"puntuation":3.3,"address":"15031 Hanson Street","cierre":"10:51 PM","apertura":"6:07 AM","tarifa_moto":4685,"tarifa_carro":6066},
{"id":281,"name":"Joline","lat":8.2758676,"lon":-70.7659102,"puntuation":3.0,"address":"89245 Mallory Circle","cierre":"8:02 PM","apertura":"2:10 AM","tarifa_moto":7269,"tarifa_carro":6926},
{"id":282,"name":"Blithe","lat":-7.0186412,"lon":107.8361732,"puntuation":3.6,"address":"87282 Cottonwood Court","cierre":"11:32 PM","apertura":"8:04 AM","tarifa_moto":4815,"tarifa_carro":7920},
{"id":283,"name":"Carney","lat":40.2603592,"lon":-8.57269,"puntuation":1.8,"address":"0 Fordem Circle","cierre":"9:01 PM","apertura":"2:26 AM","tarifa_moto":7579,"tarifa_carro":8195},
{"id":284,"name":"Teddie","lat":53.5279314,"lon":-114.001928,"puntuation":3.3,"address":"07 Holmberg Court","cierre":"10:28 PM","apertura":"10:28 AM","tarifa_moto":5812,"tarifa_carro":7011},
{"id":285,"name":"Simona","lat":31.18248,"lon":35.69999,"puntuation":3.7,"address":"67 Sundown Pass","cierre":"7:16 PM","apertura":"3:30 AM","tarifa_moto":5699,"tarifa_carro":9371},
{"id":286,"name":"Piotr","lat":-2.569886,"lon":140.50321,"puntuation":3.1,"address":"7 Clove Park","cierre":"9:04 PM","apertura":"10:13 AM","tarifa_moto":7550,"tarifa_carro":9781},
{"id":287,"name":"Rosamund","lat":46.08341,"lon":-62.88197,"puntuation":3.6,"address":"75530 Carpenter Plaza","cierre":"11:08 PM","apertura":"11:30 AM","tarifa_moto":5735,"tarifa_carro":9644},
{"id":288,"name":"Giles","lat":-25.692754,"lon":29.4306557,"puntuation":3.7,"address":"64 Lyons Way","cierre":"9:05 PM","apertura":"6:57 AM","tarifa_moto":8626,"tarifa_carro":8229},
{"id":289,"name":"Anneliese","lat":5.1079431,"lon":8.1789301,"puntuation":2.5,"address":"07006 Lighthouse Bay Junction","cierre":"6:56 PM","apertura":"6:33 AM","tarifa_moto":5650,"tarifa_carro":8776},
{"id":290,"name":"Augie","lat":44.2267007,"lon":20.2359415,"puntuation":1.3,"address":"07101 Cherokee Drive","cierre":"10:25 PM","apertura":"11:10 AM","tarifa_moto":8388,"tarifa_carro":7174},
{"id":291,"name":"Salomi","lat":44.275895,"lon":123.9674831,"puntuation":1.2,"address":"80 Eagle Crest Drive","cierre":"11:36 PM","apertura":"8:59 AM","tarifa_moto":8195,"tarifa_carro":8124},
{"id":292,"name":"Herschel","lat":18.4849486,"lon":-69.8627901,"puntuation":2.0,"address":"280 Hoepker Trail","cierre":"9:44 PM","apertura":"1:33 AM","tarifa_moto":5640,"tarifa_carro":7340},
{"id":293,"name":"Brana","lat":-20.8933441,"lon":-47.5925952,"puntuation":4.7,"address":"46039 Gale Junction","cierre":"10:02 PM","apertura":"8:46 AM","tarifa_moto":5922,"tarifa_carro":8393},
{"id":294,"name":"Skipp","lat":39.7284944,"lon":-121.8374777,"puntuation":3.1,"address":"54 Oak Valley Road","cierre":"11:42 PM","apertura":"9:43 AM","tarifa_moto":5571,"tarifa_carro":7458},
{"id":295,"name":"Boycey","lat":-0.4993281,"lon":37.2784835,"puntuation":3.5,"address":"7926 Daystar Avenue","cierre":"9:21 PM","apertura":"2:27 AM","tarifa_moto":8165,"tarifa_carro":9930},
{"id":296,"name":"Donavon","lat":45.0030925,"lon":43.7825227,"puntuation":3.4,"address":"5200 Oriole Avenue","cierre":"8:34 PM","apertura":"7:21 AM","tarifa_moto":8752,"tarifa_carro":9887},
{"id":297,"name":"Alfons","lat":37.810661,"lon":120.758848,"puntuation":2.1,"address":"767 Fair Oaks Terrace","cierre":"11:28 PM","apertura":"11:03 AM","tarifa_moto":7399,"tarifa_carro":7589},
{"id":298,"name":"Raynor","lat":60.3068052,"lon":15.3893305,"puntuation":4.1,"address":"2 Eagle Crest Crossing","cierre":"9:55 PM","apertura":"11:12 AM","tarifa_moto":7298,"tarifa_carro":7430},
{"id":299,"name":"Rois","lat":12.7145722,"lon":124.0576816,"puntuation":2.3,"address":"6 Transport Crossing","cierre":"8:45 PM","apertura":"7:39 AM","tarifa_moto":6178,"tarifa_carro":6209},
{"id":300,"name":"Elmira","lat":40.417547,"lon":117.504737,"puntuation":3.6,"address":"3557 Farragut Court","cierre":"11:14 PM","apertura":"3:28 AM","tarifa_moto":5977,"tarifa_carro":6118},
{"id":301,"name":"Fay","lat":-7.3808411,"lon":112.7554346,"puntuation":4.2,"address":"7 8th Court","cierre":"9:47 PM","apertura":"5:05 AM","tarifa_moto":4927,"tarifa_carro":6604},
{"id":302,"name":"Tabbitha","lat":19.2000657,"lon":-98.8016731,"puntuation":3.8,"address":"407 Crownhardt Center","cierre":"11:14 PM","apertura":"2:34 AM","tarifa_moto":6674,"tarifa_carro":8208},
{"id":303,"name":"Lin","lat":3.0100681,"lon":101.5326734,"puntuation":4.2,"address":"6 Erie Crossing","cierre":"9:13 PM","apertura":"6:45 AM","tarifa_moto":8257,"tarifa_carro":8849},
{"id":304,"name":"Griswold","lat":1.4745288,"lon":124.8441178,"puntuation":3.9,"address":"11601 Eggendart Terrace","cierre":"7:22 PM","apertura":"6:41 AM","tarifa_moto":5589,"tarifa_carro":7853},
{"id":305,"name":"Auria","lat":10.55696,"lon":123.1475,"puntuation":4.6,"address":"3 Shoshone Plaza","cierre":"7:24 PM","apertura":"2:52 AM","tarifa_moto":9258,"tarifa_carro":6493},
{"id":306,"name":"Berget","lat":9.5608923,"lon":-73.3384471,"puntuation":3.0,"address":"54785 Comanche Way","cierre":"9:55 PM","apertura":"9:31 AM","tarifa_moto":6600,"tarifa_carro":8995},
{"id":307,"name":"Adrianna","lat":57.7724113,"lon":14.1585251,"puntuation":3.7,"address":"0383 Dorton Center","cierre":"11:01 PM","apertura":"4:22 AM","tarifa_moto":6106,"tarifa_carro":9025},
{"id":308,"name":"Chlo","lat":27.378875,"lon":103.534774,"puntuation":4.4,"address":"543 Welch Lane","cierre":"6:45 PM","apertura":"2:19 AM","tarifa_moto":5271,"tarifa_carro":6786},
{"id":309,"name":"Mitch","lat":33.7684556,"lon":-118.2022212,"puntuation":2.9,"address":"00146 Parkside Alley","cierre":"7:26 PM","apertura":"2:38 AM","tarifa_moto":7648,"tarifa_carro":9136},
{"id":310,"name":"Bertram","lat":32.029973,"lon":35.018973,"puntuation":2.9,"address":"05051 Moulton Court","cierre":"8:24 PM","apertura":"1:06 AM","tarifa_moto":4716,"tarifa_carro":8238},
{"id":311,"name":"Elia","lat":-7.1929741,"lon":111.7197315,"puntuation":4.2,"address":"1841 Mosinee Junction","cierre":"6:37 PM","apertura":"4:11 AM","tarifa_moto":8458,"tarifa_carro":8454},
{"id":312,"name":"Lyman","lat":-5.1841285,"lon":-37.3477805,"puntuation":4.0,"address":"90240 Kenwood Park","cierre":"11:43 PM","apertura":"11:47 AM","tarifa_moto":5164,"tarifa_carro":6771},
{"id":313,"name":"Klarrisa","lat":12.146493,"lon":125.24729,"puntuation":2.2,"address":"4348 Stuart Plaza","cierre":"9:39 PM","apertura":"6:25 AM","tarifa_moto":9311,"tarifa_carro":9312},
{"id":314,"name":"Licha","lat":-8.8229999,"lon":116.2601315,"puntuation":4.4,"address":"494 Hayes Avenue","cierre":"11:42 PM","apertura":"7:05 AM","tarifa_moto":6230,"tarifa_carro":9717},
{"id":315,"name":"Archambault","lat":38.7554084,"lon":-9.3408903,"puntuation":3.4,"address":"01 Mockingbird Drive","cierre":"9:31 PM","apertura":"1:15 AM","tarifa_moto":8343,"tarifa_carro":8743},
{"id":316,"name":"Bella","lat":11.2220458,"lon":12.0234318,"puntuation":4.1,"address":"872 Independence Point","cierre":"9:29 PM","apertura":"5:35 AM","tarifa_moto":5052,"tarifa_carro":9504},
{"id":317,"name":"Dawn","lat":38.8466225,"lon":139.8744722,"puntuation":4.1,"address":"3 American Ash Pass","cierre":"6:37 PM","apertura":"11:47 AM","tarifa_moto":9821,"tarifa_carro":8917},
{"id":318,"name":"Jewelle","lat":23.184013,"lon":115.314535,"puntuation":3.2,"address":"87720 Kennedy Center","cierre":"11:06 PM","apertura":"9:11 AM","tarifa_moto":8421,"tarifa_carro":9773},
{"id":319,"name":"Thorin","lat":-13.97797,"lon":-73.063881,"puntuation":4.4,"address":"7837 Sunnyside Pass","cierre":"7:39 PM","apertura":"6:47 AM","tarifa_moto":9531,"tarifa_carro":7972},
{"id":320,"name":"Korry","lat":34.66667,"lon":61.06667,"puntuation":4.8,"address":"25 Barby Road","cierre":"6:06 PM","apertura":"5:19 AM","tarifa_moto":9898,"tarifa_carro":6141},
{"id":321,"name":"Yehudit","lat":54.939834,"lon":20.1270433,"puntuation":3.8,"address":"74 Ryan Lane","cierre":"6:41 PM","apertura":"7:04 AM","tarifa_moto":7249,"tarifa_carro":6804},
{"id":322,"name":"Viviyan","lat":23.2196922,"lon":113.3138804,"puntuation":1.8,"address":"2 Sheridan Park","cierre":"8:15 PM","apertura":"7:10 AM","tarifa_moto":5795,"tarifa_carro":8233},
{"id":323,"name":"Lorilee","lat":-16.1178235,"lon":23.2960171,"puntuation":2.9,"address":"265 Talisman Point","cierre":"7:04 PM","apertura":"10:13 AM","tarifa_moto":4042,"tarifa_carro":7392},
{"id":324,"name":"Ashley","lat":34.393136,"lon":115.865746,"puntuation":4.4,"address":"8 Express Road","cierre":"10:35 PM","apertura":"4:07 AM","tarifa_moto":6747,"tarifa_carro":7411},
{"id":325,"name":"Caroline","lat":63.9043836,"lon":19.7606455,"puntuation":3.2,"address":"10 Riverside Park","cierre":"8:52 PM","apertura":"1:58 AM","tarifa_moto":9173,"tarifa_carro":7305},
{"id":326,"name":"Tamera","lat":7.3775355,"lon":3.9470396,"puntuation":3.5,"address":"2 Di Loreto Hill","cierre":"8:44 PM","apertura":"9:53 AM","tarifa_moto":7568,"tarifa_carro":7702},
{"id":327,"name":"Obidiah","lat":8.3839026,"lon":123.2857418,"puntuation":3.9,"address":"0 Memorial Parkway","cierre":"9:33 PM","apertura":"11:27 AM","tarifa_moto":8163,"tarifa_carro":7098},
{"id":328,"name":"Ade","lat":52.9029991,"lon":158.4280558,"puntuation":1.2,"address":"1680 Arrowood Circle","cierre":"10:54 PM","apertura":"8:45 AM","tarifa_moto":9529,"tarifa_carro":7419},
{"id":329,"name":"Winona","lat":15.187831,"lon":120.057435,"puntuation":2.5,"address":"065 Crowley Trail","cierre":"11:19 PM","apertura":"8:30 AM","tarifa_moto":7051,"tarifa_carro":9697},
{"id":330,"name":"Ophelia","lat":-30.5148445,"lon":-53.4832383,"puntuation":1.6,"address":"357 Hanson Drive","cierre":"9:41 PM","apertura":"8:29 AM","tarifa_moto":7100,"tarifa_carro":7734},
{"id":331,"name":"Norah","lat":41.9746108,"lon":-8.3737419,"puntuation":4.7,"address":"33 Rowland Drive","cierre":"6:15 PM","apertura":"2:20 AM","tarifa_moto":8237,"tarifa_carro":6718},
{"id":332,"name":"Caritta","lat":49.346063,"lon":15.4432354,"puntuation":3.8,"address":"11 Anniversary Junction","cierre":"8:30 PM","apertura":"4:44 AM","tarifa_moto":6107,"tarifa_carro":7174},
{"id":333,"name":"Mannie","lat":-14.7704597,"lon":-70.9026649,"puntuation":3.5,"address":"037 Memorial Lane","cierre":"10:28 PM","apertura":"9:02 AM","tarifa_moto":9893,"tarifa_carro":8480},
{"id":334,"name":"Teodoor","lat":-11.2750411,"lon":-37.7879303,"puntuation":1.2,"address":"5169 Declaration Plaza","cierre":"11:40 PM","apertura":"11:05 AM","tarifa_moto":7589,"tarifa_carro":8213},
{"id":335,"name":"Wilburt","lat":13.6154575,"lon":123.489418,"puntuation":3.3,"address":"65 Tennessee Way","cierre":"10:19 PM","apertura":"5:32 AM","tarifa_moto":8113,"tarifa_carro":7755},
{"id":336,"name":"Prentice","lat":-7.2739902,"lon":108.1250791,"puntuation":1.1,"address":"73 Granby Pass","cierre":"10:49 PM","apertura":"8:46 AM","tarifa_moto":6345,"tarifa_carro":7193},
{"id":337,"name":"Laural","lat":48.8480625,"lon":2.3300993,"puntuation":3.2,"address":"1 Katie Way","cierre":"9:27 PM","apertura":"5:02 AM","tarifa_moto":9622,"tarifa_carro":6867},
{"id":338,"name":"Fara","lat":-6.6274275,"lon":106.7529652,"puntuation":4.8,"address":"5 Sunfield Hill","cierre":"7:05 PM","apertura":"5:21 AM","tarifa_moto":9229,"tarifa_carro":9576},
{"id":339,"name":"Garnet","lat":38.0790354,"lon":23.5215964,"puntuation":4.0,"address":"974 Florence Court","cierre":"7:07 PM","apertura":"6:47 AM","tarifa_moto":8097,"tarifa_carro":7286},
{"id":340,"name":"Janet","lat":47.2523491,"lon":28.282907,"puntuation":3.3,"address":"84 Vahlen Way","cierre":"9:22 PM","apertura":"10:50 AM","tarifa_moto":6507,"tarifa_carro":8660},
{"id":341,"name":"Dennison","lat":13.83446,"lon":44.11469,"puntuation":3.2,"address":"04 Hoepker Place","cierre":"6:01 PM","apertura":"6:13 AM","tarifa_moto":9838,"tarifa_carro":8095},
{"id":342,"name":"Oates","lat":11.5263357,"lon":4.2653854,"puntuation":3.0,"address":"8 Hovde Court","cierre":"6:34 PM","apertura":"11:03 AM","tarifa_moto":6369,"tarifa_carro":6266},
{"id":343,"name":"Lauretta","lat":35.818632,"lon":111.285799,"puntuation":3.6,"address":"1 Darwin Junction","cierre":"7:25 PM","apertura":"6:27 AM","tarifa_moto":9031,"tarifa_carro":9677},
{"id":344,"name":"Brand","lat":-21.8421051,"lon":-47.4710798,"puntuation":1.1,"address":"923 Darwin Place","cierre":"10:36 PM","apertura":"7:41 AM","tarifa_moto":6845,"tarifa_carro":7634},
{"id":345,"name":"Thornton","lat":13.8135951,"lon":100.4227992,"puntuation":1.3,"address":"8 Columbus Crossing","cierre":"6:01 PM","apertura":"5:52 AM","tarifa_moto":8274,"tarifa_carro":8616},
{"id":346,"name":"Nehemiah","lat":50.0957911,"lon":16.984906,"puntuation":3.2,"address":"05350 Canary Park","cierre":"9:11 PM","apertura":"7:35 AM","tarifa_moto":6086,"tarifa_carro":6194},
{"id":347,"name":"Caty","lat":41.867116,"lon":-8.1991214,"puntuation":2.8,"address":"02 Morrow Park","cierre":"6:37 PM","apertura":"7:29 AM","tarifa_moto":6519,"tarifa_carro":9662},
{"id":348,"name":"Viv","lat":22.69569,"lon":112.225334,"puntuation":1.6,"address":"1 Hazelcrest Place","cierre":"10:34 PM","apertura":"3:46 AM","tarifa_moto":9679,"tarifa_carro":8519},
{"id":349,"name":"Kanya","lat":-14.4040989,"lon":-56.4370932,"puntuation":3.3,"address":"7 Old Gate Road","cierre":"11:38 PM","apertura":"10:06 AM","tarifa_moto":8687,"tarifa_carro":7036},
{"id":350,"name":"Lisa","lat":42.7249013,"lon":47.6811837,"puntuation":3.3,"address":"62964 Harbort Crossing","cierre":"11:31 PM","apertura":"8:42 AM","tarifa_moto":6428,"tarifa_carro":6873},
{"id":351,"name":"Fons","lat":28.0093247,"lon":120.6569721,"puntuation":3.9,"address":"85 Thompson Terrace","cierre":"10:24 PM","apertura":"8:52 AM","tarifa_moto":8589,"tarifa_carro":6397},
{"id":352,"name":"Shawn","lat":-6.8316639,"lon":39.2827032,"puntuation":2.5,"address":"5872 Mayer Pass","cierre":"8:46 PM","apertura":"2:58 AM","tarifa_moto":9933,"tarifa_carro":8008},
{"id":353,"name":"Merrily","lat":-14.4296108,"lon":-67.5350917,"puntuation":2.1,"address":"7175 Columbus Drive","cierre":"11:19 PM","apertura":"9:23 AM","tarifa_moto":5666,"tarifa_carro":6248},
{"id":354,"name":"Tracie","lat":26.560231,"lon":100.176498,"puntuation":1.5,"address":"740 High Crossing Lane","cierre":"8:30 PM","apertura":"7:14 AM","tarifa_moto":6180,"tarifa_carro":8627},
{"id":355,"name":"Leann","lat":30.095643,"lon":114.979875,"puntuation":4.0,"address":"7018 Sachtjen Pass","cierre":"9:21 PM","apertura":"2:13 AM","tarifa_moto":7743,"tarifa_carro":9490},
{"id":356,"name":"Maison","lat":15.5518829,"lon":120.7822013,"puntuation":2.8,"address":"86014 Clarendon Center","cierre":"7:41 PM","apertura":"5:47 AM","tarifa_moto":7305,"tarifa_carro":6391},
{"id":357,"name":"Garrard","lat":49.7371648,"lon":19.9186389,"puntuation":1.3,"address":"9 Pennsylvania Street","cierre":"6:50 PM","apertura":"4:01 AM","tarifa_moto":6222,"tarifa_carro":9555},
{"id":358,"name":"Elvin","lat":58.4126605,"lon":51.2826021,"puntuation":4.7,"address":"184 Dakota Junction","cierre":"9:46 PM","apertura":"4:58 AM","tarifa_moto":8480,"tarifa_carro":8614},
{"id":359,"name":"Eleen","lat":52.3612714,"lon":4.8827921,"puntuation":2.5,"address":"221 Starling Lane","cierre":"6:17 PM","apertura":"3:44 AM","tarifa_moto":5293,"tarifa_carro":9861},
{"id":360,"name":"Gilberta","lat":13.8354819,"lon":-88.9856574,"puntuation":3.2,"address":"6 Saint Paul Road","cierre":"6:27 PM","apertura":"2:24 AM","tarifa_moto":7366,"tarifa_carro":6258},
{"id":361,"name":"Finlay","lat":24.3154419,"lon":109.3656914,"puntuation":4.3,"address":"0873 Lunder Park","cierre":"6:30 PM","apertura":"1:25 AM","tarifa_moto":7480,"tarifa_carro":9027},
{"id":362,"name":"Harli","lat":1.05,"lon":118.8,"puntuation":4.0,"address":"77304 Fairfield Trail","cierre":"9:52 PM","apertura":"3:07 AM","tarifa_moto":4169,"tarifa_carro":9241},
{"id":363,"name":"Valenka","lat":-6.416667,"lon":-77.8833329,"puntuation":1.6,"address":"94 Park Meadow Lane","cierre":"7:09 PM","apertura":"1:06 AM","tarifa_moto":7607,"tarifa_carro":8338},
{"id":364,"name":"Gennifer","lat":45.4835641,"lon":18.7768698,"puntuation":2.0,"address":"3 Norway Maple Crossing","cierre":"11:26 PM","apertura":"12:04 AM","tarifa_moto":5890,"tarifa_carro":8799},
{"id":365,"name":"Cherry","lat":16.8564272,"lon":120.7963702,"puntuation":3.9,"address":"0 Leroy Point","cierre":"6:09 PM","apertura":"4:44 AM","tarifa_moto":6405,"tarifa_carro":6347},
{"id":366,"name":"Clare","lat":66.322631,"lon":23.67353,"puntuation":1.6,"address":"230 Northfield Plaza","cierre":"10:04 PM","apertura":"9:27 AM","tarifa_moto":9313,"tarifa_carro":6757},
{"id":367,"name":"Gisela","lat":25.6923524,"lon":-100.2558064,"puntuation":3.4,"address":"699 Charing Cross Avenue","cierre":"8:21 PM","apertura":"10:56 AM","tarifa_moto":8187,"tarifa_carro":6495},
{"id":368,"name":"Ina","lat":50.0093858,"lon":16.2650464,"puntuation":4.2,"address":"06 Blackbird Trail","cierre":"10:05 PM","apertura":"8:11 AM","tarifa_moto":6647,"tarifa_carro":9319},
{"id":369,"name":"Kingsly","lat":11.7447935,"lon":12.1818557,"puntuation":5.0,"address":"68 Calypso Hill","cierre":"7:38 PM","apertura":"3:43 AM","tarifa_moto":6046,"tarifa_carro":6496},
{"id":370,"name":"Bette","lat":37.005017,"lon":114.683863,"puntuation":1.9,"address":"8707 Russell Circle","cierre":"7:03 PM","apertura":"2:06 AM","tarifa_moto":6475,"tarifa_carro":8110},
{"id":371,"name":"Tonnie","lat":34.4906784,"lon":69.2698737,"puntuation":3.5,"address":"6 Coolidge Parkway","cierre":"7:16 PM","apertura":"6:06 AM","tarifa_moto":4235,"tarifa_carro":6890},
{"id":372,"name":"Pembroke","lat":-9.8895144,"lon":124.6552328,"puntuation":4.7,"address":"7683 Maywood Pass","cierre":"10:26 PM","apertura":"5:32 AM","tarifa_moto":6198,"tarifa_carro":7623},
{"id":373,"name":"Deanne","lat":-28.0261859,"lon":32.2795667,"puntuation":3.7,"address":"30 Katie Circle","cierre":"8:20 PM","apertura":"7:19 AM","tarifa_moto":6967,"tarifa_carro":8723},
{"id":374,"name":"Timmie","lat":48.6197483,"lon":-123.4169098,"puntuation":2.7,"address":"810 Holmberg Road","cierre":"7:17 PM","apertura":"8:09 AM","tarifa_moto":5941,"tarifa_carro":8150},
{"id":375,"name":"Wendeline","lat":8.8994875,"lon":39.9170354,"puntuation":4.2,"address":"417 Ruskin Trail","cierre":"8:00 PM","apertura":"5:45 AM","tarifa_moto":4847,"tarifa_carro":6380},
{"id":376,"name":"Isabelle","lat":34.6192998,"lon":133.8246072,"puntuation":4.4,"address":"4 Huxley Place","cierre":"11:39 PM","apertura":"3:10 AM","tarifa_moto":4017,"tarifa_carro":7727},
{"id":377,"name":"Candie","lat":44.521785,"lon":125.72862,"puntuation":1.2,"address":"88117 Kingsford Hill","cierre":"6:11 PM","apertura":"3:16 AM","tarifa_moto":5953,"tarifa_carro":6800},
{"id":378,"name":"Dix","lat":19.3376878,"lon":-99.0591821,"puntuation":3.9,"address":"3 Mosinee Avenue","cierre":"11:55 PM","apertura":"9:43 AM","tarifa_moto":5812,"tarifa_carro":8505},
{"id":379,"name":"Kinna","lat":35.846212,"lon":14.486396,"puntuation":4.6,"address":"77935 Commercial Junction","cierre":"11:50 PM","apertura":"3:30 AM","tarifa_moto":8703,"tarifa_carro":6551},
{"id":380,"name":"Verna","lat":12.481536,"lon":123.380874,"puntuation":4.6,"address":"4681 Buell Park","cierre":"6:43 PM","apertura":"5:49 AM","tarifa_moto":4171,"tarifa_carro":6819},
{"id":381,"name":"Henryetta","lat":36.1398393,"lon":128.1135947,"puntuation":4.1,"address":"440 Norway Maple Hill","cierre":"8:37 PM","apertura":"7:59 AM","tarifa_moto":5584,"tarifa_carro":8490},
{"id":382,"name":"Pattin","lat":50.3396453,"lon":13.4748408,"puntuation":2.1,"address":"66302 Eliot Way","cierre":"9:18 PM","apertura":"10:21 AM","tarifa_moto":4910,"tarifa_carro":8615},
{"id":383,"name":"Gavra","lat":32.7757,"lon":-96.5983607,"puntuation":4.5,"address":"768 West Drive","cierre":"10:52 PM","apertura":"9:03 AM","tarifa_moto":8683,"tarifa_carro":7256},
{"id":384,"name":"Whittaker","lat":59.1655805,"lon":35.3248919,"puntuation":2.0,"address":"90887 Logan Crossing","cierre":"8:50 PM","apertura":"5:20 AM","tarifa_moto":5484,"tarifa_carro":6906},
{"id":385,"name":"Olympia","lat":50.5888258,"lon":16.8098022,"puntuation":3.1,"address":"8200 Crownhardt Way","cierre":"8:47 PM","apertura":"8:10 AM","tarifa_moto":8403,"tarifa_carro":8731},
{"id":386,"name":"Hervey","lat":4.392095,"lon":-75.687434,"puntuation":3.7,"address":"8361 Dakota Hill","cierre":"11:54 PM","apertura":"11:39 AM","tarifa_moto":9661,"tarifa_carro":9542},
{"id":387,"name":"Lizette","lat":43.897258,"lon":89.939332,"puntuation":4.7,"address":"64 Graceland Place","cierre":"9:25 PM","apertura":"5:44 AM","tarifa_moto":5808,"tarifa_carro":8580},
{"id":388,"name":"Erv","lat":29.956858,"lon":107.209965,"puntuation":2.1,"address":"0 Schmedeman Junction","cierre":"6:17 PM","apertura":"9:50 AM","tarifa_moto":7369,"tarifa_carro":6010},
{"id":389,"name":"Sherline","lat":22.951554,"lon":112.10915,"puntuation":2.2,"address":"6012 Clove Terrace","cierre":"6:47 PM","apertura":"8:52 AM","tarifa_moto":7738,"tarifa_carro":8131},
{"id":390,"name":"Monica","lat":-18.4902959,"lon":-64.1123359,"puntuation":3.4,"address":"2704 Maple Wood Plaza","cierre":"8:23 PM","apertura":"5:47 AM","tarifa_moto":5011,"tarifa_carro":7878},
{"id":391,"name":"Hermine","lat":-6.9460598,"lon":111.8151245,"puntuation":3.9,"address":"13 Dwight Terrace","cierre":"6:48 PM","apertura":"2:36 AM","tarifa_moto":6274,"tarifa_carro":8722},
{"id":392,"name":"Carlotta","lat":20.2993311,"lon":106.3581527,"puntuation":4.2,"address":"7 Kinsman Terrace","cierre":"8:02 PM","apertura":"5:19 AM","tarifa_moto":4050,"tarifa_carro":7506},
{"id":393,"name":"Aurilia","lat":49.1077868,"lon":34.7299619,"puntuation":2.9,"address":"099 Elgar Road","cierre":"10:44 PM","apertura":"2:38 AM","tarifa_moto":8478,"tarifa_carro":6395},
{"id":394,"name":"Isadora","lat":50.404284,"lon":16.3904406,"puntuation":1.4,"address":"0336 Sunbrook Alley","cierre":"10:56 PM","apertura":"3:16 AM","tarifa_moto":4645,"tarifa_carro":7029},
{"id":395,"name":"Luciano","lat":-8.2202049,"lon":111.4708135,"puntuation":4.9,"address":"948 Karstens Trail","cierre":"7:26 PM","apertura":"12:01 AM","tarifa_moto":9838,"tarifa_carro":8032},
{"id":396,"name":"Larry","lat":41.57365,"lon":120.4493879,"puntuation":2.7,"address":"14458 Pine View Place","cierre":"8:18 PM","apertura":"9:12 AM","tarifa_moto":9830,"tarifa_carro":9364},
{"id":397,"name":"Miles","lat":30.4659284,"lon":30.9305801,"puntuation":2.3,"address":"87 Grayhawk Park","cierre":"9:57 PM","apertura":"2:44 AM","tarifa_moto":5819,"tarifa_carro":8367},
{"id":398,"name":"Viviana","lat":37.1035665,"lon":25.3776734,"puntuation":2.2,"address":"36 Lakewood Gardens Street","cierre":"10:30 PM","apertura":"3:20 AM","tarifa_moto":4168,"tarifa_carro":6466},
{"id":399,"name":"Flory","lat":55.5807611,"lon":37.7673912,"puntuation":3.6,"address":"07875 Vidon Pass","cierre":"11:01 PM","apertura":"8:06 AM","tarifa_moto":7488,"tarifa_carro":9286},
{"id":400,"name":"Jeramie","lat":-7.6411786,"lon":112.6377432,"puntuation":3.5,"address":"6562 Towne Junction","cierre":"7:24 PM","apertura":"6:09 AM","tarifa_moto":6710,"tarifa_carro":9331},
{"id":401,"name":"Francyne","lat":47.9318074,"lon":5.2893597,"puntuation":2.7,"address":"17 Gulseth Pass","cierre":"11:46 PM","apertura":"9:14 AM","tarifa_moto":7544,"tarifa_carro":8760},
{"id":402,"name":"Leo","lat":10.034716,"lon":-73.237105,"puntuation":2.4,"address":"6607 Holmberg Circle","cierre":"10:12 PM","apertura":"8:05 AM","tarifa_moto":7893,"tarifa_carro":7157},
{"id":403,"name":"Nealon","lat":7.2225,"lon":124.25333,"puntuation":4.1,"address":"4370 Eagan Drive","cierre":"10:55 PM","apertura":"5:47 AM","tarifa_moto":8299,"tarifa_carro":8149},
{"id":404,"name":"Bryna","lat":11.4522433,"lon":-85.8050987,"puntuation":3.0,"address":"2730 Morrow Drive","cierre":"9:35 PM","apertura":"2:16 AM","tarifa_moto":5336,"tarifa_carro":9050},
{"id":405,"name":"Guss","lat":13.5936254,"lon":100.324002,"puntuation":4.9,"address":"9400 Donald Lane","cierre":"9:48 PM","apertura":"3:56 AM","tarifa_moto":5110,"tarifa_carro":7284},
{"id":406,"name":"Davey","lat":45.446079,"lon":11.0057554,"puntuation":3.8,"address":"6626 Dahle Pass","cierre":"8:06 PM","apertura":"1:22 AM","tarifa_moto":8170,"tarifa_carro":6097},
{"id":407,"name":"Florinda","lat":45.9859651,"lon":14.5721903,"puntuation":5.0,"address":"9 Fulton Alley","cierre":"10:51 PM","apertura":"9:00 AM","tarifa_moto":8338,"tarifa_carro":7453},
{"id":408,"name":"Rik","lat":34.062917,"lon":108.329633,"puntuation":1.6,"address":"6 American Ash Point","cierre":"6:54 PM","apertura":"12:34 AM","tarifa_moto":5466,"tarifa_carro":8587},
{"id":409,"name":"Reba","lat":-15.7994139,"lon":-47.9222179,"puntuation":2.3,"address":"07688 Green Terrace","cierre":"11:30 PM","apertura":"11:30 AM","tarifa_moto":4473,"tarifa_carro":6921},
{"id":410,"name":"Adolphe","lat":16.879252,"lon":121.586713,"puntuation":4.4,"address":"309 Aberg Avenue","cierre":"7:13 PM","apertura":"5:13 AM","tarifa_moto":7108,"tarifa_carro":9539},
{"id":411,"name":"Lina","lat":-10.9492286,"lon":-69.5767704,"puntuation":2.2,"address":"1 Calypso Parkway","cierre":"7:34 PM","apertura":"9:18 AM","tarifa_moto":6055,"tarifa_carro":8422},
{"id":412,"name":"Sylvan","lat":54.3082668,"lon":26.7832545,"puntuation":4.5,"address":"90909 Anniversary Center","cierre":"11:28 PM","apertura":"6:25 AM","tarifa_moto":7229,"tarifa_carro":8785},
{"id":413,"name":"Benny","lat":46.2961712,"lon":14.8062347,"puntuation":2.5,"address":"25 Stone Corner Crossing","cierre":"6:40 PM","apertura":"2:07 AM","tarifa_moto":4563,"tarifa_carro":9190},
{"id":414,"name":"Torrey","lat":30.6514558,"lon":104.08491,"puntuation":4.7,"address":"2 Summit Road","cierre":"11:33 PM","apertura":"4:59 AM","tarifa_moto":4009,"tarifa_carro":6321},
{"id":415,"name":"Vanya","lat":22.2678103,"lon":114.2360778,"puntuation":2.3,"address":"7142 Bashford Crossing","cierre":"7:58 PM","apertura":"6:24 AM","tarifa_moto":5527,"tarifa_carro":6753},
{"id":416,"name":"Reynold","lat":49.8363158,"lon":36.6813123,"puntuation":3.0,"address":"206 Pawling Park","cierre":"9:21 PM","apertura":"7:36 AM","tarifa_moto":5607,"tarifa_carro":7293},
{"id":417,"name":"Cornell","lat":-7.4686612,"lon":-37.2746574,"puntuation":1.8,"address":"2633 Warrior Crossing","cierre":"10:41 PM","apertura":"9:19 AM","tarifa_moto":7971,"tarifa_carro":8770},
{"id":418,"name":"Cazzie","lat":46.364025,"lon":124.25218,"puntuation":1.4,"address":"58647 Rusk Alley","cierre":"8:37 PM","apertura":"11:05 AM","tarifa_moto":6778,"tarifa_carro":7548},
{"id":419,"name":"Waneta","lat":50.98804,"lon":16.83363,"puntuation":2.1,"address":"73 Corscot Place","cierre":"6:55 PM","apertura":"8:15 AM","tarifa_moto":9221,"tarifa_carro":8481},
{"id":420,"name":"Vernon","lat":8.3263397,"lon":-72.0907994,"puntuation":3.5,"address":"96822 Hauk Lane","cierre":"9:04 PM","apertura":"10:19 AM","tarifa_moto":8882,"tarifa_carro":8239},
{"id":421,"name":"Syman","lat":-6.8435796,"lon":106.8296372,"puntuation":4.8,"address":"8 Sage Center","cierre":"6:59 PM","apertura":"9:56 AM","tarifa_moto":9595,"tarifa_carro":6047},
{"id":422,"name":"Alyda","lat":30.190334,"lon":122.689752,"puntuation":2.4,"address":"5325 Stuart Crossing","cierre":"10:51 PM","apertura":"1:53 AM","tarifa_moto":8974,"tarifa_carro":9829},
{"id":423,"name":"Sibyl","lat":44.900941,"lon":129.791945,"puntuation":3.8,"address":"36127 Clemons Hill","cierre":"9:18 PM","apertura":"12:57 AM","tarifa_moto":8206,"tarifa_carro":9307},
{"id":424,"name":"Vonni","lat":34.3193669,"lon":8.4074573,"puntuation":3.4,"address":"3858 Independence Road","cierre":"10:09 PM","apertura":"9:18 AM","tarifa_moto":4265,"tarifa_carro":8766},
{"id":425,"name":"Jenelle","lat":-5.2368931,"lon":-75.6557206,"puntuation":4.6,"address":"84586 Ronald Regan Way","cierre":"7:45 PM","apertura":"1:46 AM","tarifa_moto":5846,"tarifa_carro":6878},
{"id":426,"name":"Robbyn","lat":9.4546148,"lon":-64.8318347,"puntuation":3.1,"address":"37 Farwell Parkway","cierre":"8:47 PM","apertura":"2:22 AM","tarifa_moto":5505,"tarifa_carro":7164},
{"id":427,"name":"Vilhelmina","lat":37.738098,"lon":127.0336819,"puntuation":3.4,"address":"0 Meadow Valley Way","cierre":"6:20 PM","apertura":"12:17 AM","tarifa_moto":8956,"tarifa_carro":8730},
{"id":428,"name":"Bearnard","lat":-3.7901775,"lon":114.7380385,"puntuation":1.9,"address":"110 Talisman Road","cierre":"7:01 PM","apertura":"5:17 AM","tarifa_moto":6400,"tarifa_carro":9834},
{"id":429,"name":"Timmy","lat":-6.9158535,"lon":111.8151245,"puntuation":3.3,"address":"5026 Mariners Cove Point","cierre":"11:14 PM","apertura":"4:46 AM","tarifa_moto":9143,"tarifa_carro":9091},
{"id":430,"name":"Liesa","lat":55.5099217,"lon":86.1521385,"puntuation":3.0,"address":"8514 Ruskin Street","cierre":"8:44 PM","apertura":"8:55 AM","tarifa_moto":5696,"tarifa_carro":6087},
{"id":431,"name":"Betty","lat":40.081331,"lon":111.395534,"puntuation":3.7,"address":"62269 Union Point","cierre":"7:29 PM","apertura":"6:03 AM","tarifa_moto":5907,"tarifa_carro":9940},
{"id":432,"name":"Brinn","lat":5.6052635,"lon":27.4673845,"puntuation":1.2,"address":"838 Jenifer Alley","cierre":"9:47 PM","apertura":"7:10 AM","tarifa_moto":4785,"tarifa_carro":7725},
{"id":433,"name":"Helsa","lat":51.680591,"lon":-9.448724,"puntuation":3.2,"address":"026 Mcguire Point","cierre":"11:10 PM","apertura":"3:27 AM","tarifa_moto":7189,"tarifa_carro":8761},
{"id":434,"name":"Lana","lat":8.4297819,"lon":-82.8317486,"puntuation":2.4,"address":"6 Columbus Court","cierre":"9:46 PM","apertura":"10:34 AM","tarifa_moto":8974,"tarifa_carro":6598},
{"id":435,"name":"Tobey","lat":13.4441631,"lon":0.5235927,"puntuation":3.7,"address":"88 Steensland Circle","cierre":"7:02 PM","apertura":"8:21 AM","tarifa_moto":4439,"tarifa_carro":6750},
{"id":436,"name":"Lilly","lat":56.5496799,"lon":84.0751534,"puntuation":1.1,"address":"8079 Esker Point","cierre":"9:53 PM","apertura":"2:06 AM","tarifa_moto":6746,"tarifa_carro":9866},
{"id":437,"name":"Atalanta","lat":28.324632,"lon":114.108985,"puntuation":2.0,"address":"3980 Almo Parkway","cierre":"11:32 PM","apertura":"9:32 AM","tarifa_moto":7218,"tarifa_carro":7459},
{"id":438,"name":"Wakefield","lat":8.3412493,"lon":-77.2175223,"puntuation":4.9,"address":"1238 Pankratz Road","cierre":"10:01 PM","apertura":"12:35 AM","tarifa_moto":7179,"tarifa_carro":9523},
{"id":439,"name":"Shay","lat":40.5761474,"lon":-8.5858661,"puntuation":1.9,"address":"12124 Basil Avenue","cierre":"11:39 PM","apertura":"8:16 AM","tarifa_moto":6654,"tarifa_carro":8842},
{"id":440,"name":"Giovanna","lat":40.9369019,"lon":44.777047,"puntuation":2.3,"address":"2 Fieldstone Alley","cierre":"9:18 PM","apertura":"7:49 AM","tarifa_moto":4127,"tarifa_carro":9495},
{"id":441,"name":"Justin","lat":27.783878,"lon":106.585841,"puntuation":3.2,"address":"84 Burning Wood Pass","cierre":"7:05 PM","apertura":"11:53 AM","tarifa_moto":4155,"tarifa_carro":7404},
{"id":442,"name":"Zaneta","lat":8.797145,"lon":-75.698571,"puntuation":3.8,"address":"0 Harper Park","cierre":"7:39 PM","apertura":"7:01 AM","tarifa_moto":9855,"tarifa_carro":8532},
{"id":443,"name":"Leland","lat":42.8334,"lon":-80.38297,"puntuation":2.4,"address":"6534 Oakridge Road","cierre":"8:16 PM","apertura":"6:48 AM","tarifa_moto":4327,"tarifa_carro":6507},
{"id":444,"name":"Rayner","lat":-7.0124761,"lon":111.4812472,"puntuation":3.8,"address":"3761 Weeping Birch Parkway","cierre":"9:32 PM","apertura":"5:15 AM","tarifa_moto":7483,"tarifa_carro":9948},
{"id":445,"name":"Nicole","lat":4.7231169,"lon":6.7788461,"puntuation":4.3,"address":"851 Rusk Pass","cierre":"10:26 PM","apertura":"10:57 AM","tarifa_moto":4466,"tarifa_carro":7917},
{"id":446,"name":"Shanie","lat":41.450529,"lon":121.916465,"puntuation":4.3,"address":"8 Kipling Park","cierre":"7:17 PM","apertura":"6:25 AM","tarifa_moto":4542,"tarifa_carro":8463},
{"id":447,"name":"Berri","lat":30.2646273,"lon":78.5064473,"puntuation":2.3,"address":"22569 Fairview Way","cierre":"10:51 PM","apertura":"2:38 AM","tarifa_moto":7869,"tarifa_carro":7204},
{"id":448,"name":"Ofelia","lat":40.3972809,"lon":-8.2549322,"puntuation":3.1,"address":"93 Weeping Birch Hill","cierre":"9:59 PM","apertura":"7:18 AM","tarifa_moto":6353,"tarifa_carro":6777},
{"id":449,"name":"Lenore","lat":0.0851034,"lon":-76.8940156,"puntuation":1.6,"address":"52 Pankratz Point","cierre":"6:39 PM","apertura":"11:26 AM","tarifa_moto":5569,"tarifa_carro":6733},
{"id":450,"name":"Madelena","lat":31.77,"lon":-106.43,"puntuation":2.1,"address":"0 Pierstorff Trail","cierre":"10:47 PM","apertura":"8:05 AM","tarifa_moto":8621,"tarifa_carro":7881},
{"id":451,"name":"Mufi","lat":37.817552,"lon":-25.66905,"puntuation":4.8,"address":"0 Bellgrove Parkway","cierre":"10:09 PM","apertura":"7:46 AM","tarifa_moto":8034,"tarifa_carro":8487},
{"id":452,"name":"Goldarina","lat":5.8734472,"lon":124.8979544,"puntuation":4.5,"address":"4383 Carberry Trail","cierre":"9:34 PM","apertura":"3:02 AM","tarifa_moto":7456,"tarifa_carro":6277},
{"id":453,"name":"Katya","lat":24.705643,"lon":118.43196,"puntuation":2.6,"address":"9 Lighthouse Bay Place","cierre":"7:45 PM","apertura":"9:14 AM","tarifa_moto":8214,"tarifa_carro":9206},
{"id":454,"name":"Stacie","lat":28.363388,"lon":117.853172,"puntuation":1.5,"address":"327 Farmco Alley","cierre":"7:40 PM","apertura":"5:46 AM","tarifa_moto":6803,"tarifa_carro":6600},
{"id":455,"name":"Emelita","lat":-11.2750411,"lon":-37.7879303,"puntuation":2.1,"address":"98 Miller Junction","cierre":"9:19 PM","apertura":"11:10 AM","tarifa_moto":6868,"tarifa_carro":6138},
{"id":456,"name":"Lisetta","lat":42.4999931,"lon":18.6517064,"puntuation":3.7,"address":"76 Arrowood Center","cierre":"7:42 PM","apertura":"4:42 AM","tarifa_moto":8005,"tarifa_carro":7089},
{"id":457,"name":"Estelle","lat":19.3851705,"lon":-99.1837453,"puntuation":1.7,"address":"7040 Oneill Parkway","cierre":"6:47 PM","apertura":"5:26 AM","tarifa_moto":4444,"tarifa_carro":6669},
{"id":458,"name":"Marlane","lat":42.849628,"lon":-71.1049505,"puntuation":3.7,"address":"45290 Del Mar Street","cierre":"9:44 PM","apertura":"10:44 AM","tarifa_moto":8247,"tarifa_carro":9700},
{"id":459,"name":"Cami","lat":35.1379343,"lon":33.1323409,"puntuation":1.1,"address":"08 Jenifer Point","cierre":"6:52 PM","apertura":"2:18 AM","tarifa_moto":9478,"tarifa_carro":6954},
{"id":460,"name":"Curtis","lat":40.2343129,"lon":44.2868976,"puntuation":4.6,"address":"48477 Summit Trail","cierre":"6:30 PM","apertura":"4:41 AM","tarifa_moto":9090,"tarifa_carro":6188},
{"id":461,"name":"Tripp","lat":33.8305244,"lon":-4.8353154,"puntuation":4.9,"address":"848 Lyons Pass","cierre":"7:46 PM","apertura":"10:56 AM","tarifa_moto":8535,"tarifa_carro":8228},
{"id":462,"name":"Melvyn","lat":24.202112,"lon":116.555397,"puntuation":3.8,"address":"09 Golf Parkway","cierre":"8:52 PM","apertura":"9:27 AM","tarifa_moto":7323,"tarifa_carro":7175},
{"id":463,"name":"Frayda","lat":59.2264863,"lon":18.2509127,"puntuation":1.7,"address":"88079 Monica Road","cierre":"11:46 PM","apertura":"1:18 AM","tarifa_moto":7818,"tarifa_carro":7014},
{"id":464,"name":"Andreana","lat":0.9073068,"lon":123.2559847,"puntuation":2.6,"address":"32 Mendota Crossing","cierre":"9:11 PM","apertura":"12:24 AM","tarifa_moto":6626,"tarifa_carro":9084},
{"id":465,"name":"Camey","lat":57.9084788,"lon":14.0698012,"puntuation":1.2,"address":"2924 Waywood Avenue","cierre":"10:03 PM","apertura":"12:25 AM","tarifa_moto":7846,"tarifa_carro":6745},
{"id":466,"name":"Llywellyn","lat":21.481291,"lon":109.120161,"puntuation":3.7,"address":"4 Park Meadow Lane","cierre":"8:40 PM","apertura":"5:45 AM","tarifa_moto":5673,"tarifa_carro":7479},
{"id":467,"name":"Scarface","lat":55.876771,"lon":37.4690832,"puntuation":4.0,"address":"6 Utah Avenue","cierre":"7:27 PM","apertura":"2:12 AM","tarifa_moto":7046,"tarifa_carro":7375},
{"id":468,"name":"Roxie","lat":33.6450129,"lon":133.4789243,"puntuation":2.2,"address":"9 Laurel Crossing","cierre":"6:03 PM","apertura":"7:36 AM","tarifa_moto":5570,"tarifa_carro":7977},
{"id":469,"name":"Geri","lat":6.6753696,"lon":124.5444219,"puntuation":2.2,"address":"968 Hagan Place","cierre":"7:21 PM","apertura":"3:09 AM","tarifa_moto":7466,"tarifa_carro":7548},
{"id":470,"name":"Mahala","lat":35.30385,"lon":113.875245,"puntuation":3.7,"address":"11 Scofield Pass","cierre":"10:55 PM","apertura":"5:10 AM","tarifa_moto":7683,"tarifa_carro":9033},
{"id":471,"name":"Sebastien","lat":-15.5997099,"lon":-56.0976073,"puntuation":1.6,"address":"3836 Lunder Drive","cierre":"6:56 PM","apertura":"11:17 AM","tarifa_moto":7201,"tarifa_carro":7079},
{"id":472,"name":"Bryce","lat":-7.4703872,"lon":110.9387418,"puntuation":4.4,"address":"7009 Farmco Alley","cierre":"11:44 PM","apertura":"2:53 AM","tarifa_moto":6249,"tarifa_carro":9610},
{"id":473,"name":"Eloise","lat":32.114217,"lon":35.195851,"puntuation":1.7,"address":"87154 Texas Junction","cierre":"8:00 PM","apertura":"10:46 AM","tarifa_moto":7794,"tarifa_carro":6564},
{"id":474,"name":"Remy","lat":-3.7368149,"lon":119.5803605,"puntuation":4.9,"address":"43 Reindahl Terrace","cierre":"7:47 PM","apertura":"7:30 AM","tarifa_moto":7041,"tarifa_carro":7959},
{"id":475,"name":"Nedi","lat":41.6615259,"lon":-83.6861485,"puntuation":4.4,"address":"41102 Butterfield Plaza","cierre":"10:08 PM","apertura":"4:39 AM","tarifa_moto":9450,"tarifa_carro":6973},
{"id":476,"name":"Lucho","lat":62.2956257,"lon":28.2513674,"puntuation":3.3,"address":"70 Roxbury Circle","cierre":"9:10 PM","apertura":"2:12 AM","tarifa_moto":8273,"tarifa_carro":8561},
{"id":477,"name":"Winny","lat":47.1634031,"lon":33.9366442,"puntuation":4.4,"address":"0 Pierstorff Pass","cierre":"6:35 PM","apertura":"4:51 AM","tarifa_moto":9265,"tarifa_carro":6498},
{"id":478,"name":"Jasmina","lat":33.404544,"lon":114.418181,"puntuation":2.2,"address":"84 Hovde Terrace","cierre":"8:45 PM","apertura":"11:19 AM","tarifa_moto":4680,"tarifa_carro":6828},
{"id":479,"name":"Paddie","lat":-6.0329665,"lon":26.9263671,"puntuation":1.1,"address":"13154 Shoshone Road","cierre":"10:47 PM","apertura":"9:25 AM","tarifa_moto":5120,"tarifa_carro":7887},
{"id":480,"name":"Langston","lat":30.113962,"lon":118.169798,"puntuation":3.8,"address":"4 Bowman Lane","cierre":"7:06 PM","apertura":"8:17 AM","tarifa_moto":9623,"tarifa_carro":6743},
{"id":481,"name":"Bordy","lat":53.806717,"lon":60.657365,"puntuation":4.8,"address":"274 Division Way","cierre":"9:10 PM","apertura":"3:20 AM","tarifa_moto":5074,"tarifa_carro":9302},
{"id":482,"name":"Verena","lat":36.3504119,"lon":127.3845475,"puntuation":4.5,"address":"651 Butternut Road","cierre":"7:55 PM","apertura":"2:54 AM","tarifa_moto":5420,"tarifa_carro":6826},
{"id":483,"name":"Peyter","lat":49.9912948,"lon":17.960745,"puntuation":4.9,"address":"7520 Old Shore Crossing","cierre":"8:50 PM","apertura":"12:17 AM","tarifa_moto":6315,"tarifa_carro":6764},
{"id":484,"name":"Blinni","lat":39.856317,"lon":96.779317,"puntuation":4.5,"address":"786 Memorial Park","cierre":"6:24 PM","apertura":"5:45 AM","tarifa_moto":7018,"tarifa_carro":8137},
{"id":485,"name":"Isabeau","lat":39.42309,"lon":20.0718612,"puntuation":4.2,"address":"182 Di Loreto Way","cierre":"9:46 PM","apertura":"3:09 AM","tarifa_moto":4757,"tarifa_carro":8165},
{"id":486,"name":"Fred","lat":-8.0305091,"lon":110.6168921,"puntuation":1.9,"address":"3582 Graedel Way","cierre":"7:18 PM","apertura":"10:38 AM","tarifa_moto":8443,"tarifa_carro":9467},
{"id":487,"name":"Palm","lat":45.2068153,"lon":73.9309807,"puntuation":2.2,"address":"56760 Reindahl Terrace","cierre":"11:40 PM","apertura":"9:45 AM","tarifa_moto":6588,"tarifa_carro":7819},
{"id":488,"name":"Nero","lat":41.3899483,"lon":-8.3685941,"puntuation":1.8,"address":"4051 Nancy Circle","cierre":"7:42 PM","apertura":"6:29 AM","tarifa_moto":9353,"tarifa_carro":8669},
{"id":489,"name":"Westbrooke","lat":41.5212778,"lon":-8.1366948,"puntuation":2.5,"address":"723 Jenifer Park","cierre":"11:34 PM","apertura":"5:35 AM","tarifa_moto":8032,"tarifa_carro":6935},
{"id":490,"name":"Alfons","lat":49.7769817,"lon":16.9194672,"puntuation":2.6,"address":"15093 Village Green Court","cierre":"9:03 PM","apertura":"10:55 AM","tarifa_moto":6524,"tarifa_carro":7726},
{"id":491,"name":"Jaquelin","lat":44.9829,"lon":128.720857,"puntuation":1.6,"address":"50997 Delladonna Parkway","cierre":"9:50 PM","apertura":"12:21 AM","tarifa_moto":4859,"tarifa_carro":9623},
{"id":492,"name":"Lorianne","lat":-3.4667033,"lon":114.7490673,"puntuation":3.6,"address":"86 Fairfield Street","cierre":"7:34 PM","apertura":"9:40 AM","tarifa_moto":5828,"tarifa_carro":9201},
{"id":493,"name":"Mathias","lat":10.63468,"lon":119.3311089,"puntuation":3.4,"address":"74 Claremont Center","cierre":"9:51 PM","apertura":"11:10 AM","tarifa_moto":9156,"tarifa_carro":9129},
{"id":494,"name":"Sari","lat":37.30636,"lon":90.34176,"puntuation":3.1,"address":"59 Bartelt Park","cierre":"9:59 PM","apertura":"4:29 AM","tarifa_moto":5981,"tarifa_carro":8375},
{"id":495,"name":"Kaile","lat":-6.3077057,"lon":106.7175669,"puntuation":3.7,"address":"7 Talisman Avenue","cierre":"7:38 PM","apertura":"3:40 AM","tarifa_moto":6522,"tarifa_carro":6072},
{"id":496,"name":"Zsa zsa","lat":40.083782,"lon":112.832566,"puntuation":1.3,"address":"68 Arrowood Street","cierre":"9:15 PM","apertura":"1:46 AM","tarifa_moto":9423,"tarifa_carro":8349},
{"id":497,"name":"Erena","lat":30.605585,"lon":91.862132,"puntuation":4.4,"address":"85 Heffernan Street","cierre":"10:35 PM","apertura":"11:58 AM","tarifa_moto":8291,"tarifa_carro":9869},
{"id":498,"name":"Chas","lat":39.903307,"lon":116.649432,"puntuation":1.3,"address":"226 Grim Street","cierre":"8:53 PM","apertura":"10:01 AM","tarifa_moto":9117,"tarifa_carro":6618},
{"id":499,"name":"Lottie","lat":52.746302,"lon":14.7015401,"puntuation":3.2,"address":"1534 Schurz Center","cierre":"9:39 PM","apertura":"9:25 AM","tarifa_moto":4940,"tarifa_carro":8413},
{"id":500,"name":"Hendrik","lat":51.5111902,"lon":16.263731,"puntuation":1.5,"address":"95649 Westport Avenue","cierre":"6:20 PM","apertura":"7:19 AM","tarifa_moto":9597,"tarifa_carro":6574},
{"id":501,"name":"Eden","lat":49.6748894,"lon":12.6736722,"puntuation":3.4,"address":"97570 Prairie Rose Way","cierre":"9:50 PM","apertura":"4:35 AM","tarifa_moto":4402,"tarifa_carro":6003},
{"id":502,"name":"Hobart","lat":45.1181541,"lon":18.6405775,"puntuation":3.4,"address":"1 Morrow Lane","cierre":"7:04 PM","apertura":"6:01 AM","tarifa_moto":5252,"tarifa_carro":7614},
{"id":503,"name":"Danielle","lat":50.1046609,"lon":17.1303468,"puntuation":4.0,"address":"10 2nd Trail","cierre":"8:19 PM","apertura":"6:14 AM","tarifa_moto":6927,"tarifa_carro":8043},
{"id":504,"name":"Corabelle","lat":35.6083867,"lon":140.410859,"puntuation":3.8,"address":"5488 Reindahl Circle","cierre":"10:11 PM","apertura":"8:14 AM","tarifa_moto":4054,"tarifa_carro":6185},
{"id":505,"name":"Adlai","lat":-7.6611598,"lon":109.7976584,"puntuation":2.3,"address":"9610 Esker Terrace","cierre":"7:43 PM","apertura":"5:11 AM","tarifa_moto":5926,"tarifa_carro":6533},
{"id":506,"name":"Kit","lat":-31.4325479,"lon":-64.1305924,"puntuation":4.9,"address":"0493 Schurz Park","cierre":"7:12 PM","apertura":"10:12 AM","tarifa_moto":8955,"tarifa_carro":7573},
{"id":507,"name":"Gerome","lat":29.000347,"lon":101.507294,"puntuation":2.4,"address":"11642 Briar Crest Hill","cierre":"11:26 PM","apertura":"6:28 AM","tarifa_moto":6767,"tarifa_carro":7099},
{"id":508,"name":"Caryl","lat":-6.2194518,"lon":107.2991511,"puntuation":3.3,"address":"95202 Elmside Way","cierre":"7:06 PM","apertura":"3:06 AM","tarifa_moto":6348,"tarifa_carro":9329},
{"id":509,"name":"Euphemia","lat":50.8294542,"lon":19.2859852,"puntuation":3.4,"address":"36 Oxford Road","cierre":"6:09 PM","apertura":"5:19 AM","tarifa_moto":4072,"tarifa_carro":7113},
{"id":510,"name":"Alyda","lat":28.312001,"lon":109.738781,"puntuation":2.9,"address":"035 Donald Alley","cierre":"6:40 PM","apertura":"3:22 AM","tarifa_moto":8401,"tarifa_carro":6309},
{"id":511,"name":"Claiborne","lat":14.5500435,"lon":121.0049116,"puntuation":3.5,"address":"4 Graceland Plaza","cierre":"10:08 PM","apertura":"10:01 AM","tarifa_moto":8758,"tarifa_carro":9661},
{"id":512,"name":"Bernie","lat":22.705124,"lon":113.316811,"puntuation":4.4,"address":"584 Southridge Trail","cierre":"7:59 PM","apertura":"6:00 AM","tarifa_moto":6448,"tarifa_carro":7856},
{"id":513,"name":"Duffy","lat":6.300757,"lon":36.878471,"puntuation":1.8,"address":"7575 Meadow Ridge Plaza","cierre":"11:34 PM","apertura":"3:56 AM","tarifa_moto":6719,"tarifa_carro":8741},
{"id":514,"name":"Gabrila","lat":44.4751299,"lon":34.1479155,"puntuation":4.4,"address":"1143 Commercial Center","cierre":"11:27 PM","apertura":"1:13 AM","tarifa_moto":8553,"tarifa_carro":7897},
{"id":515,"name":"Allis","lat":23.2252,"lon":113.148534,"puntuation":4.8,"address":"594 Buhler Crossing","cierre":"10:18 PM","apertura":"5:21 AM","tarifa_moto":6709,"tarifa_carro":6018},
{"id":516,"name":"Pavlov","lat":31.5140575,"lon":-97.1520926,"puntuation":3.4,"address":"376 Vermont Crossing","cierre":"10:48 PM","apertura":"4:58 AM","tarifa_moto":9704,"tarifa_carro":8245},
{"id":517,"name":"Barbie","lat":44.81291,"lon":123.088238,"puntuation":1.3,"address":"0 Ludington Junction","cierre":"11:14 PM","apertura":"7:38 AM","tarifa_moto":6619,"tarifa_carro":6340},
{"id":518,"name":"Craggie","lat":30.7765271,"lon":121.247793,"puntuation":1.7,"address":"09185 Pankratz Circle","cierre":"9:45 PM","apertura":"8:03 AM","tarifa_moto":8828,"tarifa_carro":6753},
{"id":519,"name":"Thorvald","lat":45.37139,"lon":141.82111,"puntuation":1.8,"address":"654 Dahle Street","cierre":"9:47 PM","apertura":"3:27 AM","tarifa_moto":4339,"tarifa_carro":6915},
{"id":520,"name":"Abeu","lat":44.4103234,"lon":0.7060015,"puntuation":2.0,"address":"29 Ohio Terrace","cierre":"9:06 PM","apertura":"11:37 AM","tarifa_moto":8150,"tarifa_carro":6505},
{"id":521,"name":"Ruprecht","lat":39.5557317,"lon":21.7678951,"puntuation":4.8,"address":"75134 Buena Vista Plaza","cierre":"11:42 PM","apertura":"12:23 AM","tarifa_moto":4581,"tarifa_carro":7221},
{"id":522,"name":"Ashla","lat":48.8952384,"lon":2.238154,"puntuation":4.9,"address":"91404 Nova Point","cierre":"6:21 PM","apertura":"2:08 AM","tarifa_moto":9672,"tarifa_carro":9974},
{"id":523,"name":"Nikolia","lat":-6.308009,"lon":155.477221,"puntuation":4.5,"address":"5144 Pierstorff Hill","cierre":"7:44 PM","apertura":"10:24 AM","tarifa_moto":6669,"tarifa_carro":9620},
{"id":524,"name":"Inglebert","lat":-8.2357,"lon":124.9124,"puntuation":2.8,"address":"0442 Arkansas Center","cierre":"6:30 PM","apertura":"8:50 AM","tarifa_moto":9639,"tarifa_carro":8495},
{"id":525,"name":"Hermy","lat":-0.931556,"lon":-78.60585,"puntuation":3.4,"address":"6 Riverside Center","cierre":"6:41 PM","apertura":"4:38 AM","tarifa_moto":4946,"tarifa_carro":6936},
{"id":526,"name":"Haydon","lat":-7.0987285,"lon":110.8880753,"puntuation":4.4,"address":"48 Cherokee Parkway","cierre":"8:42 PM","apertura":"6:55 AM","tarifa_moto":4218,"tarifa_carro":8728},
{"id":527,"name":"Janna","lat":-22.5905906,"lon":-46.5282973,"puntuation":3.9,"address":"4540 Marcy Drive","cierre":"9:54 PM","apertura":"7:24 AM","tarifa_moto":6540,"tarifa_carro":8012},
{"id":528,"name":"Van","lat":14.155481,"lon":120.92747,"puntuation":1.9,"address":"6602 Butternut Avenue","cierre":"6:24 PM","apertura":"6:30 AM","tarifa_moto":7137,"tarifa_carro":9824},
{"id":529,"name":"Arda","lat":21.5743109,"lon":105.8215718,"puntuation":4.2,"address":"559 Mifflin Trail","cierre":"6:10 PM","apertura":"3:00 AM","tarifa_moto":4329,"tarifa_carro":6653},
{"id":530,"name":"Eduino","lat":43.7400718,"lon":7.4266436,"puntuation":3.8,"address":"293 Express Center","cierre":"8:47 PM","apertura":"7:51 AM","tarifa_moto":6331,"tarifa_carro":7321},
{"id":531,"name":"Erminie","lat":56.854995,"lon":26.2255149,"puntuation":3.6,"address":"0 Forest Dale Center","cierre":"8:25 PM","apertura":"5:55 AM","tarifa_moto":7204,"tarifa_carro":7731},
{"id":532,"name":"Barn","lat":27.582186,"lon":113.358645,"puntuation":1.1,"address":"2681 Village Green Avenue","cierre":"11:43 PM","apertura":"9:49 AM","tarifa_moto":6620,"tarifa_carro":8012},
{"id":533,"name":"Edy","lat":52.4782901,"lon":21.631951,"puntuation":2.6,"address":"08 Fairview Way","cierre":"8:26 PM","apertura":"11:04 AM","tarifa_moto":8210,"tarifa_carro":8889},
{"id":534,"name":"Conrado","lat":33.8640647,"lon":-118.1766294,"puntuation":4.0,"address":"2878 John Wall Junction","cierre":"8:56 PM","apertura":"7:38 AM","tarifa_moto":4350,"tarifa_carro":9561},
{"id":535,"name":"Ingaberg","lat":7.36451,"lon":134.51484,"puntuation":3.6,"address":"5 Dawn Trail","cierre":"11:14 PM","apertura":"4:39 AM","tarifa_moto":5540,"tarifa_carro":9901},
{"id":536,"name":"Gino","lat":48.1288628,"lon":11.5089621,"puntuation":4.0,"address":"5013 Mifflin Court","cierre":"6:05 PM","apertura":"12:59 AM","tarifa_moto":4733,"tarifa_carro":7107},
{"id":537,"name":"Torin","lat":10.2947384,"lon":123.9595164,"puntuation":2.1,"address":"3370 Lakeland Way","cierre":"6:24 PM","apertura":"5:55 AM","tarifa_moto":4511,"tarifa_carro":8083},
{"id":538,"name":"Vonny","lat":38.6052584,"lon":-9.1570572,"puntuation":3.2,"address":"6997 4th Park","cierre":"11:01 PM","apertura":"10:07 AM","tarifa_moto":5343,"tarifa_carro":8146},
{"id":539,"name":"Antonia","lat":34.151624,"lon":109.323479,"puntuation":2.8,"address":"45881 Chinook Terrace","cierre":"9:09 PM","apertura":"9:54 AM","tarifa_moto":7134,"tarifa_carro":9155},
{"id":540,"name":"Giacomo","lat":10.072035,"lon":-73.7007088,"puntuation":4.6,"address":"58588 Sugar Way","cierre":"6:16 PM","apertura":"10:46 AM","tarifa_moto":5792,"tarifa_carro":8969},
{"id":541,"name":"Sly","lat":50.7022235,"lon":3.1685214,"puntuation":4.5,"address":"946 Vermont Place","cierre":"8:06 PM","apertura":"11:44 AM","tarifa_moto":5787,"tarifa_carro":8083},
{"id":542,"name":"Field","lat":-1.8844563,"lon":-48.7655306,"puntuation":3.4,"address":"8559 Surrey Point","cierre":"10:20 PM","apertura":"10:37 AM","tarifa_moto":4120,"tarifa_carro":6299},
{"id":543,"name":"Gabby","lat":38.1164434,"lon":140.8492779,"puntuation":1.5,"address":"78523 Thackeray Plaza","cierre":"9:49 PM","apertura":"3:37 AM","tarifa_moto":7331,"tarifa_carro":7692},
{"id":544,"name":"Malia","lat":46.0313077,"lon":29.9343459,"puntuation":4.3,"address":"5 Sauthoff Place","cierre":"6:40 PM","apertura":"10:05 AM","tarifa_moto":4798,"tarifa_carro":8974},
{"id":545,"name":"Zaria","lat":4.920956,"lon":-75.063129,"puntuation":2.4,"address":"1394 Oak Crossing","cierre":"6:43 PM","apertura":"12:26 AM","tarifa_moto":7060,"tarifa_carro":7546},
{"id":546,"name":"Issiah","lat":-34.7277137,"lon":-58.3326356,"puntuation":1.4,"address":"53 Mallory Circle","cierre":"11:01 PM","apertura":"12:01 AM","tarifa_moto":4143,"tarifa_carro":9671},
{"id":547,"name":"Claudell","lat":46.152911,"lon":-71.885445,"puntuation":3.9,"address":"8858 Northview Road","cierre":"9:27 PM","apertura":"3:10 AM","tarifa_moto":7710,"tarifa_carro":7911},
{"id":548,"name":"Bernetta","lat":38.052038,"lon":114.466022,"puntuation":5.0,"address":"55273 Spenser Circle","cierre":"8:01 PM","apertura":"8:54 AM","tarifa_moto":7037,"tarifa_carro":9593},
{"id":549,"name":"Jillayne","lat":-13.87016,"lon":-73.667793,"puntuation":2.6,"address":"368 Cardinal Way","cierre":"10:42 PM","apertura":"11:22 AM","tarifa_moto":9014,"tarifa_carro":7232},
{"id":550,"name":"Carney","lat":-28.7477963,"lon":-49.4745059,"puntuation":2.4,"address":"2 Bowman Street","cierre":"8:36 PM","apertura":"10:46 AM","tarifa_moto":9273,"tarifa_carro":7986},
{"id":551,"name":"Dane","lat":14.5508865,"lon":121.0075554,"puntuation":2.0,"address":"42862 Arizona Parkway","cierre":"10:53 PM","apertura":"10:55 AM","tarifa_moto":4906,"tarifa_carro":9066},
{"id":552,"name":"Ethel","lat":30.0689467,"lon":103.0991829,"puntuation":3.2,"address":"726 Independence Park","cierre":"7:35 PM","apertura":"6:22 AM","tarifa_moto":7050,"tarifa_carro":7380},
{"id":553,"name":"Essy","lat":32.389131,"lon":35.9362859,"puntuation":2.2,"address":"8456 Commercial Parkway","cierre":"11:31 PM","apertura":"11:53 AM","tarifa_moto":7709,"tarifa_carro":8374},
{"id":554,"name":"Doreen","lat":59.3525393,"lon":18.0191452,"puntuation":3.8,"address":"625 Maryland Circle","cierre":"7:50 PM","apertura":"11:01 AM","tarifa_moto":6341,"tarifa_carro":6666},
{"id":555,"name":"Deva","lat":60.6204071,"lon":25.8776098,"puntuation":2.4,"address":"39 Drewry Junction","cierre":"9:20 PM","apertura":"6:10 AM","tarifa_moto":6986,"tarifa_carro":7369},
{"id":556,"name":"Gregor","lat":46.6511382,"lon":16.0834627,"puntuation":1.8,"address":"0 Springview Road","cierre":"6:52 PM","apertura":"12:29 AM","tarifa_moto":6216,"tarifa_carro":7258},
{"id":557,"name":"Curtis","lat":24.173306,"lon":113.535247,"puntuation":4.1,"address":"504 Eastwood Alley","cierre":"10:42 PM","apertura":"2:20 AM","tarifa_moto":8595,"tarifa_carro":9965},
{"id":558,"name":"Donella","lat":49.1169513,"lon":101.449837,"puntuation":3.6,"address":"033 Weeping Birch Parkway","cierre":"9:01 PM","apertura":"1:30 AM","tarifa_moto":6529,"tarifa_carro":6707},
{"id":559,"name":"Avivah","lat":8.9410756,"lon":-75.4944768,"puntuation":1.2,"address":"01763 Acker Plaza","cierre":"6:40 PM","apertura":"12:38 AM","tarifa_moto":5987,"tarifa_carro":7064},
{"id":560,"name":"Angelina","lat":43.4945737,"lon":5.8978018,"puntuation":4.1,"address":"17 Bashford Street","cierre":"6:09 PM","apertura":"7:39 AM","tarifa_moto":7582,"tarifa_carro":9647},
{"id":561,"name":"Nolly","lat":43.8177168,"lon":4.343135,"puntuation":4.2,"address":"045 Annamark Center","cierre":"7:35 PM","apertura":"1:14 AM","tarifa_moto":9751,"tarifa_carro":7819},
{"id":562,"name":"Melamie","lat":-6.6063841,"lon":106.7617984,"puntuation":1.2,"address":"7827 Ryan Parkway","cierre":"9:40 PM","apertura":"2:00 AM","tarifa_moto":4285,"tarifa_carro":6517},
{"id":563,"name":"Catriona","lat":17.4458367,"lon":121.5250628,"puntuation":2.1,"address":"88878 Walton Park","cierre":"7:44 PM","apertura":"1:23 AM","tarifa_moto":9169,"tarifa_carro":8081},
{"id":564,"name":"Farrel","lat":14.5016958,"lon":121.042743,"puntuation":4.6,"address":"6973 Esker Terrace","cierre":"7:41 PM","apertura":"7:05 AM","tarifa_moto":9178,"tarifa_carro":7669},
{"id":565,"name":"Hope","lat":45.9033267,"lon":4.934624,"puntuation":1.2,"address":"89 Shopko Junction","cierre":"11:37 PM","apertura":"4:52 AM","tarifa_moto":5553,"tarifa_carro":6108},
{"id":566,"name":"Taddeo","lat":47.3362701,"lon":-1.5349069,"puntuation":2.3,"address":"32383 Johnson Street","cierre":"8:10 PM","apertura":"9:23 AM","tarifa_moto":6372,"tarifa_carro":9685},
{"id":567,"name":"Myriam","lat":-9.6099,"lon":119.6237,"puntuation":3.8,"address":"97320 Derek Drive","cierre":"9:44 PM","apertura":"10:36 AM","tarifa_moto":4444,"tarifa_carro":6714},
{"id":568,"name":"Lucky","lat":53.6944002,"lon":17.5569252,"puntuation":4.0,"address":"4938 Mosinee Park","cierre":"10:25 PM","apertura":"10:09 AM","tarifa_moto":4073,"tarifa_carro":9462},
{"id":569,"name":"Tonye","lat":24.094765,"lon":116.00509,"puntuation":2.7,"address":"9587 Gina Parkway","cierre":"8:23 PM","apertura":"4:10 AM","tarifa_moto":8046,"tarifa_carro":8981},
{"id":570,"name":"Benedikt","lat":40.97465,"lon":117.943348,"puntuation":2.5,"address":"0913 Waxwing Street","cierre":"9:01 PM","apertura":"3:44 AM","tarifa_moto":9879,"tarifa_carro":6300},
{"id":571,"name":"Terese","lat":-6.6111441,"lon":106.8473377,"puntuation":4.0,"address":"096 Kim Point","cierre":"11:48 PM","apertura":"1:12 AM","tarifa_moto":8179,"tarifa_carro":9897},
{"id":572,"name":"Wiatt","lat":30.679359,"lon":104.011664,"puntuation":3.0,"address":"17 Vernon Place","cierre":"11:08 PM","apertura":"2:35 AM","tarifa_moto":4748,"tarifa_carro":9533},
{"id":573,"name":"Arluene","lat":30.63963,"lon":114.385538,"puntuation":2.5,"address":"88577 Harbort Plaza","cierre":"7:26 PM","apertura":"10:46 AM","tarifa_moto":6208,"tarifa_carro":6252},
{"id":574,"name":"Luise","lat":54.708952,"lon":135.322998,"puntuation":2.4,"address":"7732 Del Mar Way","cierre":"7:40 PM","apertura":"10:38 AM","tarifa_moto":4190,"tarifa_carro":9782},
{"id":575,"name":"Pavla","lat":49.2609439,"lon":13.3834052,"puntuation":4.8,"address":"56546 Alpine Alley","cierre":"11:04 PM","apertura":"11:14 AM","tarifa_moto":4683,"tarifa_carro":8870},
{"id":576,"name":"Norton","lat":45.05752,"lon":-77.85702,"puntuation":5.0,"address":"9 Wayridge Lane","cierre":"6:30 PM","apertura":"11:58 AM","tarifa_moto":7215,"tarifa_carro":9689},
{"id":577,"name":"Fabien","lat":-20.7175404,"lon":-47.8858187,"puntuation":1.1,"address":"74 Red Cloud Avenue","cierre":"7:29 PM","apertura":"9:29 AM","tarifa_moto":8994,"tarifa_carro":8518},
{"id":578,"name":"Nady","lat":52.83797,"lon":15.83104,"puntuation":1.6,"address":"81842 Schlimgen Junction","cierre":"9:19 PM","apertura":"7:35 AM","tarifa_moto":8479,"tarifa_carro":8482},
{"id":579,"name":"Patience","lat":59.853262,"lon":17.6356163,"puntuation":2.5,"address":"2 Nobel Parkway","cierre":"9:13 PM","apertura":"6:00 AM","tarifa_moto":8639,"tarifa_carro":9569},
{"id":580,"name":"Ellene","lat":36.7904088,"lon":138.7920847,"puntuation":4.4,"address":"10923 Everett Place","cierre":"7:09 PM","apertura":"8:31 AM","tarifa_moto":5155,"tarifa_carro":6952},
{"id":581,"name":"Lanny","lat":-10.0999445,"lon":123.8132141,"puntuation":4.2,"address":"1642 Grasskamp Drive","cierre":"9:22 PM","apertura":"2:13 AM","tarifa_moto":6997,"tarifa_carro":7391},
{"id":582,"name":"Flory","lat":34.746611,"lon":113.625328,"puntuation":4.1,"address":"0313 Melrose Park","cierre":"7:15 PM","apertura":"2:21 AM","tarifa_moto":6851,"tarifa_carro":8714},
{"id":583,"name":"Ivory","lat":-6.1597768,"lon":106.8669252,"puntuation":1.3,"address":"243 Chinook Court","cierre":"11:33 PM","apertura":"6:06 AM","tarifa_moto":9739,"tarifa_carro":8788},
{"id":584,"name":"Timmi","lat":15.58224,"lon":108.11422,"puntuation":1.7,"address":"39904 Straubel Circle","cierre":"7:12 PM","apertura":"1:49 AM","tarifa_moto":8890,"tarifa_carro":8142},
{"id":585,"name":"Shem","lat":5.9840985,"lon":116.0761121,"puntuation":2.8,"address":"15232 Thompson Point","cierre":"6:30 PM","apertura":"4:04 AM","tarifa_moto":9348,"tarifa_carro":9748},
{"id":586,"name":"Roxana","lat":43.0052216,"lon":71.513917,"puntuation":3.0,"address":"2 Emmet Drive","cierre":"11:47 PM","apertura":"6:56 AM","tarifa_moto":7557,"tarifa_carro":8641},
{"id":587,"name":"Gennifer","lat":27.690732,"lon":111.45269,"puntuation":1.0,"address":"9 Waubesa Crossing","cierre":"7:16 PM","apertura":"2:07 AM","tarifa_moto":5261,"tarifa_carro":8064},
{"id":588,"name":"Gustave","lat":17.9092223,"lon":102.220463,"puntuation":1.1,"address":"0111 Pennsylvania Plaza","cierre":"7:45 PM","apertura":"11:49 AM","tarifa_moto":8606,"tarifa_carro":9779},
{"id":589,"name":"Nelson","lat":49.6748894,"lon":12.6736722,"puntuation":2.3,"address":"37 Brown Park","cierre":"9:38 PM","apertura":"9:58 AM","tarifa_moto":6158,"tarifa_carro":9122},
{"id":590,"name":"Meriel","lat":20.1591959,"lon":-100.5064114,"puntuation":4.6,"address":"305 Monterey Road","cierre":"9:14 PM","apertura":"12:27 AM","tarifa_moto":8433,"tarifa_carro":9907},
{"id":591,"name":"Leif","lat":-6.927607,"lon":107.663944,"puntuation":1.2,"address":"248 Vernon Avenue","cierre":"8:48 PM","apertura":"4:31 AM","tarifa_moto":7411,"tarifa_carro":6478},
{"id":592,"name":"Olva","lat":51.5574609,"lon":20.8640191,"puntuation":3.0,"address":"76914 Sugar Drive","cierre":"9:37 PM","apertura":"7:09 AM","tarifa_moto":6646,"tarifa_carro":7173},
{"id":593,"name":"Humfrey","lat":30.63963,"lon":114.385538,"puntuation":3.8,"address":"49 Londonderry Parkway","cierre":"9:41 PM","apertura":"9:21 AM","tarifa_moto":4654,"tarifa_carro":9011},
{"id":594,"name":"Kirby","lat":34.57976,"lon":119.181695,"puntuation":2.1,"address":"6 Calypso Hill","cierre":"8:39 PM","apertura":"4:15 AM","tarifa_moto":7580,"tarifa_carro":9097},
{"id":595,"name":"Gillie","lat":39.244385,"lon":76.499773,"puntuation":1.7,"address":"2086 Lakeland Alley","cierre":"8:15 PM","apertura":"3:22 AM","tarifa_moto":8376,"tarifa_carro":9402},
{"id":596,"name":"Kimmy","lat":-6.7515973,"lon":107.9287898,"puntuation":4.9,"address":"889 Waywood Park","cierre":"9:07 PM","apertura":"6:26 AM","tarifa_moto":5178,"tarifa_carro":6446},
{"id":597,"name":"Danice","lat":-8.2666267,"lon":115.054678,"puntuation":3.6,"address":"552 Marquette Pass","cierre":"7:14 PM","apertura":"8:33 AM","tarifa_moto":6359,"tarifa_carro":6470},
{"id":598,"name":"Rad","lat":30.167585,"lon":120.234391,"puntuation":3.3,"address":"92876 Lotheville Center","cierre":"7:07 PM","apertura":"7:17 AM","tarifa_moto":6114,"tarifa_carro":6409},
{"id":599,"name":"Idelle","lat":10.3696393,"lon":-66.9571026,"puntuation":2.9,"address":"0231 Moose Circle","cierre":"7:45 PM","apertura":"5:02 AM","tarifa_moto":7414,"tarifa_carro":8069},
{"id":600,"name":"Adda","lat":-3.7580937,"lon":102.7942473,"puntuation":4.2,"address":"609 Forest Run Circle","cierre":"8:51 PM","apertura":"8:59 AM","tarifa_moto":8546,"tarifa_carro":7097},
{"id":601,"name":"Ker","lat":24.304673,"lon":113.136459,"puntuation":2.2,"address":"9463 Myrtle Alley","cierre":"6:34 PM","apertura":"1:57 AM","tarifa_moto":6842,"tarifa_carro":8332},
{"id":602,"name":"Fayre","lat":-8.5388252,"lon":115.402367,"puntuation":3.8,"address":"89055 Raven Pass","cierre":"9:23 PM","apertura":"9:23 AM","tarifa_moto":8803,"tarifa_carro":6761},
{"id":603,"name":"Dyanne","lat":23.1639193,"lon":113.3423334,"puntuation":4.2,"address":"6765 Mcguire Road","cierre":"9:06 PM","apertura":"12:22 AM","tarifa_moto":5431,"tarifa_carro":6848},
{"id":604,"name":"Even","lat":13.4326204,"lon":-87.4554432,"puntuation":1.7,"address":"9 Di Loreto Lane","cierre":"8:02 PM","apertura":"8:23 AM","tarifa_moto":6079,"tarifa_carro":6207},
{"id":605,"name":"Deane","lat":7.0024321,"lon":-9.4728244,"puntuation":3.4,"address":"039 Manufacturers Terrace","cierre":"7:50 PM","apertura":"3:57 AM","tarifa_moto":5634,"tarifa_carro":8815},
{"id":606,"name":"Danita","lat":34.90994,"lon":109.73445,"puntuation":3.7,"address":"12 Melrose Parkway","cierre":"7:29 PM","apertura":"10:53 AM","tarifa_moto":9740,"tarifa_carro":6485},
{"id":607,"name":"Bengt","lat":39.2097706,"lon":54.594037,"puntuation":4.8,"address":"5 Old Shore Pass","cierre":"7:58 PM","apertura":"6:16 AM","tarifa_moto":5231,"tarifa_carro":6641},
{"id":608,"name":"Brian","lat":30.7242628,"lon":114.1264237,"puntuation":3.8,"address":"4 Jackson Street","cierre":"10:33 PM","apertura":"12:43 AM","tarifa_moto":9784,"tarifa_carro":8138},
{"id":609,"name":"Guilbert","lat":21.241735,"lon":-77.8267218,"puntuation":1.7,"address":"70 Lillian Point","cierre":"7:39 PM","apertura":"2:52 AM","tarifa_moto":8307,"tarifa_carro":6727},
{"id":610,"name":"Sherrie","lat":5.4829423,"lon":-74.4604064,"puntuation":1.1,"address":"831 Buena Vista Junction","cierre":"7:15 PM","apertura":"4:14 AM","tarifa_moto":7656,"tarifa_carro":6253},
{"id":611,"name":"Bernetta","lat":32.601214,"lon":119.17604,"puntuation":4.3,"address":"7 Nova Alley","cierre":"8:14 PM","apertura":"4:13 AM","tarifa_moto":7044,"tarifa_carro":6201},
{"id":612,"name":"Bran","lat":36.776357,"lon":119.98842,"puntuation":4.2,"address":"960 Sunfield Plaza","cierre":"8:50 PM","apertura":"11:17 AM","tarifa_moto":4806,"tarifa_carro":9042},
{"id":613,"name":"Maximilian","lat":46.7593351,"lon":103.5184746,"puntuation":3.5,"address":"5 Jenifer Parkway","cierre":"6:43 PM","apertura":"7:04 AM","tarifa_moto":6669,"tarifa_carro":6725},
{"id":614,"name":"Normy","lat":36.99252,"lon":66.29654,"puntuation":1.8,"address":"299 Heffernan Junction","cierre":"6:12 PM","apertura":"10:12 AM","tarifa_moto":6025,"tarifa_carro":8741},
{"id":615,"name":"Oswell","lat":10.7540279,"lon":106.6633746,"puntuation":4.1,"address":"7 Artisan Drive","cierre":"9:34 PM","apertura":"8:34 AM","tarifa_moto":8337,"tarifa_carro":9145},
{"id":616,"name":"Bond","lat":22.884044,"lon":112.145432,"puntuation":2.5,"address":"714 Barby Way","cierre":"8:01 PM","apertura":"12:32 AM","tarifa_moto":4258,"tarifa_carro":8658},
{"id":617,"name":"Nissa","lat":39.886388,"lon":115.791592,"puntuation":3.9,"address":"55848 Menomonie Drive","cierre":"7:26 PM","apertura":"1:22 AM","tarifa_moto":9851,"tarifa_carro":7879},
{"id":618,"name":"Alvan","lat":48.9234517,"lon":23.4793196,"puntuation":1.1,"address":"8 Ryan Crossing","cierre":"11:57 PM","apertura":"10:11 AM","tarifa_moto":7264,"tarifa_carro":8938},
{"id":619,"name":"Saunders","lat":-18.4315276,"lon":-39.9322068,"puntuation":4.2,"address":"07 Pepper Wood Pass","cierre":"11:04 PM","apertura":"10:10 AM","tarifa_moto":4072,"tarifa_carro":6407},
{"id":620,"name":"Kate","lat":49.75018,"lon":-77.63277,"puntuation":3.4,"address":"234 Magdeline Circle","cierre":"10:24 PM","apertura":"2:08 AM","tarifa_moto":8604,"tarifa_carro":6482},
{"id":621,"name":"Clea","lat":34.746611,"lon":113.625328,"puntuation":3.4,"address":"53319 Goodland Lane","cierre":"11:21 PM","apertura":"2:20 AM","tarifa_moto":9906,"tarifa_carro":8017},
{"id":622,"name":"Manny","lat":14.661167,"lon":107.83885,"puntuation":1.9,"address":"8592 Jackson Parkway","cierre":"9:00 PM","apertura":"2:34 AM","tarifa_moto":7255,"tarifa_carro":8695},
{"id":623,"name":"Pippo","lat":47.620391,"lon":7.243036,"puntuation":2.6,"address":"677 Rieder Point","cierre":"10:54 PM","apertura":"8:18 AM","tarifa_moto":8366,"tarifa_carro":6802},
{"id":624,"name":"Nana","lat":36.5122781,"lon":36.8653891,"puntuation":3.6,"address":"878 Mendota Drive","cierre":"7:56 PM","apertura":"9:02 AM","tarifa_moto":7732,"tarifa_carro":9800},
{"id":625,"name":"Neely","lat":-8.1545561,"lon":113.1981987,"puntuation":1.3,"address":"8023 Grim Park","cierre":"10:32 PM","apertura":"6:49 AM","tarifa_moto":6386,"tarifa_carro":9550},
{"id":626,"name":"Estel","lat":50.87526,"lon":18.41472,"puntuation":3.3,"address":"754 Morrow Court","cierre":"7:52 PM","apertura":"7:19 AM","tarifa_moto":4903,"tarifa_carro":6391},
{"id":627,"name":"Sarine","lat":55.6427846,"lon":38.008554,"puntuation":3.4,"address":"10190 Dovetail Trail","cierre":"8:11 PM","apertura":"9:54 AM","tarifa_moto":5672,"tarifa_carro":9663},
{"id":628,"name":"Anestassia","lat":32.34977,"lon":-80.67895,"puntuation":2.8,"address":"3041 Merchant Junction","cierre":"6:45 PM","apertura":"10:01 AM","tarifa_moto":4984,"tarifa_carro":7746},
{"id":629,"name":"Richart","lat":3.2572094,"lon":-77.2864879,"puntuation":3.2,"address":"4390 Maple Road","cierre":"11:30 PM","apertura":"9:50 AM","tarifa_moto":4889,"tarifa_carro":8070},
{"id":630,"name":"Carmen","lat":0.6793997,"lon":-77.355413,"puntuation":3.9,"address":"11664 Caliangt Lane","cierre":"8:09 PM","apertura":"6:41 AM","tarifa_moto":7917,"tarifa_carro":9252},
{"id":631,"name":"Thoma","lat":10.0698222,"lon":124.5514906,"puntuation":1.7,"address":"37 Little Fleur Pass","cierre":"7:50 PM","apertura":"6:07 AM","tarifa_moto":8202,"tarifa_carro":8222},
{"id":632,"name":"Cobb","lat":39.9149407,"lon":-8.350634,"puntuation":2.3,"address":"0578 Florence Plaza","cierre":"8:01 PM","apertura":"4:46 AM","tarifa_moto":9171,"tarifa_carro":8758},
{"id":633,"name":"Riley","lat":53.3004898,"lon":-6.2634596,"puntuation":4.3,"address":"56497 Spaight Park","cierre":"11:57 PM","apertura":"9:14 AM","tarifa_moto":9760,"tarifa_carro":9952},
{"id":634,"name":"Amity","lat":50.1191335,"lon":14.0734646,"puntuation":4.0,"address":"58 Maryland Road","cierre":"9:49 PM","apertura":"5:20 AM","tarifa_moto":9456,"tarifa_carro":7986},
{"id":635,"name":"Lura","lat":-21.7567077,"lon":-48.8323618,"puntuation":3.7,"address":"8177 Arkansas Place","cierre":"11:34 PM","apertura":"1:10 AM","tarifa_moto":6447,"tarifa_carro":7769},
{"id":636,"name":"Garth","lat":46.277611,"lon":41.756863,"puntuation":1.7,"address":"5 Karstens Plaza","cierre":"9:36 PM","apertura":"11:29 AM","tarifa_moto":7057,"tarifa_carro":8623},
{"id":637,"name":"Ramsey","lat":6.8928179,"lon":125.1635402,"puntuation":4.4,"address":"9849 Hanover Point","cierre":"8:12 PM","apertura":"4:15 AM","tarifa_moto":8509,"tarifa_carro":7799},
{"id":638,"name":"Wilmette","lat":-6.9876,"lon":112.7875,"puntuation":4.3,"address":"7 Susan Point","cierre":"7:11 PM","apertura":"11:48 AM","tarifa_moto":5821,"tarifa_carro":9748},
{"id":639,"name":"Florence","lat":10.9318486,"lon":124.0280263,"puntuation":4.5,"address":"1162 Homewood Court","cierre":"10:44 PM","apertura":"10:29 AM","tarifa_moto":9497,"tarifa_carro":7973},
{"id":640,"name":"Kittie","lat":36.7243344,"lon":71.6131931,"puntuation":1.4,"address":"781 Corscot Place","cierre":"11:52 PM","apertura":"1:55 AM","tarifa_moto":8213,"tarifa_carro":8817},
{"id":641,"name":"Charo","lat":60.4609132,"lon":25.0250415,"puntuation":3.8,"address":"3508 Oxford Junction","cierre":"7:33 PM","apertura":"3:28 AM","tarifa_moto":9237,"tarifa_carro":9249},
{"id":642,"name":"Nessy","lat":-7.2881839,"lon":112.8165095,"puntuation":4.6,"address":"202 Di Loreto Alley","cierre":"6:42 PM","apertura":"2:32 AM","tarifa_moto":9966,"tarifa_carro":6040},
{"id":643,"name":"Bobina","lat":23.918143,"lon":108.401654,"puntuation":4.7,"address":"0 Center Junction","cierre":"10:16 PM","apertura":"3:54 AM","tarifa_moto":5656,"tarifa_carro":8335},
{"id":644,"name":"Clyve","lat":13.5201065,"lon":123.1985807,"puntuation":3.3,"address":"73209 Kenwood Drive","cierre":"6:26 PM","apertura":"8:41 AM","tarifa_moto":9570,"tarifa_carro":7554},
{"id":645,"name":"Merrily","lat":-6.598,"lon":106.2248,"puntuation":2.6,"address":"0344 Mcguire Center","cierre":"11:52 PM","apertura":"5:26 AM","tarifa_moto":4489,"tarifa_carro":8201},
{"id":646,"name":"Elayne","lat":14.6297081,"lon":-90.9181849,"puntuation":4.4,"address":"3216 Hallows Road","cierre":"10:25 PM","apertura":"5:18 AM","tarifa_moto":5323,"tarifa_carro":9991},
{"id":647,"name":"Madlen","lat":-18.8791902,"lon":47.5079055,"puntuation":3.4,"address":"33 Warner Way","cierre":"10:52 PM","apertura":"6:17 AM","tarifa_moto":5571,"tarifa_carro":6948},
{"id":648,"name":"Shawn","lat":53.4148582,"lon":-7.9027266,"puntuation":3.8,"address":"99 East Lane","cierre":"8:09 PM","apertura":"6:58 AM","tarifa_moto":5971,"tarifa_carro":7618},
{"id":649,"name":"Mallissa","lat":38.2509637,"lon":23.6954977,"puntuation":2.7,"address":"3189 Longview Road","cierre":"7:23 PM","apertura":"5:56 AM","tarifa_moto":5867,"tarifa_carro":9633},
{"id":650,"name":"Leonora","lat":31.232225,"lon":121.289253,"puntuation":2.1,"address":"6 High Crossing Road","cierre":"10:05 PM","apertura":"7:45 AM","tarifa_moto":7204,"tarifa_carro":9516},
{"id":651,"name":"Tadio","lat":19.2996147,"lon":-81.1099536,"puntuation":1.0,"address":"1928 3rd Drive","cierre":"7:36 PM","apertura":"2:13 AM","tarifa_moto":7430,"tarifa_carro":7077},
{"id":652,"name":"Korry","lat":41.0924488,"lon":-7.5927209,"puntuation":3.3,"address":"58260 Lunder Road","cierre":"6:00 PM","apertura":"8:33 AM","tarifa_moto":9496,"tarifa_carro":7422},
{"id":653,"name":"Welsh","lat":48.4811908,"lon":31.5431206,"puntuation":3.9,"address":"64 Erie Place","cierre":"11:45 PM","apertura":"1:47 AM","tarifa_moto":9074,"tarifa_carro":9851},
{"id":654,"name":"Elston","lat":-17.3013059,"lon":31.3198491,"puntuation":2.7,"address":"6 Glacier Hill Way","cierre":"10:01 PM","apertura":"9:24 AM","tarifa_moto":4231,"tarifa_carro":7425},
{"id":655,"name":"Gabie","lat":5.623505,"lon":10.2544044,"puntuation":4.3,"address":"895 Glacier Hill Circle","cierre":"10:07 PM","apertura":"9:34 AM","tarifa_moto":5495,"tarifa_carro":9849},
{"id":656,"name":"Brett","lat":13.1789151,"lon":123.7396635,"puntuation":2.9,"address":"34 Nobel Place","cierre":"6:58 PM","apertura":"2:33 AM","tarifa_moto":8167,"tarifa_carro":9348},
{"id":657,"name":"Ashton","lat":39.6476577,"lon":-104.9984484,"puntuation":2.6,"address":"36 Novick Place","cierre":"11:42 PM","apertura":"5:03 AM","tarifa_moto":8157,"tarifa_carro":9481},
{"id":658,"name":"Garald","lat":42.26667,"lon":24.55,"puntuation":3.6,"address":"2973 Summer Ridge Trail","cierre":"8:02 PM","apertura":"3:25 AM","tarifa_moto":9777,"tarifa_carro":7090},
{"id":659,"name":"Peria","lat":41.0787184,"lon":-7.435408,"puntuation":4.7,"address":"2125 Nova Crossing","cierre":"7:57 PM","apertura":"10:09 AM","tarifa_moto":6444,"tarifa_carro":7172},
{"id":660,"name":"Rhonda","lat":2.100305,"lon":101.642899,"puntuation":1.9,"address":"5362 Warrior Parkway","cierre":"7:50 PM","apertura":"7:11 AM","tarifa_moto":4923,"tarifa_carro":6117},
{"id":661,"name":"Tabina","lat":30.943659,"lon":120.934925,"puntuation":3.4,"address":"8 Jana Park","cierre":"8:28 PM","apertura":"4:59 AM","tarifa_moto":9049,"tarifa_carro":9605},
{"id":662,"name":"Jack","lat":40.4832736,"lon":44.3852966,"puntuation":2.9,"address":"7085 Judy Center","cierre":"6:36 PM","apertura":"11:33 AM","tarifa_moto":6782,"tarifa_carro":7143},
{"id":663,"name":"Paco","lat":46.2280625,"lon":14.666088,"puntuation":1.1,"address":"9732 Mayer Park","cierre":"7:25 PM","apertura":"11:50 AM","tarifa_moto":9285,"tarifa_carro":7392},
{"id":664,"name":"Genia","lat":19.3579802,"lon":-99.0806088,"puntuation":2.8,"address":"421 Service Road","cierre":"8:37 PM","apertura":"5:06 AM","tarifa_moto":8177,"tarifa_carro":8338},
{"id":665,"name":"Ev","lat":44.7733293,"lon":19.734522,"puntuation":1.6,"address":"23 Donald Alley","cierre":"6:39 PM","apertura":"4:02 AM","tarifa_moto":8254,"tarifa_carro":9677},
{"id":666,"name":"Cyb","lat":41.3893716,"lon":19.8268842,"puntuation":2.8,"address":"13577 Grayhawk Pass","cierre":"9:26 PM","apertura":"2:50 AM","tarifa_moto":6168,"tarifa_carro":8403},
{"id":667,"name":"Rora","lat":58.4962577,"lon":13.1652415,"puntuation":3.3,"address":"28 Redwing Road","cierre":"8:49 PM","apertura":"1:29 AM","tarifa_moto":9778,"tarifa_carro":8025},
{"id":668,"name":"Jory","lat":40.6335639,"lon":20.5885853,"puntuation":1.1,"address":"7 Dayton Point","cierre":"11:40 PM","apertura":"2:36 AM","tarifa_moto":5263,"tarifa_carro":7873},
{"id":669,"name":"Pearla","lat":-14.8503277,"lon":-40.844989,"puntuation":4.3,"address":"07 Kings Trail","cierre":"11:47 PM","apertura":"11:31 AM","tarifa_moto":8608,"tarifa_carro":8989},
{"id":670,"name":"Keri","lat":42.0595836,"lon":123.4808607,"puntuation":1.7,"address":"3 Melrose Way","cierre":"7:40 PM","apertura":"1:55 AM","tarifa_moto":9384,"tarifa_carro":8675},
{"id":671,"name":"Libbey","lat":56.3103675,"lon":38.1016955,"puntuation":2.5,"address":"00 3rd Street","cierre":"10:52 PM","apertura":"9:28 AM","tarifa_moto":9463,"tarifa_carro":8610},
{"id":672,"name":"Ardelia","lat":22.656408,"lon":114.019351,"puntuation":3.5,"address":"803 Talmadge Court","cierre":"10:11 PM","apertura":"5:11 AM","tarifa_moto":6774,"tarifa_carro":9478},
{"id":673,"name":"Errol","lat":40.3281802,"lon":49.7355969,"puntuation":3.4,"address":"15 Banding Hill","cierre":"6:53 PM","apertura":"1:21 AM","tarifa_moto":4851,"tarifa_carro":6228},
{"id":674,"name":"Chloette","lat":57.5788645,"lon":12.1079009,"puntuation":2.2,"address":"2334 Kropf Parkway","cierre":"10:59 PM","apertura":"3:17 AM","tarifa_moto":7820,"tarifa_carro":8209},
{"id":675,"name":"Marisa","lat":45.508348,"lon":14.9089902,"puntuation":1.2,"address":"3068 Manley Plaza","cierre":"10:52 PM","apertura":"3:44 AM","tarifa_moto":9033,"tarifa_carro":6702},
{"id":676,"name":"Candie","lat":35.2531076,"lon":58.2890043,"puntuation":1.9,"address":"39261 Eagan Terrace","cierre":"7:05 PM","apertura":"1:09 AM","tarifa_moto":9500,"tarifa_carro":6695},
{"id":677,"name":"Dagny","lat":38.226652,"lon":115.510218,"puntuation":2.3,"address":"7310 Kings Plaza","cierre":"11:40 PM","apertura":"3:55 AM","tarifa_moto":8415,"tarifa_carro":8799},
{"id":678,"name":"Henri","lat":16.25652,"lon":43.85476,"puntuation":3.4,"address":"5959 Sundown Street","cierre":"10:12 PM","apertura":"11:18 AM","tarifa_moto":5534,"tarifa_carro":8473},
{"id":679,"name":"Vallie","lat":4.21668,"lon":96.0662,"puntuation":2.6,"address":"21987 Golf Hill","cierre":"10:58 PM","apertura":"7:16 AM","tarifa_moto":8925,"tarifa_carro":9991},
{"id":680,"name":"Ashbey","lat":-29.4478273,"lon":31.2182778,"puntuation":1.1,"address":"01 Burning Wood Park","cierre":"8:58 PM","apertura":"8:48 AM","tarifa_moto":9849,"tarifa_carro":7205},
{"id":681,"name":"Athene","lat":16.25652,"lon":43.85476,"puntuation":4.2,"address":"230 Evergreen Junction","cierre":"10:36 PM","apertura":"10:46 AM","tarifa_moto":7399,"tarifa_carro":6394},
{"id":682,"name":"Suzi","lat":-10.7385515,"lon":39.5691841,"puntuation":4.4,"address":"7723 Thierer Way","cierre":"7:09 PM","apertura":"11:19 AM","tarifa_moto":5096,"tarifa_carro":6001},
{"id":683,"name":"Giacinta","lat":3.957378,"lon":126.679524,"puntuation":1.4,"address":"7 Scott Center","cierre":"7:21 PM","apertura":"8:35 AM","tarifa_moto":7606,"tarifa_carro":7145},
{"id":684,"name":"Ynes","lat":-31.5720128,"lon":28.7649835,"puntuation":2.9,"address":"39891 Sauthoff Avenue","cierre":"6:24 PM","apertura":"6:35 AM","tarifa_moto":7012,"tarifa_carro":6449},
{"id":685,"name":"Valentina","lat":49.757244,"lon":22.2174725,"puntuation":4.9,"address":"6 Badeau Plaza","cierre":"7:30 PM","apertura":"1:52 AM","tarifa_moto":5520,"tarifa_carro":7225},
{"id":686,"name":"Vivian","lat":25.991991,"lon":119.368971,"puntuation":1.7,"address":"782 Dawn Road","cierre":"10:47 PM","apertura":"5:55 AM","tarifa_moto":6572,"tarifa_carro":9473},
{"id":687,"name":"Adella","lat":-34.8435213,"lon":-58.6516777,"puntuation":4.9,"address":"6856 Scott Road","cierre":"8:20 PM","apertura":"11:14 AM","tarifa_moto":5979,"tarifa_carro":8611},
{"id":688,"name":"Kristyn","lat":59.903525,"lon":32.3469693,"puntuation":3.4,"address":"38393 8th Terrace","cierre":"10:23 PM","apertura":"5:14 AM","tarifa_moto":6954,"tarifa_carro":8555},
{"id":689,"name":"Constantin","lat":9.0039801,"lon":-75.3645369,"puntuation":4.5,"address":"48 Vermont Drive","cierre":"8:35 PM","apertura":"7:45 AM","tarifa_moto":8547,"tarifa_carro":7735},
{"id":690,"name":"Orrin","lat":14.4403155,"lon":100.383479,"puntuation":2.3,"address":"49 Petterle Park","cierre":"8:36 PM","apertura":"3:05 AM","tarifa_moto":4967,"tarifa_carro":7684},
{"id":691,"name":"Artus","lat":31.2303904,"lon":121.4737021,"puntuation":3.1,"address":"74036 Fremont Plaza","cierre":"6:11 PM","apertura":"2:19 AM","tarifa_moto":7636,"tarifa_carro":9387},
{"id":692,"name":"Haydon","lat":48.6057111,"lon":101.9343734,"puntuation":3.3,"address":"1 Longview Street","cierre":"11:23 PM","apertura":"7:22 AM","tarifa_moto":8470,"tarifa_carro":7485},
{"id":693,"name":"Kali","lat":41.1062224,"lon":-7.3199429,"puntuation":1.0,"address":"4 Mesta Center","cierre":"11:22 PM","apertura":"11:51 AM","tarifa_moto":7451,"tarifa_carro":6062},
{"id":694,"name":"Drew","lat":30.3619359,"lon":51.1611537,"puntuation":4.8,"address":"97 Scofield Pass","cierre":"11:31 PM","apertura":"5:26 AM","tarifa_moto":5680,"tarifa_carro":8768},
{"id":695,"name":"Joellyn","lat":59.3917649,"lon":15.8447572,"puntuation":4.2,"address":"13 Sheridan Park","cierre":"9:54 PM","apertura":"5:33 AM","tarifa_moto":7603,"tarifa_carro":9666},
{"id":696,"name":"Nadine","lat":10.1814384,"lon":-70.073769,"puntuation":3.3,"address":"53 Colorado Park","cierre":"9:01 PM","apertura":"5:20 AM","tarifa_moto":8398,"tarifa_carro":7005},
{"id":697,"name":"Stanleigh","lat":-6.205673,"lon":106.3081194,"puntuation":5.0,"address":"193 Badeau Court","cierre":"11:41 PM","apertura":"11:31 AM","tarifa_moto":5887,"tarifa_carro":8608},
{"id":698,"name":"Hakim","lat":43.5958543,"lon":5.1190026,"puntuation":4.4,"address":"513 Bunker Hill Circle","cierre":"8:22 PM","apertura":"7:03 AM","tarifa_moto":4217,"tarifa_carro":8836},
{"id":699,"name":"Briny","lat":46.2280625,"lon":14.666088,"puntuation":3.5,"address":"1622 Kropf Circle","cierre":"9:05 PM","apertura":"6:28 AM","tarifa_moto":5594,"tarifa_carro":7680},
{"id":700,"name":"Randene","lat":37.083896,"lon":55.1706992,"puntuation":2.0,"address":"4381 Springview Drive","cierre":"6:43 PM","apertura":"10:10 AM","tarifa_moto":9907,"tarifa_carro":7167},
{"id":701,"name":"Fancy","lat":15.0365207,"lon":-86.8195237,"puntuation":1.3,"address":"61 Saint Paul Junction","cierre":"10:52 PM","apertura":"11:53 AM","tarifa_moto":4371,"tarifa_carro":9038},
{"id":702,"name":"Luce","lat":38.1678374,"lon":-8.1496483,"puntuation":4.1,"address":"45 Moland Plaza","cierre":"8:20 PM","apertura":"11:47 AM","tarifa_moto":9238,"tarifa_carro":8228},
{"id":703,"name":"Ilario","lat":25.606486,"lon":100.267638,"puntuation":4.6,"address":"28002 Paget Junction","cierre":"6:53 PM","apertura":"9:04 AM","tarifa_moto":6537,"tarifa_carro":7664},
{"id":704,"name":"Katharine","lat":-13.2026069,"lon":49.0514094,"puntuation":3.9,"address":"3906 Meadow Ridge Way","cierre":"9:03 PM","apertura":"9:21 AM","tarifa_moto":6134,"tarifa_carro":6524},
{"id":705,"name":"Venita","lat":26.3940283,"lon":111.2940501,"puntuation":1.4,"address":"46762 Daystar Drive","cierre":"11:17 PM","apertura":"6:39 AM","tarifa_moto":6247,"tarifa_carro":6562},
{"id":706,"name":"Ediva","lat":37.3218778,"lon":126.8308848,"puntuation":2.5,"address":"439 Oriole Way","cierre":"9:00 PM","apertura":"12:24 AM","tarifa_moto":6505,"tarifa_carro":6087},
{"id":707,"name":"Shandee","lat":46.5214145,"lon":14.8523952,"puntuation":3.2,"address":"0277 Coleman Place","cierre":"8:55 PM","apertura":"9:33 AM","tarifa_moto":4791,"tarifa_carro":9468},
{"id":708,"name":"Micah","lat":27.569678,"lon":116.63704,"puntuation":4.0,"address":"40503 Prairie Rose Crossing","cierre":"9:27 PM","apertura":"11:05 AM","tarifa_moto":6158,"tarifa_carro":9259},
{"id":709,"name":"Wilona","lat":35.440708,"lon":117.09616,"puntuation":1.8,"address":"5869 Shoshone Center","cierre":"7:06 PM","apertura":"6:39 AM","tarifa_moto":4503,"tarifa_carro":7656},
{"id":710,"name":"Demetre","lat":41.6434293,"lon":42.9934449,"puntuation":3.7,"address":"6802 Brentwood Point","cierre":"11:18 PM","apertura":"11:44 AM","tarifa_moto":9338,"tarifa_carro":6455},
{"id":711,"name":"Ingra","lat":43.4595044,"lon":39.9310272,"puntuation":4.8,"address":"9 Anthes Pass","cierre":"7:32 PM","apertura":"7:51 AM","tarifa_moto":8112,"tarifa_carro":7596},
{"id":712,"name":"Lyssa","lat":-7.6387228,"lon":111.0460407,"puntuation":3.8,"address":"83 Grayhawk Point","cierre":"9:56 PM","apertura":"6:12 AM","tarifa_moto":5415,"tarifa_carro":8617},
{"id":713,"name":"Zarah","lat":35.8896981,"lon":139.7894017,"puntuation":1.5,"address":"37 6th Alley","cierre":"11:33 PM","apertura":"12:46 AM","tarifa_moto":7834,"tarifa_carro":6994},
{"id":714,"name":"Berrie","lat":-17.7765356,"lon":177.4356227,"puntuation":1.5,"address":"80864 Buhler Junction","cierre":"8:58 PM","apertura":"4:33 AM","tarifa_moto":4215,"tarifa_carro":9447},
{"id":715,"name":"Luciana","lat":32.3324642,"lon":-111.2129616,"puntuation":3.9,"address":"06953 Ilene Park","cierre":"7:35 PM","apertura":"12:05 AM","tarifa_moto":4403,"tarifa_carro":9813},
{"id":716,"name":"Gerrie","lat":37.760365,"lon":-25.7013016,"puntuation":4.1,"address":"4751 Evergreen Trail","cierre":"10:16 PM","apertura":"9:27 AM","tarifa_moto":6111,"tarifa_carro":7137},
{"id":717,"name":"Aile","lat":23.9563274,"lon":113.1916737,"puntuation":4.6,"address":"2 Stone Corner Circle","cierre":"11:55 PM","apertura":"9:05 AM","tarifa_moto":9679,"tarifa_carro":8256},
{"id":718,"name":"Lindi","lat":10.9840928,"lon":8.060158,"puntuation":3.0,"address":"0 Carioca Lane","cierre":"8:09 PM","apertura":"7:51 AM","tarifa_moto":9333,"tarifa_carro":6126},
{"id":719,"name":"Maurine","lat":48.73934,"lon":7.3660499,"puntuation":3.9,"address":"4164 Del Sol Park","cierre":"6:22 PM","apertura":"10:56 AM","tarifa_moto":6634,"tarifa_carro":6774},
{"id":720,"name":"Morganne","lat":-6.9996952,"lon":112.4142453,"puntuation":4.1,"address":"1 Nancy Pass","cierre":"10:14 PM","apertura":"5:57 AM","tarifa_moto":4660,"tarifa_carro":8656},
{"id":721,"name":"Donalt","lat":65.9338,"lon":111.4834,"puntuation":3.0,"address":"14117 Dapin Plaza","cierre":"9:53 PM","apertura":"6:48 AM","tarifa_moto":8351,"tarifa_carro":9317},
{"id":722,"name":"Elli","lat":54.9143664,"lon":23.9093143,"puntuation":3.6,"address":"26 Goodland Plaza","cierre":"8:03 PM","apertura":"1:41 AM","tarifa_moto":8332,"tarifa_carro":7480},
{"id":723,"name":"Cassandre","lat":22.5408317,"lon":-73.8948295,"puntuation":1.0,"address":"92 Johnson Road","cierre":"7:37 PM","apertura":"6:25 AM","tarifa_moto":7634,"tarifa_carro":8744},
{"id":724,"name":"Lonny","lat":12.8603014,"lon":101.5361726,"puntuation":2.1,"address":"84 Loeprich Circle","cierre":"7:58 PM","apertura":"5:31 AM","tarifa_moto":6181,"tarifa_carro":6152},
{"id":725,"name":"Valentin","lat":14.7299584,"lon":121.050452,"puntuation":1.1,"address":"52 Meadow Vale Junction","cierre":"11:44 PM","apertura":"9:03 AM","tarifa_moto":6135,"tarifa_carro":6739},
{"id":726,"name":"Oren","lat":-9.7780409,"lon":124.6524669,"puntuation":2.9,"address":"49882 Onsgard Court","cierre":"7:24 PM","apertura":"12:09 AM","tarifa_moto":5009,"tarifa_carro":9023},
{"id":727,"name":"Marcelo","lat":31.239878,"lon":121.499673,"puntuation":3.6,"address":"8 Everett Way","cierre":"6:01 PM","apertura":"3:31 AM","tarifa_moto":4535,"tarifa_carro":7975},
{"id":728,"name":"Orren","lat":19.4511496,"lon":-72.6801576,"puntuation":4.0,"address":"85043 Norway Maple Avenue","cierre":"11:32 PM","apertura":"10:05 AM","tarifa_moto":9341,"tarifa_carro":9395},
{"id":729,"name":"Piper","lat":48.8048649,"lon":2.1203554,"puntuation":1.2,"address":"28 2nd Drive","cierre":"7:31 PM","apertura":"1:21 AM","tarifa_moto":8474,"tarifa_carro":8781},
{"id":730,"name":"Delphine","lat":40.479895,"lon":123.170569,"puntuation":2.3,"address":"23481 Chive Pass","cierre":"11:48 PM","apertura":"3:15 AM","tarifa_moto":6188,"tarifa_carro":6534},
{"id":731,"name":"Adorne","lat":24.370937,"lon":117.925685,"puntuation":2.7,"address":"440 Killdeer Court","cierre":"9:29 PM","apertura":"1:20 AM","tarifa_moto":4047,"tarifa_carro":8235},
{"id":732,"name":"Farris","lat":40.9331541,"lon":72.9814877,"puntuation":3.5,"address":"7254 Esker Point","cierre":"11:22 PM","apertura":"6:57 AM","tarifa_moto":5727,"tarifa_carro":8895},
{"id":733,"name":"Irena","lat":-6.2624908,"lon":106.1713267,"puntuation":3.5,"address":"330 Eagle Crest Crossing","cierre":"8:13 PM","apertura":"8:36 AM","tarifa_moto":7688,"tarifa_carro":6874},
{"id":734,"name":"Emlynn","lat":37.2425649,"lon":111.8568586,"puntuation":4.6,"address":"871 Lyons Way","cierre":"7:59 PM","apertura":"5:04 AM","tarifa_moto":8935,"tarifa_carro":8898},
{"id":735,"name":"Demetra","lat":-15.7304,"lon":-71.5251,"puntuation":1.5,"address":"35599 Carpenter Alley","cierre":"8:55 PM","apertura":"1:41 AM","tarifa_moto":5568,"tarifa_carro":9821},
{"id":736,"name":"Levy","lat":43.7454199,"lon":44.6830668,"puntuation":2.2,"address":"83 Green Ridge Road","cierre":"8:46 PM","apertura":"12:05 AM","tarifa_moto":6296,"tarifa_carro":7919},
{"id":737,"name":"Di","lat":51.5267946,"lon":-0.0983812,"puntuation":3.6,"address":"5 Moland Point","cierre":"10:32 PM","apertura":"3:52 AM","tarifa_moto":6883,"tarifa_carro":7861},
{"id":738,"name":"Lurlene","lat":-29.6509722,"lon":-50.7757844,"puntuation":1.4,"address":"5 Melody Lane","cierre":"10:15 PM","apertura":"10:52 AM","tarifa_moto":9660,"tarifa_carro":7898},
{"id":739,"name":"Si","lat":30.89205,"lon":121.770149,"puntuation":2.1,"address":"0895 Summerview Junction","cierre":"6:33 PM","apertura":"4:22 AM","tarifa_moto":7913,"tarifa_carro":9576},
{"id":740,"name":"Joyan","lat":-19.7667781,"lon":-43.0343237,"puntuation":4.2,"address":"86146 Sommers Trail","cierre":"10:58 PM","apertura":"5:06 AM","tarifa_moto":8793,"tarifa_carro":8514},
{"id":741,"name":"Dag","lat":52.655184,"lon":-7.2584,"puntuation":4.1,"address":"1 Hanover Court","cierre":"7:41 PM","apertura":"11:47 AM","tarifa_moto":7047,"tarifa_carro":9958},
{"id":742,"name":"Lev","lat":29.654069,"lon":110.176918,"puntuation":1.1,"address":"9534 Helena Parkway","cierre":"6:10 PM","apertura":"12:51 AM","tarifa_moto":8065,"tarifa_carro":6149},
{"id":743,"name":"Clare","lat":50.133176,"lon":19.9262381,"puntuation":3.5,"address":"97 Westerfield Parkway","cierre":"7:06 PM","apertura":"8:19 AM","tarifa_moto":8444,"tarifa_carro":7342},
{"id":744,"name":"Oren","lat":-26.9165792,"lon":-49.0717331,"puntuation":4.1,"address":"56119 Kedzie Way","cierre":"10:52 PM","apertura":"1:21 AM","tarifa_moto":5008,"tarifa_carro":9997},
{"id":745,"name":"Heath","lat":-30.2355009,"lon":-61.7285757,"puntuation":2.9,"address":"2681 Larry Place","cierre":"11:57 PM","apertura":"9:09 AM","tarifa_moto":4585,"tarifa_carro":6159},
{"id":746,"name":"Patric","lat":29.484527,"lon":106.482346,"puntuation":1.7,"address":"49734 Melody Road","cierre":"9:50 PM","apertura":"4:59 AM","tarifa_moto":4903,"tarifa_carro":9695},
{"id":747,"name":"Cordelie","lat":47.49714,"lon":96.80311,"puntuation":4.7,"address":"3576 Lakewood Gardens Hill","cierre":"9:55 PM","apertura":"12:59 AM","tarifa_moto":7059,"tarifa_carro":7446},
{"id":748,"name":"Ellis","lat":-20.2884188,"lon":57.3779066,"puntuation":2.8,"address":"70934 Del Sol Hill","cierre":"11:02 PM","apertura":"4:03 AM","tarifa_moto":4888,"tarifa_carro":6399},
{"id":749,"name":"Trula","lat":28.297814,"lon":30.7116561,"puntuation":2.0,"address":"114 South Parkway","cierre":"10:54 PM","apertura":"5:56 AM","tarifa_moto":9081,"tarifa_carro":7818},
{"id":750,"name":"Andrea","lat":-2.4431287,"lon":114.2152731,"puntuation":4.8,"address":"117 Delladonna Terrace","cierre":"10:40 PM","apertura":"11:02 AM","tarifa_moto":6231,"tarifa_carro":7975},
{"id":751,"name":"Abbey","lat":-9.8975064,"lon":-76.9398195,"puntuation":3.8,"address":"50476 Huxley Parkway","cierre":"8:37 PM","apertura":"12:08 AM","tarifa_moto":7136,"tarifa_carro":7644},
{"id":752,"name":"Inglis","lat":45.8022541,"lon":17.497172,"puntuation":2.2,"address":"490 Hollow Ridge Way","cierre":"6:26 PM","apertura":"11:24 AM","tarifa_moto":5462,"tarifa_carro":9115},
{"id":753,"name":"Annaliese","lat":18.0313661,"lon":103.7089573,"puntuation":2.7,"address":"957 Cambridge Circle","cierre":"7:14 PM","apertura":"7:49 AM","tarifa_moto":8659,"tarifa_carro":8441},
{"id":754,"name":"Carita","lat":48.116045,"lon":36.3725301,"puntuation":1.3,"address":"596 Gale Pass","cierre":"8:46 PM","apertura":"6:25 AM","tarifa_moto":8905,"tarifa_carro":7700},
{"id":755,"name":"Marjory","lat":52.7456843,"lon":23.586422,"puntuation":3.8,"address":"032 Buhler Crossing","cierre":"8:51 PM","apertura":"7:22 AM","tarifa_moto":4761,"tarifa_carro":8521},
{"id":756,"name":"Haley","lat":-7.8184706,"lon":110.3922413,"puntuation":3.8,"address":"973 Maryland Park","cierre":"9:51 PM","apertura":"11:45 AM","tarifa_moto":9692,"tarifa_carro":6873},
{"id":757,"name":"Pietra","lat":31.143837,"lon":111.682931,"puntuation":1.2,"address":"886 Sommers Place","cierre":"8:49 PM","apertura":"9:11 AM","tarifa_moto":8988,"tarifa_carro":9276},
{"id":758,"name":"Reggis","lat":43.8227415,"lon":18.2051201,"puntuation":2.5,"address":"58 Fairview Crossing","cierre":"9:59 PM","apertura":"4:15 AM","tarifa_moto":8318,"tarifa_carro":8588},
{"id":759,"name":"Randene","lat":-10.05,"lon":-76.166667,"puntuation":4.6,"address":"0 Eagle Crest Drive","cierre":"6:47 PM","apertura":"1:47 AM","tarifa_moto":6702,"tarifa_carro":9103},
{"id":760,"name":"Xymenes","lat":29.5530941,"lon":118.9353968,"puntuation":2.6,"address":"07 Fallview Circle","cierre":"6:14 PM","apertura":"6:24 AM","tarifa_moto":5728,"tarifa_carro":7091},
{"id":761,"name":"Matty","lat":41.4221745,"lon":-8.4414281,"puntuation":3.0,"address":"112 Michigan Park","cierre":"10:24 PM","apertura":"10:44 AM","tarifa_moto":8547,"tarifa_carro":8402},
{"id":762,"name":"Lena","lat":35.1274285,"lon":-80.8599193,"puntuation":1.1,"address":"65 Hudson Street","cierre":"7:23 PM","apertura":"9:55 AM","tarifa_moto":8687,"tarifa_carro":9565},
{"id":763,"name":"Shandee","lat":-8.694019,"lon":116.5226451,"puntuation":4.8,"address":"5 Sundown Court","cierre":"9:23 PM","apertura":"8:54 AM","tarifa_moto":5967,"tarifa_carro":6111},
{"id":764,"name":"Hewett","lat":-7.606418,"lon":110.190865,"puntuation":1.7,"address":"14 Harper Avenue","cierre":"8:48 PM","apertura":"11:15 AM","tarifa_moto":4021,"tarifa_carro":8569},
{"id":765,"name":"Aurel","lat":26.12829,"lon":102.45004,"puntuation":1.5,"address":"70388 Bobwhite Road","cierre":"6:27 PM","apertura":"3:59 AM","tarifa_moto":5179,"tarifa_carro":6090},
{"id":766,"name":"Eb","lat":25.1418538,"lon":68.5543777,"puntuation":1.6,"address":"7169 Hooker Point","cierre":"9:01 PM","apertura":"12:57 AM","tarifa_moto":4637,"tarifa_carro":7118},
{"id":767,"name":"Millie","lat":-28.4836381,"lon":28.8480284,"puntuation":4.2,"address":"12237 Fulton Hill","cierre":"9:53 PM","apertura":"5:58 AM","tarifa_moto":5690,"tarifa_carro":8808},
{"id":768,"name":"Jennee","lat":10.1592286,"lon":-69.0087365,"puntuation":2.2,"address":"1888 Porter Trail","cierre":"7:50 PM","apertura":"12:01 AM","tarifa_moto":4255,"tarifa_carro":6664},
{"id":769,"name":"Ronica","lat":39.3240601,"lon":-77.3485436,"puntuation":4.0,"address":"0525 Eastwood Street","cierre":"9:49 PM","apertura":"3:40 AM","tarifa_moto":4396,"tarifa_carro":9761},
{"id":770,"name":"Devondra","lat":46.5067026,"lon":83.6616699,"puntuation":4.4,"address":"54756 7th Parkway","cierre":"10:33 PM","apertura":"8:36 AM","tarifa_moto":7565,"tarifa_carro":6946},
{"id":771,"name":"Margarette","lat":-18.1969907,"lon":-69.5597273,"puntuation":4.4,"address":"15 Manitowish Lane","cierre":"9:02 PM","apertura":"6:25 AM","tarifa_moto":6107,"tarifa_carro":8939},
{"id":772,"name":"Mel","lat":35.5155989,"lon":24.1076107,"puntuation":2.7,"address":"24302 Homewood Way","cierre":"8:45 PM","apertura":"1:14 AM","tarifa_moto":6146,"tarifa_carro":7967},
{"id":773,"name":"Ulric","lat":14.549965,"lon":-86.8270545,"puntuation":3.8,"address":"9 Schurz Hill","cierre":"6:30 PM","apertura":"10:49 AM","tarifa_moto":5498,"tarifa_carro":8063},
{"id":774,"name":"Cahra","lat":-8.0925,"lon":111.9417,"puntuation":3.0,"address":"0 Prairie Rose Drive","cierre":"10:14 PM","apertura":"1:14 AM","tarifa_moto":6328,"tarifa_carro":8340},
{"id":775,"name":"Sawyer","lat":31.77,"lon":-106.43,"puntuation":1.6,"address":"6706 Rutledge Park","cierre":"10:46 PM","apertura":"1:23 AM","tarifa_moto":8619,"tarifa_carro":7780},
{"id":776,"name":"Carree","lat":25.5225011,"lon":111.7226167,"puntuation":1.2,"address":"4472 Wayridge Drive","cierre":"9:25 PM","apertura":"9:34 AM","tarifa_moto":5988,"tarifa_carro":9468},
{"id":777,"name":"Nicole","lat":49.2621494,"lon":17.9966831,"puntuation":1.1,"address":"22 West Avenue","cierre":"9:11 PM","apertura":"1:45 AM","tarifa_moto":8035,"tarifa_carro":8702},
{"id":778,"name":"Arturo","lat":61.3294177,"lon":29.1257738,"puntuation":1.3,"address":"5 Superior Point","cierre":"6:58 PM","apertura":"5:08 AM","tarifa_moto":5898,"tarifa_carro":8273},
{"id":779,"name":"Del","lat":35.133333,"lon":-2.933333,"puntuation":3.9,"address":"04834 Magdeline Circle","cierre":"6:05 PM","apertura":"10:45 AM","tarifa_moto":8375,"tarifa_carro":6967},
{"id":780,"name":"Martainn","lat":55.6760366,"lon":12.5657728,"puntuation":4.6,"address":"5 Sunnyside Parkway","cierre":"11:15 PM","apertura":"6:27 AM","tarifa_moto":6086,"tarifa_carro":7222},
{"id":781,"name":"Meg","lat":52.5613047,"lon":14.8032523,"puntuation":1.0,"address":"1972 Chinook Terrace","cierre":"9:25 PM","apertura":"1:19 AM","tarifa_moto":5557,"tarifa_carro":8632},
{"id":782,"name":"Garreth","lat":-22.6475546,"lon":-47.1947232,"puntuation":2.5,"address":"92440 Straubel Lane","cierre":"11:57 PM","apertura":"7:42 AM","tarifa_moto":5702,"tarifa_carro":8406},
{"id":783,"name":"Bren","lat":36.309203,"lon":113.110378,"puntuation":2.9,"address":"959 Nobel Pass","cierre":"9:30 PM","apertura":"7:19 AM","tarifa_moto":4721,"tarifa_carro":7138},
{"id":784,"name":"Rosmunda","lat":56.7458379,"lon":24.4061069,"puntuation":3.2,"address":"706 Prairie Rose Lane","cierre":"10:10 PM","apertura":"8:23 AM","tarifa_moto":9125,"tarifa_carro":8259},
{"id":785,"name":"Sidonia","lat":11.3421375,"lon":-73.0405277,"puntuation":2.4,"address":"9419 Norway Maple Trail","cierre":"9:04 PM","apertura":"3:57 AM","tarifa_moto":4965,"tarifa_carro":8027},
{"id":786,"name":"Sibylle","lat":-28.4627561,"lon":-65.780154,"puntuation":4.6,"address":"372 Dennis Hill","cierre":"9:34 PM","apertura":"12:10 AM","tarifa_moto":8105,"tarifa_carro":8716},
{"id":787,"name":"Colby","lat":-9.781098,"lon":34.522671,"puntuation":4.6,"address":"52842 Mcbride Lane","cierre":"7:28 PM","apertura":"10:22 AM","tarifa_moto":4555,"tarifa_carro":6752},
{"id":788,"name":"Arnaldo","lat":-41.3115175,"lon":174.7861404,"puntuation":4.7,"address":"17586 Hooker Plaza","cierre":"10:59 PM","apertura":"6:17 AM","tarifa_moto":9664,"tarifa_carro":7446},
{"id":789,"name":"Pris","lat":50.4919489,"lon":13.2886723,"puntuation":4.0,"address":"20986 New Castle Junction","cierre":"6:18 PM","apertura":"1:48 AM","tarifa_moto":6951,"tarifa_carro":7508},
{"id":790,"name":"Ladonna","lat":33.400684,"lon":104.921841,"puntuation":4.7,"address":"902 Marquette Street","cierre":"6:52 PM","apertura":"7:42 AM","tarifa_moto":6940,"tarifa_carro":8240},
{"id":791,"name":"Branden","lat":29.5530941,"lon":118.9353968,"puntuation":1.6,"address":"851 Mitchell Avenue","cierre":"10:34 PM","apertura":"4:03 AM","tarifa_moto":7368,"tarifa_carro":6289},
{"id":792,"name":"Buiron","lat":16.6714164,"lon":99.2823264,"puntuation":1.5,"address":"450 Memorial Drive","cierre":"6:17 PM","apertura":"4:10 AM","tarifa_moto":6929,"tarifa_carro":6733},
{"id":793,"name":"Rickert","lat":39.6343248,"lon":2.631838,"puntuation":4.0,"address":"6 Ruskin Terrace","cierre":"11:08 PM","apertura":"7:00 AM","tarifa_moto":8434,"tarifa_carro":9600},
{"id":794,"name":"Tades","lat":46.4376847,"lon":16.6088342,"puntuation":4.2,"address":"1145 Russell Crossing","cierre":"10:59 PM","apertura":"9:00 AM","tarifa_moto":5757,"tarifa_carro":7628},
{"id":795,"name":"Bing","lat":52.9490114,"lon":22.9564233,"puntuation":2.5,"address":"736 Manitowish Point","cierre":"9:07 PM","apertura":"7:19 AM","tarifa_moto":8796,"tarifa_carro":7650},
{"id":796,"name":"Hussein","lat":-25.4645818,"lon":-56.013851,"puntuation":2.0,"address":"927 Eastlawn Court","cierre":"11:43 PM","apertura":"9:32 AM","tarifa_moto":4311,"tarifa_carro":8504},
{"id":797,"name":"Baxie","lat":26.253088,"lon":105.947595,"puntuation":1.9,"address":"55 Messerschmidt Plaza","cierre":"11:01 PM","apertura":"5:00 AM","tarifa_moto":8291,"tarifa_carro":7742},
{"id":798,"name":"Nannette","lat":7.5406,"lon":9.649249,"puntuation":1.8,"address":"5 Sloan Hill","cierre":"11:34 PM","apertura":"12:39 AM","tarifa_moto":5347,"tarifa_carro":6191},
{"id":799,"name":"Casi","lat":33.6160293,"lon":-111.8926303,"puntuation":4.0,"address":"9613 Dwight Place","cierre":"10:56 PM","apertura":"5:54 AM","tarifa_moto":8807,"tarifa_carro":9379},
{"id":800,"name":"Zacharie","lat":-0.5732343,"lon":117.1323579,"puntuation":2.7,"address":"56959 New Castle Pass","cierre":"9:46 PM","apertura":"2:54 AM","tarifa_moto":6357,"tarifa_carro":9286},
{"id":801,"name":"Bronson","lat":-53.772733,"lon":-67.738423,"puntuation":2.1,"address":"3169 Village Terrace","cierre":"8:26 PM","apertura":"7:01 AM","tarifa_moto":6955,"tarifa_carro":8495},
{"id":802,"name":"Anatole","lat":14.347522,"lon":120.9245309,"puntuation":3.6,"address":"12 Hagan Alley","cierre":"7:54 PM","apertura":"7:15 AM","tarifa_moto":8355,"tarifa_carro":7824},
{"id":803,"name":"Uri","lat":43.5336719,"lon":26.5411165,"puntuation":2.7,"address":"86 Carberry Alley","cierre":"9:12 PM","apertura":"7:18 AM","tarifa_moto":8814,"tarifa_carro":7632},
{"id":804,"name":"Didi","lat":-7.0967,"lon":113.6588,"puntuation":3.3,"address":"71 Hollow Ridge Center","cierre":"9:12 PM","apertura":"9:12 AM","tarifa_moto":9179,"tarifa_carro":9274},
{"id":805,"name":"Edmon","lat":-8.2969666,"lon":113.6561725,"puntuation":2.6,"address":"40 Wayridge Point","cierre":"9:38 PM","apertura":"6:43 AM","tarifa_moto":7041,"tarifa_carro":9853},
{"id":806,"name":"Belita","lat":28.0896014,"lon":108.7986202,"puntuation":1.1,"address":"2442 Hayes Junction","cierre":"10:27 PM","apertura":"12:12 AM","tarifa_moto":6164,"tarifa_carro":8480},
{"id":807,"name":"Violetta","lat":31.340637,"lon":119.823308,"puntuation":4.6,"address":"4 Hayes Place","cierre":"6:33 PM","apertura":"9:42 AM","tarifa_moto":7736,"tarifa_carro":9900},
{"id":808,"name":"Cordie","lat":55.6819119,"lon":37.7795228,"puntuation":3.9,"address":"98 Delaware Avenue","cierre":"11:57 PM","apertura":"3:10 AM","tarifa_moto":9687,"tarifa_carro":9743},
{"id":809,"name":"Ellen","lat":51.7059957,"lon":53.0515402,"puntuation":4.5,"address":"403 Hooker Trail","cierre":"9:35 PM","apertura":"4:00 AM","tarifa_moto":6528,"tarifa_carro":7015},
{"id":810,"name":"Angie","lat":25.570888,"lon":111.945844,"puntuation":1.7,"address":"7816 Bobwhite Circle","cierre":"11:21 PM","apertura":"2:24 AM","tarifa_moto":8045,"tarifa_carro":6686},
{"id":811,"name":"Cecilio","lat":64.3018789,"lon":19.6203523,"puntuation":4.0,"address":"7834 Truax Point","cierre":"8:48 PM","apertura":"3:55 AM","tarifa_moto":5241,"tarifa_carro":7597},
{"id":812,"name":"Zeke","lat":41.16861,"lon":21.4825,"puntuation":3.6,"address":"76 Clove Point","cierre":"7:48 PM","apertura":"9:03 AM","tarifa_moto":7121,"tarifa_carro":7324},
{"id":813,"name":"Wade","lat":28.3102323,"lon":81.4278984,"puntuation":4.8,"address":"4 Longview Hill","cierre":"10:17 PM","apertura":"7:50 AM","tarifa_moto":6324,"tarifa_carro":9395},
{"id":814,"name":"Susi","lat":-6.8353325,"lon":108.5151507,"puntuation":3.3,"address":"51882 Schlimgen Place","cierre":"11:04 PM","apertura":"3:20 AM","tarifa_moto":8344,"tarifa_carro":9710},
{"id":815,"name":"Conan","lat":12.41086,"lon":108.17682,"puntuation":3.6,"address":"25982 Rowland Way","cierre":"10:25 PM","apertura":"12:57 AM","tarifa_moto":5283,"tarifa_carro":9703},
{"id":816,"name":"Lay","lat":42.7665598,"lon":-81.1747498,"puntuation":2.9,"address":"09 Hoard Park","cierre":"11:51 PM","apertura":"9:35 AM","tarifa_moto":8924,"tarifa_carro":9089},
{"id":817,"name":"Sheffie","lat":-11.4346353,"lon":-41.3803558,"puntuation":4.7,"address":"09437 Burrows Center","cierre":"10:05 PM","apertura":"1:02 AM","tarifa_moto":8189,"tarifa_carro":6966},
{"id":818,"name":"Meghan","lat":-6.1801188,"lon":107.2946735,"puntuation":3.5,"address":"4 Schlimgen Park","cierre":"7:20 PM","apertura":"2:00 AM","tarifa_moto":8069,"tarifa_carro":8862},
{"id":819,"name":"Giacomo","lat":21.2350622,"lon":-102.3342182,"puntuation":1.7,"address":"471 Jackson Court","cierre":"7:01 PM","apertura":"5:26 AM","tarifa_moto":4588,"tarifa_carro":6214},
{"id":820,"name":"Sybila","lat":40.0158487,"lon":116.4551375,"puntuation":4.4,"address":"73 Becker Lane","cierre":"10:43 PM","apertura":"4:17 AM","tarifa_moto":6204,"tarifa_carro":7296},
{"id":821,"name":"Martguerita","lat":46.2531292,"lon":14.4868829,"puntuation":2.7,"address":"64494 Waywood Hill","cierre":"6:00 PM","apertura":"1:52 AM","tarifa_moto":8636,"tarifa_carro":7664},
{"id":822,"name":"Filberte","lat":53.4413995,"lon":19.0963213,"puntuation":2.2,"address":"25 Rowland Park","cierre":"10:37 PM","apertura":"10:11 AM","tarifa_moto":6501,"tarifa_carro":6817},
{"id":823,"name":"Tomi","lat":51.3098574,"lon":18.3275179,"puntuation":3.1,"address":"65 Columbus Park","cierre":"11:21 PM","apertura":"1:59 AM","tarifa_moto":4781,"tarifa_carro":7899},
{"id":824,"name":"Clay","lat":3.9572072,"lon":126.6795425,"puntuation":1.4,"address":"53652 Oxford Drive","cierre":"6:45 PM","apertura":"5:28 AM","tarifa_moto":9094,"tarifa_carro":8967},
{"id":825,"name":"Tobe","lat":36.0887208,"lon":9.3645335,"puntuation":4.5,"address":"3 Bayside Hill","cierre":"6:37 PM","apertura":"10:10 AM","tarifa_moto":8506,"tarifa_carro":9584},
{"id":826,"name":"Madelaine","lat":16.7095,"lon":33.3565,"puntuation":2.2,"address":"6 Lighthouse Bay Circle","cierre":"11:26 PM","apertura":"11:29 AM","tarifa_moto":9903,"tarifa_carro":6295},
{"id":827,"name":"Giordano","lat":62.5262505,"lon":17.4368205,"puntuation":3.4,"address":"65 Browning Parkway","cierre":"10:19 PM","apertura":"4:24 AM","tarifa_moto":5595,"tarifa_carro":7251},
{"id":828,"name":"Mirilla","lat":32.762022,"lon":111.709662,"puntuation":2.1,"address":"90 Leroy Lane","cierre":"9:57 PM","apertura":"5:41 AM","tarifa_moto":9879,"tarifa_carro":6034},
{"id":829,"name":"Bret","lat":49.6877756,"lon":6.3485626,"puntuation":2.8,"address":"7127 Commercial Junction","cierre":"6:37 PM","apertura":"5:49 AM","tarifa_moto":4698,"tarifa_carro":6664},
{"id":830,"name":"Dylan","lat":44.6441061,"lon":40.1981432,"puntuation":1.3,"address":"22 Mccormick Hill","cierre":"8:12 PM","apertura":"12:46 AM","tarifa_moto":5746,"tarifa_carro":6326},
{"id":831,"name":"Inesita","lat":48.1735752,"lon":91.7678144,"puntuation":3.5,"address":"2266 Lerdahl Way","cierre":"10:18 PM","apertura":"12:36 AM","tarifa_moto":5129,"tarifa_carro":6060},
{"id":832,"name":"Christian","lat":47.7582463,"lon":27.9329385,"puntuation":4.1,"address":"280 Clove Junction","cierre":"10:23 PM","apertura":"11:05 AM","tarifa_moto":5260,"tarifa_carro":8700},
{"id":833,"name":"Calida","lat":38.2892237,"lon":23.8248958,"puntuation":1.3,"address":"53325 Kingsford Lane","cierre":"7:39 PM","apertura":"4:39 AM","tarifa_moto":8066,"tarifa_carro":9689},
{"id":834,"name":"Madonna","lat":38.0361995,"lon":-8.2884236,"puntuation":4.7,"address":"12575 Dottie Crossing","cierre":"6:00 PM","apertura":"2:23 AM","tarifa_moto":5455,"tarifa_carro":9317},
{"id":835,"name":"Allard","lat":48.6299901,"lon":24.472416,"puntuation":2.3,"address":"7 Meadow Vale Center","cierre":"6:17 PM","apertura":"4:29 AM","tarifa_moto":5104,"tarifa_carro":7845},
{"id":836,"name":"Jana","lat":56.37737,"lon":37.32871,"puntuation":3.2,"address":"5 Armistice Pass","cierre":"10:33 PM","apertura":"10:22 AM","tarifa_moto":9628,"tarifa_carro":9967},
{"id":837,"name":"Taite","lat":-33.5020548,"lon":-58.7986641,"puntuation":3.6,"address":"8 Coolidge Hill","cierre":"11:02 PM","apertura":"3:04 AM","tarifa_moto":8835,"tarifa_carro":7340},
{"id":838,"name":"Dee","lat":38.1625093,"lon":21.6682269,"puntuation":3.3,"address":"68704 Debra Park","cierre":"7:03 PM","apertura":"2:58 AM","tarifa_moto":5593,"tarifa_carro":9051},
{"id":839,"name":"Farand","lat":60.3560649,"lon":5.3446343,"puntuation":3.7,"address":"421 Atwood Pass","cierre":"7:50 PM","apertura":"2:31 AM","tarifa_moto":4215,"tarifa_carro":6237},
{"id":840,"name":"Annalise","lat":35.72154,"lon":111.350842,"puntuation":1.5,"address":"96157 Eastlawn Alley","cierre":"10:01 PM","apertura":"6:55 AM","tarifa_moto":4036,"tarifa_carro":9055},
{"id":841,"name":"Dominga","lat":39.0527074,"lon":116.9237911,"puntuation":2.4,"address":"55454 Fuller Plaza","cierre":"10:55 PM","apertura":"6:35 AM","tarifa_moto":6413,"tarifa_carro":8660},
{"id":842,"name":"Davidde","lat":39.822507,"lon":109.963338,"puntuation":3.4,"address":"6386 Bobwhite Street","cierre":"10:20 PM","apertura":"3:35 AM","tarifa_moto":8648,"tarifa_carro":7867},
{"id":843,"name":"Delphinia","lat":19.782027,"lon":-99.0598732,"puntuation":3.7,"address":"878 Tennessee Avenue","cierre":"11:49 PM","apertura":"10:52 AM","tarifa_moto":4390,"tarifa_carro":6909},
{"id":844,"name":"Korry","lat":39.934201,"lon":116.430668,"puntuation":4.5,"address":"7 Stephen Trail","cierre":"9:48 PM","apertura":"11:12 AM","tarifa_moto":4577,"tarifa_carro":6129},
{"id":845,"name":"Midge","lat":61.065764,"lon":68.4954039,"puntuation":4.2,"address":"88184 Judy Plaza","cierre":"8:38 PM","apertura":"4:43 AM","tarifa_moto":4952,"tarifa_carro":6741},
{"id":846,"name":"Shaun","lat":49.8481991,"lon":13.9796068,"puntuation":3.1,"address":"8327 Sommers Alley","cierre":"9:27 PM","apertura":"5:44 AM","tarifa_moto":6762,"tarifa_carro":7791},
{"id":847,"name":"Kristin","lat":23.1351485,"lon":-82.3695988,"puntuation":2.4,"address":"28 Brown Plaza","cierre":"6:47 PM","apertura":"8:45 AM","tarifa_moto":7312,"tarifa_carro":8757},
{"id":848,"name":"Terra","lat":49.73554,"lon":21.26331,"puntuation":2.8,"address":"59 Sauthoff Alley","cierre":"6:03 PM","apertura":"8:01 AM","tarifa_moto":6045,"tarifa_carro":6805},
{"id":849,"name":"Shaun","lat":36.3029195,"lon":139.9768546,"puntuation":1.3,"address":"75330 Reinke Way","cierre":"7:44 PM","apertura":"9:49 AM","tarifa_moto":8599,"tarifa_carro":7408},
{"id":850,"name":"Mickie","lat":29.60095,"lon":121.685484,"puntuation":1.5,"address":"6 Riverside Road","cierre":"11:14 PM","apertura":"5:41 AM","tarifa_moto":6011,"tarifa_carro":6459},
{"id":851,"name":"Tera","lat":8.972681,"lon":125.408732,"puntuation":3.3,"address":"8 Hollow Ridge Place","cierre":"6:06 PM","apertura":"12:30 AM","tarifa_moto":4710,"tarifa_carro":7467},
{"id":852,"name":"Hartley","lat":14.295795,"lon":120.9905117,"puntuation":2.3,"address":"81236 Corry Place","cierre":"7:22 PM","apertura":"4:16 AM","tarifa_moto":4258,"tarifa_carro":7448},
{"id":853,"name":"Fax","lat":-7.9637383,"lon":145.7717353,"puntuation":3.2,"address":"93059 Haas Terrace","cierre":"8:50 PM","apertura":"6:38 AM","tarifa_moto":4727,"tarifa_carro":9282},
{"id":854,"name":"Mendel","lat":23.3790333,"lon":113.7632828,"puntuation":2.5,"address":"54 Spenser Trail","cierre":"8:29 PM","apertura":"12:46 AM","tarifa_moto":6111,"tarifa_carro":9669},
{"id":855,"name":"Elfrida","lat":64.403043,"lon":27.8381469,"puntuation":3.0,"address":"629 Holy Cross Junction","cierre":"11:31 PM","apertura":"2:03 AM","tarifa_moto":4089,"tarifa_carro":9731},
{"id":856,"name":"Wilburt","lat":45.2397599,"lon":13.9373092,"puntuation":3.3,"address":"405 Valley Edge Pass","cierre":"8:45 PM","apertura":"5:47 AM","tarifa_moto":4063,"tarifa_carro":7034},
{"id":857,"name":"Phillip","lat":27.820107,"lon":105.965695,"puntuation":4.6,"address":"44123 Becker Court","cierre":"7:51 PM","apertura":"7:14 AM","tarifa_moto":8952,"tarifa_carro":7267},
{"id":858,"name":"Tonia","lat":36.188112,"lon":106.951372,"puntuation":2.5,"address":"5711 Briar Crest Center","cierre":"8:59 PM","apertura":"8:16 AM","tarifa_moto":5803,"tarifa_carro":8115},
{"id":859,"name":"Christiano","lat":-2.7158764,"lon":30.6286186,"puntuation":4.9,"address":"4 Glendale Alley","cierre":"6:08 PM","apertura":"3:45 AM","tarifa_moto":6728,"tarifa_carro":8982},
{"id":860,"name":"Virgie","lat":40.323749,"lon":-8.7980385,"puntuation":4.4,"address":"2 Sage Lane","cierre":"10:11 PM","apertura":"5:46 AM","tarifa_moto":5341,"tarifa_carro":8342},
{"id":861,"name":"Sylas","lat":0.5527836,"lon":123.0563144,"puntuation":3.0,"address":"3898 Shasta Hill","cierre":"9:24 PM","apertura":"3:50 AM","tarifa_moto":7801,"tarifa_carro":8696},
{"id":862,"name":"Ava","lat":45.2557594,"lon":41.8390104,"puntuation":1.9,"address":"0 Prairieview Place","cierre":"9:18 PM","apertura":"10:17 AM","tarifa_moto":4639,"tarifa_carro":7323},
{"id":863,"name":"Bryon","lat":2.3629945,"lon":34.2421597,"puntuation":4.1,"address":"4 Division Hill","cierre":"8:57 PM","apertura":"5:45 AM","tarifa_moto":5271,"tarifa_carro":7430},
{"id":864,"name":"Lettie","lat":45.8524432,"lon":-73.7572393,"puntuation":1.1,"address":"0018 Mifflin Drive","cierre":"6:10 PM","apertura":"1:49 AM","tarifa_moto":4604,"tarifa_carro":7635},
{"id":865,"name":"Waldo","lat":40.0383706,"lon":44.5657164,"puntuation":4.6,"address":"3108 Brentwood Junction","cierre":"8:48 PM","apertura":"4:21 AM","tarifa_moto":4901,"tarifa_carro":7463},
{"id":866,"name":"Sunny","lat":28.924088,"lon":93.825006,"puntuation":4.3,"address":"03 Stoughton Terrace","cierre":"9:33 PM","apertura":"3:56 AM","tarifa_moto":6116,"tarifa_carro":9778},
{"id":867,"name":"Rosemarie","lat":-8.1714502,"lon":114.2806558,"puntuation":3.8,"address":"3 Dunning Junction","cierre":"6:00 PM","apertura":"12:50 AM","tarifa_moto":6367,"tarifa_carro":7953},
{"id":868,"name":"Niel","lat":39.942418,"lon":116.725642,"puntuation":2.5,"address":"785 Emmet Drive","cierre":"7:11 PM","apertura":"8:16 AM","tarifa_moto":6667,"tarifa_carro":7668},
{"id":869,"name":"Rodger","lat":40.828411,"lon":120.769905,"puntuation":4.0,"address":"566 Jenna Street","cierre":"6:18 PM","apertura":"7:54 AM","tarifa_moto":4982,"tarifa_carro":6418},
{"id":870,"name":"Antoni","lat":48.9270449,"lon":2.3265854,"puntuation":4.7,"address":"2293 Sugar Avenue","cierre":"6:48 PM","apertura":"10:36 AM","tarifa_moto":4189,"tarifa_carro":7158},
{"id":871,"name":"Janaye","lat":39.942418,"lon":116.725642,"puntuation":3.7,"address":"1552 Dixon Way","cierre":"8:10 PM","apertura":"5:14 AM","tarifa_moto":6793,"tarifa_carro":9533},
{"id":872,"name":"Mellisa","lat":14.7536759,"lon":-92.0269227,"puntuation":2.6,"address":"2862 Hanover Crossing","cierre":"10:16 PM","apertura":"6:25 AM","tarifa_moto":5485,"tarifa_carro":6163},
{"id":873,"name":"Winnie","lat":32.022005,"lon":121.186614,"puntuation":1.7,"address":"13409 Johnson Street","cierre":"7:40 PM","apertura":"11:34 AM","tarifa_moto":8213,"tarifa_carro":8476},
{"id":874,"name":"Sheena","lat":34.363184,"lon":107.237743,"puntuation":3.6,"address":"63376 Cordelia Drive","cierre":"6:02 PM","apertura":"5:01 AM","tarifa_moto":7857,"tarifa_carro":8753},
{"id":875,"name":"Geri","lat":48.0762327,"lon":-0.7609009,"puntuation":3.7,"address":"1870 Stoughton Road","cierre":"8:13 PM","apertura":"3:45 AM","tarifa_moto":9140,"tarifa_carro":6572},
{"id":876,"name":"Nelly","lat":-6.988321,"lon":112.8384257,"puntuation":4.8,"address":"809 Eagan Road","cierre":"8:47 PM","apertura":"11:06 AM","tarifa_moto":8623,"tarifa_carro":7838},
{"id":877,"name":"Mellicent","lat":52.1734345,"lon":19.6947536,"puntuation":1.3,"address":"4 Warrior Junction","cierre":"6:18 PM","apertura":"7:56 AM","tarifa_moto":5234,"tarifa_carro":9343},
{"id":878,"name":"Ricca","lat":-13.5321991,"lon":-73.6760258,"puntuation":2.2,"address":"84423 Reinke Trail","cierre":"6:33 PM","apertura":"11:02 AM","tarifa_moto":4378,"tarifa_carro":8067},
{"id":879,"name":"Star","lat":14.6875764,"lon":120.9777157,"puntuation":4.6,"address":"17 Merrick Parkway","cierre":"9:03 PM","apertura":"5:36 AM","tarifa_moto":4206,"tarifa_carro":8268},
{"id":880,"name":"Beverley","lat":7.1801552,"lon":79.8842521,"puntuation":1.8,"address":"0393 Goodland Court","cierre":"6:37 PM","apertura":"2:29 AM","tarifa_moto":9038,"tarifa_carro":9680},
{"id":881,"name":"Kare","lat":17.5385975,"lon":120.6662294,"puntuation":1.0,"address":"4815 Bayside Lane","cierre":"10:04 PM","apertura":"12:15 AM","tarifa_moto":6703,"tarifa_carro":7993},
{"id":882,"name":"Roselin","lat":-8.460409,"lon":122.6051351,"puntuation":1.1,"address":"3 Homewood Road","cierre":"6:09 PM","apertura":"8:04 AM","tarifa_moto":8239,"tarifa_carro":7392},
{"id":883,"name":"Jean","lat":40.179599,"lon":112.891988,"puntuation":3.2,"address":"32538 Jay Trail","cierre":"9:55 PM","apertura":"5:30 AM","tarifa_moto":7814,"tarifa_carro":9570},
{"id":884,"name":"Dix","lat":55.619557,"lon":37.754824,"puntuation":2.3,"address":"0 Express Point","cierre":"7:18 PM","apertura":"5:03 AM","tarifa_moto":9910,"tarifa_carro":6274},
{"id":885,"name":"Ermengarde","lat":51.5353894,"lon":7.4091222,"puntuation":3.9,"address":"48018 Dunning Way","cierre":"7:42 PM","apertura":"8:40 AM","tarifa_moto":8426,"tarifa_carro":7722},
{"id":886,"name":"Robinetta","lat":49.6633939,"lon":6.1317337,"puntuation":4.5,"address":"22929 Bellgrove Point","cierre":"10:31 PM","apertura":"2:52 AM","tarifa_moto":9111,"tarifa_carro":9082},
{"id":887,"name":"Estel","lat":57.6044065,"lon":35.9190561,"puntuation":3.7,"address":"14 Havey Lane","cierre":"11:29 PM","apertura":"8:51 AM","tarifa_moto":9473,"tarifa_carro":8597},
{"id":888,"name":"Fairleigh","lat":44.5722923,"lon":18.3753175,"puntuation":3.7,"address":"3583 Ronald Regan Trail","cierre":"10:20 PM","apertura":"9:09 AM","tarifa_moto":6376,"tarifa_carro":9223},
{"id":889,"name":"Ty","lat":14.5748896,"lon":121.0455547,"puntuation":3.3,"address":"3 Reinke Place","cierre":"10:58 PM","apertura":"7:15 AM","tarifa_moto":8069,"tarifa_carro":7270},
{"id":890,"name":"Genna","lat":49.5458457,"lon":19.0802389,"puntuation":3.6,"address":"7 Victoria Parkway","cierre":"7:01 PM","apertura":"9:16 AM","tarifa_moto":4812,"tarifa_carro":7453},
{"id":891,"name":"Elsbeth","lat":-1.5791079,"lon":30.0694123,"puntuation":2.4,"address":"461 Armistice Court","cierre":"10:19 PM","apertura":"2:48 AM","tarifa_moto":9598,"tarifa_carro":8648},
{"id":892,"name":"Orsa","lat":6.0455336,"lon":120.9985973,"puntuation":2.6,"address":"3 Spaight Park","cierre":"8:51 PM","apertura":"3:55 AM","tarifa_moto":8867,"tarifa_carro":6767},
{"id":893,"name":"Rawley","lat":59.6452799,"lon":30.7629879,"puntuation":1.7,"address":"73082 Bayside Parkway","cierre":"6:41 PM","apertura":"2:01 AM","tarifa_moto":5765,"tarifa_carro":6467},
{"id":894,"name":"Carlye","lat":-7.2290752,"lon":-35.8808337,"puntuation":2.2,"address":"44 Everett Drive","cierre":"8:56 PM","apertura":"10:36 AM","tarifa_moto":5907,"tarifa_carro":9643},
{"id":895,"name":"Elberta","lat":-3.4865398,"lon":114.9754175,"puntuation":3.7,"address":"50998 Meadow Ridge Plaza","cierre":"7:04 PM","apertura":"9:25 AM","tarifa_moto":4817,"tarifa_carro":6868},
{"id":896,"name":"Merry","lat":48.851792,"lon":123.810261,"puntuation":4.5,"address":"2220 Warrior Alley","cierre":"11:54 PM","apertura":"5:48 AM","tarifa_moto":5809,"tarifa_carro":7909},
{"id":897,"name":"Vaughan","lat":49.0701119,"lon":16.4649242,"puntuation":2.2,"address":"33026 Nelson Center","cierre":"6:30 PM","apertura":"2:43 AM","tarifa_moto":8754,"tarifa_carro":6103},
{"id":898,"name":"Hasty","lat":5.1550917,"lon":8.0247005,"puntuation":1.1,"address":"47271 Walton Park","cierre":"7:43 PM","apertura":"12:40 AM","tarifa_moto":4936,"tarifa_carro":7320},
{"id":899,"name":"Laurena","lat":52.6244001,"lon":20.3835279,"puntuation":1.7,"address":"299 Dapin Place","cierre":"8:37 PM","apertura":"12:22 AM","tarifa_moto":9259,"tarifa_carro":9388},
{"id":900,"name":"Maurizia","lat":39.7028389,"lon":141.1515091,"puntuation":4.6,"address":"8257 Forest Dale Lane","cierre":"8:17 PM","apertura":"2:47 AM","tarifa_moto":6792,"tarifa_carro":7385},
{"id":901,"name":"Cam","lat":23.7247599,"lon":108.8076195,"puntuation":4.0,"address":"959 Magdeline Terrace","cierre":"8:15 PM","apertura":"7:17 AM","tarifa_moto":7074,"tarifa_carro":6417},
{"id":902,"name":"Carlye","lat":-8.1947,"lon":114.9181,"puntuation":4.9,"address":"2 Fair Oaks Pass","cierre":"9:44 PM","apertura":"3:50 AM","tarifa_moto":5541,"tarifa_carro":9992},
{"id":903,"name":"Jennette","lat":63.8532929,"lon":23.0832748,"puntuation":2.0,"address":"0726 Jay Alley","cierre":"11:43 PM","apertura":"12:14 AM","tarifa_moto":7944,"tarifa_carro":9685},
{"id":904,"name":"Allianora","lat":45.0543662,"lon":34.3179269,"puntuation":1.8,"address":"39941 Commercial Crossing","cierre":"6:20 PM","apertura":"11:06 AM","tarifa_moto":6750,"tarifa_carro":9648},
{"id":905,"name":"Mariya","lat":47.7728849,"lon":12.9695096,"puntuation":1.6,"address":"64669 Cherokee Parkway","cierre":"10:21 PM","apertura":"5:55 AM","tarifa_moto":4123,"tarifa_carro":9473},
{"id":906,"name":"Osbourn","lat":0.6546257,"lon":30.2801166,"puntuation":3.2,"address":"98 Loftsgordon Pass","cierre":"9:36 PM","apertura":"12:37 AM","tarifa_moto":6211,"tarifa_carro":6429},
{"id":907,"name":"Malina","lat":52.6396679,"lon":-9.4904891,"puntuation":2.9,"address":"56005 Badeau Lane","cierre":"9:17 PM","apertura":"12:27 AM","tarifa_moto":4470,"tarifa_carro":7449},
{"id":908,"name":"Octavia","lat":37.932976,"lon":102.665494,"puntuation":2.7,"address":"63 New Castle Alley","cierre":"6:22 PM","apertura":"4:36 AM","tarifa_moto":4472,"tarifa_carro":9415},
{"id":909,"name":"Larisa","lat":36.1899557,"lon":117.1168644,"puntuation":2.5,"address":"8 Namekagon Circle","cierre":"9:45 PM","apertura":"4:54 AM","tarifa_moto":5951,"tarifa_carro":7064},
{"id":910,"name":"Gaspar","lat":43.09476,"lon":45.35898,"puntuation":1.2,"address":"13 Leroy Place","cierre":"6:38 PM","apertura":"12:09 AM","tarifa_moto":7117,"tarifa_carro":9178},
{"id":911,"name":"Ermina","lat":-6.90821,"lon":-79.5772008,"puntuation":2.7,"address":"56488 Donald Crossing","cierre":"9:34 PM","apertura":"7:30 AM","tarifa_moto":9790,"tarifa_carro":8288},
{"id":912,"name":"Leesa","lat":0.7013707,"lon":32.9029088,"puntuation":3.8,"address":"5501 Summer Ridge Hill","cierre":"7:02 PM","apertura":"7:27 AM","tarifa_moto":6141,"tarifa_carro":8816},
{"id":913,"name":"Penn","lat":41.2918839,"lon":-8.1963545,"puntuation":2.7,"address":"130 Rigney Alley","cierre":"8:44 PM","apertura":"12:18 AM","tarifa_moto":8759,"tarifa_carro":6839},
{"id":914,"name":"Neilla","lat":55.8893778,"lon":12.8237518,"puntuation":2.2,"address":"73434 Fisk Junction","cierre":"6:54 PM","apertura":"4:11 AM","tarifa_moto":9146,"tarifa_carro":6121},
{"id":915,"name":"Arin","lat":48.8493975,"lon":2.4751086,"puntuation":4.5,"address":"58 Lillian Trail","cierre":"9:25 PM","apertura":"3:24 AM","tarifa_moto":5298,"tarifa_carro":7197},
{"id":916,"name":"Levey","lat":-7.3708505,"lon":112.4440473,"puntuation":1.9,"address":"5306 Dennis Street","cierre":"9:19 PM","apertura":"5:55 AM","tarifa_moto":5810,"tarifa_carro":6075},
{"id":917,"name":"Becki","lat":52.2679288,"lon":-1.1202549,"puntuation":3.1,"address":"54 Northland Plaza","cierre":"10:41 PM","apertura":"11:11 AM","tarifa_moto":4995,"tarifa_carro":7770},
{"id":918,"name":"Dorry","lat":-7.3507573,"lon":108.205132,"puntuation":2.1,"address":"0 Sutherland Hill","cierre":"9:14 PM","apertura":"7:21 AM","tarifa_moto":4721,"tarifa_carro":6608},
{"id":919,"name":"Whitaker","lat":29.344616,"lon":102.652483,"puntuation":2.0,"address":"66 Lindbergh Circle","cierre":"8:47 PM","apertura":"2:53 AM","tarifa_moto":4014,"tarifa_carro":9361},
{"id":920,"name":"Bennett","lat":35.532662,"lon":104.52848,"puntuation":2.1,"address":"039 Sage Terrace","cierre":"8:13 PM","apertura":"11:29 AM","tarifa_moto":7811,"tarifa_carro":8332},
{"id":921,"name":"Manon","lat":21.0033744,"lon":-89.6409417,"puntuation":1.9,"address":"70258 Eagan Junction","cierre":"8:54 PM","apertura":"5:34 AM","tarifa_moto":4795,"tarifa_carro":6437},
{"id":922,"name":"Eal","lat":27.2087957,"lon":53.0405196,"puntuation":3.2,"address":"910 Russell Junction","cierre":"11:41 PM","apertura":"11:29 AM","tarifa_moto":6845,"tarifa_carro":8085},
{"id":923,"name":"Muriel","lat":37.335794,"lon":116.576092,"puntuation":2.9,"address":"8987 Aberg Place","cierre":"6:00 PM","apertura":"6:04 AM","tarifa_moto":7235,"tarifa_carro":7876},
{"id":924,"name":"Annora","lat":58.0618351,"lon":7.584995,"puntuation":2.2,"address":"73588 Orin Crossing","cierre":"7:06 PM","apertura":"6:20 AM","tarifa_moto":6555,"tarifa_carro":9261},
{"id":925,"name":"Doloritas","lat":-6.9230423,"lon":109.1426676,"puntuation":3.5,"address":"705 Oakridge Hill","cierre":"10:51 PM","apertura":"1:02 AM","tarifa_moto":8800,"tarifa_carro":9712},
{"id":926,"name":"Kissee","lat":-8.0075658,"lon":-35.0221895,"puntuation":2.8,"address":"74 Gerald Point","cierre":"6:56 PM","apertura":"6:00 AM","tarifa_moto":8567,"tarifa_carro":9652},
{"id":927,"name":"Abagael","lat":43.6218385,"lon":3.8403455,"puntuation":4.2,"address":"35 Porter Park","cierre":"9:18 PM","apertura":"12:39 AM","tarifa_moto":9317,"tarifa_carro":7065},
{"id":928,"name":"Barbey","lat":-34.5937209,"lon":-58.5035787,"puntuation":1.0,"address":"28 Buena Vista Place","cierre":"10:25 PM","apertura":"10:16 AM","tarifa_moto":5635,"tarifa_carro":6892},
{"id":929,"name":"Elke","lat":14.24512,"lon":-87.958061,"puntuation":3.3,"address":"8 Pennsylvania Park","cierre":"7:50 PM","apertura":"8:54 AM","tarifa_moto":5656,"tarifa_carro":9271},
{"id":930,"name":"Fulton","lat":23.119172,"lon":113.202334,"puntuation":4.8,"address":"72794 Hallows Terrace","cierre":"9:39 PM","apertura":"4:43 AM","tarifa_moto":6644,"tarifa_carro":9646},
{"id":931,"name":"Bradford","lat":1.5073967,"lon":21.0728664,"puntuation":1.0,"address":"10 Westport Lane","cierre":"10:35 PM","apertura":"1:11 AM","tarifa_moto":7610,"tarifa_carro":8837},
{"id":932,"name":"Kingsly","lat":28.271297,"lon":87.128131,"puntuation":3.1,"address":"365 Sachtjen Park","cierre":"8:39 PM","apertura":"7:27 AM","tarifa_moto":8171,"tarifa_carro":8637},
{"id":933,"name":"Zeke","lat":49.9792606,"lon":15.2092621,"puntuation":3.8,"address":"129 Veith Lane","cierre":"7:01 PM","apertura":"4:51 AM","tarifa_moto":8099,"tarifa_carro":6506},
{"id":934,"name":"Esteban","lat":52.4040809,"lon":116.8110808,"puntuation":5.0,"address":"806 Goodland Alley","cierre":"7:04 PM","apertura":"10:36 AM","tarifa_moto":7708,"tarifa_carro":6502},
{"id":935,"name":"Hanson","lat":22.517585,"lon":113.39277,"puntuation":3.7,"address":"19 Carpenter Place","cierre":"10:27 PM","apertura":"9:32 AM","tarifa_moto":8826,"tarifa_carro":9293},
{"id":936,"name":"Conrado","lat":-34.7368519,"lon":-58.5019467,"puntuation":4.6,"address":"592 Hayes Place","cierre":"7:33 PM","apertura":"3:21 AM","tarifa_moto":5362,"tarifa_carro":9881},
{"id":937,"name":"Neddie","lat":20.4112324,"lon":104.2250605,"puntuation":4.9,"address":"47 Sage Junction","cierre":"6:39 PM","apertura":"9:19 AM","tarifa_moto":7648,"tarifa_carro":6632},
{"id":938,"name":"Symon","lat":-39.2820124,"lon":-72.2307798,"puntuation":2.9,"address":"68997 Debra Street","cierre":"6:48 PM","apertura":"2:01 AM","tarifa_moto":8883,"tarifa_carro":7276},
{"id":939,"name":"Stefano","lat":-8.6842819,"lon":115.1829629,"puntuation":2.7,"address":"7147 Lindbergh Lane","cierre":"11:42 PM","apertura":"9:13 AM","tarifa_moto":5722,"tarifa_carro":8066},
{"id":940,"name":"Merline","lat":32.4982249,"lon":20.8195292,"puntuation":3.7,"address":"656 Logan Crossing","cierre":"11:05 PM","apertura":"4:11 AM","tarifa_moto":6716,"tarifa_carro":8365},
{"id":941,"name":"Gordan","lat":19.4102526,"lon":-99.0073673,"puntuation":3.9,"address":"91 Dorton Crossing","cierre":"6:03 PM","apertura":"8:17 AM","tarifa_moto":6647,"tarifa_carro":7357},
{"id":942,"name":"Virgilio","lat":41.28802,"lon":112.627673,"puntuation":3.2,"address":"290 Valley Edge Terrace","cierre":"7:17 PM","apertura":"10:09 AM","tarifa_moto":8077,"tarifa_carro":6272},
{"id":943,"name":"Griffith","lat":38.5642115,"lon":-9.0940605,"puntuation":2.3,"address":"1532 Del Sol Junction","cierre":"9:11 PM","apertura":"3:28 AM","tarifa_moto":5022,"tarifa_carro":6893},
{"id":944,"name":"Celestina","lat":6.893618,"lon":125.164477,"puntuation":4.9,"address":"3944 Russell Trail","cierre":"6:07 PM","apertura":"12:08 AM","tarifa_moto":4227,"tarifa_carro":9174},
{"id":945,"name":"Thorvald","lat":42.5246357,"lon":87.5395855,"puntuation":3.8,"address":"9843 Johnson Pass","cierre":"11:56 PM","apertura":"8:14 AM","tarifa_moto":4816,"tarifa_carro":9369},
{"id":946,"name":"Jonell","lat":9.939624,"lon":126.065213,"puntuation":4.1,"address":"82 Killdeer Parkway","cierre":"7:23 PM","apertura":"1:18 AM","tarifa_moto":5198,"tarifa_carro":8063},
{"id":947,"name":"Catlaina","lat":49.2952364,"lon":14.4681017,"puntuation":4.9,"address":"018 Summit Pass","cierre":"10:22 PM","apertura":"3:12 AM","tarifa_moto":8395,"tarifa_carro":8080},
{"id":948,"name":"Benyamin","lat":52.2590681,"lon":104.2366111,"puntuation":2.8,"address":"7 Merrick Junction","cierre":"10:56 PM","apertura":"1:49 AM","tarifa_moto":4619,"tarifa_carro":9604},
{"id":949,"name":"Carey","lat":37.8010824,"lon":-97.3317391,"puntuation":2.3,"address":"1590 Amoth Drive","cierre":"10:48 PM","apertura":"4:27 AM","tarifa_moto":6718,"tarifa_carro":9958},
{"id":950,"name":"Jazmin","lat":34.10885,"lon":-118.2234229,"puntuation":4.0,"address":"01966 Meadow Ridge Point","cierre":"7:21 PM","apertura":"1:58 AM","tarifa_moto":6647,"tarifa_carro":8082},
{"id":951,"name":"Malissia","lat":-25.586431,"lon":-49.4052251,"puntuation":1.4,"address":"26865 Milwaukee Plaza","cierre":"8:27 PM","apertura":"11:38 AM","tarifa_moto":4924,"tarifa_carro":8458},
{"id":952,"name":"Winne","lat":-7.9211147,"lon":111.4946618,"puntuation":2.8,"address":"25 Lighthouse Bay Court","cierre":"6:10 PM","apertura":"5:21 AM","tarifa_moto":5072,"tarifa_carro":7712},
{"id":953,"name":"Eimile","lat":4.5831986,"lon":114.2212174,"puntuation":1.5,"address":"81233 Kipling Junction","cierre":"6:06 PM","apertura":"11:03 AM","tarifa_moto":4026,"tarifa_carro":9995},
{"id":954,"name":"Winona","lat":48.6618569,"lon":91.339774,"puntuation":4.1,"address":"39388 Logan Place","cierre":"11:50 PM","apertura":"9:42 AM","tarifa_moto":9994,"tarifa_carro":6114},
{"id":955,"name":"Cornie","lat":-6.9002853,"lon":112.0863874,"puntuation":3.2,"address":"7205 Mosinee Trail","cierre":"11:08 PM","apertura":"7:29 AM","tarifa_moto":4246,"tarifa_carro":6303},
{"id":956,"name":"Kori","lat":-0.8761629,"lon":131.255828,"puntuation":4.5,"address":"59383 Oneill Terrace","cierre":"10:18 PM","apertura":"7:46 AM","tarifa_moto":5318,"tarifa_carro":6357},
{"id":957,"name":"Arlin","lat":35.604681,"lon":39.8193219,"puntuation":1.5,"address":"04 Dunning Way","cierre":"8:41 PM","apertura":"4:01 AM","tarifa_moto":6689,"tarifa_carro":6373},
{"id":958,"name":"Kelsi","lat":-7.2936876,"lon":112.2771485,"puntuation":1.3,"address":"36 Chinook Drive","cierre":"11:08 PM","apertura":"1:58 AM","tarifa_moto":4612,"tarifa_carro":7014},
{"id":959,"name":"Marcela","lat":-26.4105245,"lon":-57.1154122,"puntuation":1.5,"address":"855 Granby Drive","cierre":"7:12 PM","apertura":"11:32 AM","tarifa_moto":7136,"tarifa_carro":7606},
{"id":960,"name":"Janenna","lat":31.2057792,"lon":35.7593545,"puntuation":1.7,"address":"709 Morning Trail","cierre":"10:38 PM","apertura":"9:33 AM","tarifa_moto":7816,"tarifa_carro":6542},
{"id":961,"name":"Ashli","lat":40.2343129,"lon":44.2868976,"puntuation":3.0,"address":"74643 Bellgrove Terrace","cierre":"8:52 PM","apertura":"11:46 AM","tarifa_moto":8975,"tarifa_carro":6622},
{"id":962,"name":"Jourdan","lat":33.0524588,"lon":-96.795855,"puntuation":4.8,"address":"776 Ruskin Alley","cierre":"6:29 PM","apertura":"9:57 AM","tarifa_moto":9969,"tarifa_carro":6328},
{"id":963,"name":"Felice","lat":59.85299,"lon":30.245977,"puntuation":4.0,"address":"26503 Reindahl Center","cierre":"10:54 PM","apertura":"9:32 AM","tarifa_moto":8914,"tarifa_carro":7799},
{"id":964,"name":"Etan","lat":41.468342,"lon":115.437602,"puntuation":1.2,"address":"990 Farragut Way","cierre":"9:40 PM","apertura":"6:54 AM","tarifa_moto":7287,"tarifa_carro":8316},
{"id":965,"name":"Giffy","lat":41.0991089,"lon":23.4244419,"puntuation":4.4,"address":"78620 Hanson Plaza","cierre":"8:49 PM","apertura":"12:02 AM","tarifa_moto":5486,"tarifa_carro":7253},
{"id":966,"name":"Alys","lat":49.5474598,"lon":16.2620907,"puntuation":2.0,"address":"69381 Spaight Avenue","cierre":"9:21 PM","apertura":"11:19 AM","tarifa_moto":4210,"tarifa_carro":6098},
{"id":967,"name":"Cointon","lat":39.035613,"lon":115.213446,"puntuation":3.9,"address":"87904 Holmberg Crossing","cierre":"10:01 PM","apertura":"4:04 AM","tarifa_moto":7935,"tarifa_carro":7973},
{"id":968,"name":"Clareta","lat":39.95,"lon":-75.18,"puntuation":3.9,"address":"3780 Hermina Park","cierre":"9:21 PM","apertura":"10:18 AM","tarifa_moto":7614,"tarifa_carro":9007},
{"id":969,"name":"Brockie","lat":31.364902,"lon":108.249509,"puntuation":3.6,"address":"34 Debra Terrace","cierre":"6:01 PM","apertura":"1:55 AM","tarifa_moto":4136,"tarifa_carro":8597},
{"id":970,"name":"Reinold","lat":21.270702,"lon":110.359368,"puntuation":2.2,"address":"06736 Spenser Circle","cierre":"10:29 PM","apertura":"4:53 AM","tarifa_moto":8827,"tarifa_carro":6163},
{"id":971,"name":"Sibylla","lat":46.5485854,"lon":-75.5194643,"puntuation":1.4,"address":"2 Linden Hill","cierre":"10:15 PM","apertura":"7:27 AM","tarifa_moto":7545,"tarifa_carro":7558},
{"id":972,"name":"Gilly","lat":4.727773,"lon":-76.121514,"puntuation":4.7,"address":"70 Golf Point","cierre":"9:47 PM","apertura":"6:33 AM","tarifa_moto":7576,"tarifa_carro":8671},
{"id":973,"name":"Brody","lat":39.224791,"lon":117.135488,"puntuation":2.3,"address":"3132 Birchwood Hill","cierre":"8:19 PM","apertura":"7:49 AM","tarifa_moto":7685,"tarifa_carro":9689},
{"id":974,"name":"Fremont","lat":34.472679,"lon":107.36884,"puntuation":3.6,"address":"85 Shasta Crossing","cierre":"8:39 PM","apertura":"11:07 AM","tarifa_moto":8666,"tarifa_carro":6432},
{"id":975,"name":"Briny","lat":-34.804675,"lon":-58.2532508,"puntuation":1.4,"address":"97 Atwood Drive","cierre":"10:50 PM","apertura":"9:40 AM","tarifa_moto":8576,"tarifa_carro":9381},
{"id":976,"name":"Rory","lat":25.941937,"lon":117.365052,"puntuation":4.8,"address":"446 Lyons Road","cierre":"6:37 PM","apertura":"1:10 AM","tarifa_moto":4774,"tarifa_carro":8106},
{"id":977,"name":"Willi","lat":30.975215,"lon":101.127088,"puntuation":2.5,"address":"00276 Burning Wood Pass","cierre":"9:01 PM","apertura":"6:12 AM","tarifa_moto":6244,"tarifa_carro":8677},
{"id":978,"name":"Mari","lat":44.0519136,"lon":42.8429639,"puntuation":1.0,"address":"49 Erie Park","cierre":"8:22 PM","apertura":"5:22 AM","tarifa_moto":9817,"tarifa_carro":6399},
{"id":979,"name":"Whit","lat":29.8483192,"lon":31.3368529,"puntuation":2.3,"address":"010 Namekagon Center","cierre":"9:19 PM","apertura":"2:27 AM","tarifa_moto":7938,"tarifa_carro":6872},
{"id":980,"name":"Danni","lat":13.9483457,"lon":100.791665,"puntuation":1.4,"address":"48362 Wayridge Hill","cierre":"9:01 PM","apertura":"6:34 AM","tarifa_moto":8909,"tarifa_carro":9341},
{"id":981,"name":"Julee","lat":19.88374,"lon":109.745545,"puntuation":1.4,"address":"72167 Spohn Trail","cierre":"8:45 PM","apertura":"1:53 AM","tarifa_moto":5957,"tarifa_carro":9151},
{"id":982,"name":"Vittorio","lat":46.6211188,"lon":30.7719233,"puntuation":1.0,"address":"52063 Green Ridge Parkway","cierre":"11:52 PM","apertura":"9:15 AM","tarifa_moto":8086,"tarifa_carro":7723},
{"id":983,"name":"Mill","lat":15.0983576,"lon":-90.3903337,"puntuation":2.4,"address":"04 Thompson Circle","cierre":"9:47 PM","apertura":"9:21 AM","tarifa_moto":9171,"tarifa_carro":7422},
{"id":984,"name":"Mariellen","lat":8.77528,"lon":124.80222,"puntuation":3.5,"address":"54 Northfield Road","cierre":"10:55 PM","apertura":"6:41 AM","tarifa_moto":5389,"tarifa_carro":9224},
{"id":985,"name":"Edgard","lat":-7.4043939,"lon":-35.5876697,"puntuation":3.4,"address":"47010 Mariners Cove Street","cierre":"10:04 PM","apertura":"5:05 AM","tarifa_moto":8883,"tarifa_carro":8326},
{"id":986,"name":"Hallsy","lat":46.5201168,"lon":15.8866431,"puntuation":1.9,"address":"784 Lakeland Park","cierre":"8:00 PM","apertura":"4:20 AM","tarifa_moto":4407,"tarifa_carro":9385},
{"id":987,"name":"Fedora","lat":-34.6230015,"lon":-58.5764959,"puntuation":1.2,"address":"60 Petterle Road","cierre":"6:05 PM","apertura":"10:56 AM","tarifa_moto":8505,"tarifa_carro":8819},
{"id":988,"name":"Katrine","lat":15.77511,"lon":108.1665855,"puntuation":3.5,"address":"63031 Myrtle Road","cierre":"6:02 PM","apertura":"1:56 AM","tarifa_moto":5278,"tarifa_carro":7745},
{"id":989,"name":"Devora","lat":59.0475746,"lon":15.002836,"puntuation":3.2,"address":"326 Vahlen Lane","cierre":"7:40 PM","apertura":"3:38 AM","tarifa_moto":8888,"tarifa_carro":8157},
{"id":990,"name":"Dallas","lat":27.511611,"lon":112.726555,"puntuation":3.0,"address":"59 Katie Drive","cierre":"8:24 PM","apertura":"10:55 AM","tarifa_moto":6433,"tarifa_carro":7789},
{"id":991,"name":"Lorens","lat":14.6639812,"lon":121.022408,"puntuation":1.8,"address":"7 Boyd Drive","cierre":"10:05 PM","apertura":"9:41 AM","tarifa_moto":7258,"tarifa_carro":7712},
{"id":992,"name":"Dasie","lat":15.5251409,"lon":-89.3343599,"puntuation":3.6,"address":"77321 Oxford Hill","cierre":"9:28 PM","apertura":"7:06 AM","tarifa_moto":7595,"tarifa_carro":6728},
{"id":993,"name":"Aryn","lat":33.425066,"lon":-6.0017674,"puntuation":2.0,"address":"69670 Nevada Point","cierre":"10:54 PM","apertura":"7:42 AM","tarifa_moto":5638,"tarifa_carro":8688},
{"id":994,"name":"Andromache","lat":51.4964248,"lon":7.1215271,"puntuation":3.4,"address":"1 Novick Road","cierre":"8:30 PM","apertura":"7:03 AM","tarifa_moto":4007,"tarifa_carro":9700},
{"id":995,"name":"Zabrina","lat":36.2048468,"lon":137.2118015,"puntuation":2.5,"address":"3316 Graedel Plaza","cierre":"9:33 PM","apertura":"4:10 AM","tarifa_moto":4127,"tarifa_carro":8291},
{"id":996,"name":"Jermain","lat":-7.130192,"lon":112.420603,"puntuation":3.2,"address":"371 Ridgeview Court","cierre":"9:54 PM","apertura":"3:55 AM","tarifa_moto":5182,"tarifa_carro":9227},
{"id":997,"name":"Arlene","lat":30.5547139,"lon":-84.0801613,"puntuation":1.9,"address":"582 Mosinee Hill","cierre":"9:22 PM","apertura":"11:57 AM","tarifa_moto":9685,"tarifa_carro":6749},
{"id":998,"name":"Grenville","lat":28.168408,"lon":120.482198,"puntuation":2.5,"address":"4 Sugar Way","cierre":"8:45 PM","apertura":"12:31 AM","tarifa_moto":6620,"tarifa_carro":6104},
{"id":999,"name":"Camila","lat":40.3808163,"lon":23.9238045,"puntuation":4.9,"address":"87 Eastlawn Lane","cierre":"11:43 PM","apertura":"2:25 AM","tarifa_moto":7579,"tarifa_carro":9088},
{"id":1000,"name":"Alexander","lat":59.9871162,"lon":15.8125817,"puntuation":4.3,"address":"67432 Sycamore Point","cierre":"7:35 PM","apertura":"6:03 AM","tarifa_moto":7516,"tarifa_carro":9110}]